{"type": "FeatureCollection", "features": [{"type": "Feature", "properties": {"name": "dkLryPzLD015hgvVrX5Ncg", "score": 10.533858701752887}, "geometry": {"type": "Point", "coordinates": [8.5291672, 47.2496467]}}, {"type": "Feature", "properties": {"name": "wtnENRAs9xJmtA4LVJxQ1Q", "score": 11.736236251856367}, "geometry": {"type": "Point", "coordinates": [8.5292704, 47.2495459]}}, {"type": "Feature", "properties": {"name": "Bx50gAUOIb0rge40Kj1TLQ", "score": 10.368740326753302}, "geometry": {"type": "Point", "coordinates": [8.5293598, 47.2494477]}}, {"type": "Feature", "properties": {"name": "DAQaHdwn3VqAz4OKuNyxlg", "score": 12.068466296062196}, "geometry": {"type": "Point", "coordinates": [8.5294526, 47.2493519]}}, {"type": "Feature", "properties": {"name": "zIvi2UR422PNF6uNmfBqpA", "score": 9.295807860233538}, "geometry": {"type": "Point", "coordinates": [8.5295346, 47.2492731]}}, {"type": "Feature", "properties": {"name": "rBmnl_UyT4vFdWAofV2dAQ", "score": 13.473731858312474}, "geometry": {"type": "Point", "coordinates": [8.5296146, 47.249195]}}, {"type": "Feature", "properties": {"name": "7TEqtIUsP3eOExFqHdr1Aw", "score": 9.14274230687807}, "geometry": {"type": "Point", "coordinates": [8.529719, 47.2491083]}}, {"type": "Feature", "properties": {"name": "zY7JYkV_nKEy4qUWFdK8UA", "score": 10.699357469863857}, "geometry": {"type": "Point", "coordinates": [8.5298081, 47.2490421]}}, {"type": "Feature", "properties": {"name": "gV7oBWUhW5FKt1f0f4qIhQ", "score": 28.736929111661805}, "geometry": {"type": "Point", "coordinates": [8.5298988, 47.2489687]}}, {"type": "Feature", "properties": {"name": "4Xk8fRbua5L28c-DGFrY9w", "score": 8.466594625158221}, "geometry": {"type": "Point", "coordinates": [8.5299966, 47.2488988]}}, {"type": "Feature", "properties": {"name": "RKVlrRFQmKg13MVV0JQuIg", "score": 1.3338488481423805}, "geometry": {"type": "Point", "coordinates": [8.5300862, 47.2488173]}}, {"type": "Feature", "properties": {"name": "YzyAwX7aQPYKOMzs9CpF-A", "score": 23.0305976435157}, "geometry": {"type": "Point", "coordinates": [8.5301899, 47.2487495]}}, {"type": "Feature", "properties": {"name": "NpE_r9VPYYj4aabl8QqR_w", "score": 9.102556694467244}, "geometry": {"type": "Point", "coordinates": [8.5302801, 47.2486762]}}, {"type": "Feature", "properties": {"name": "VI3UAFK29EHi7AvxUR9tsw", "score": 17.220168334861185}, "geometry": {"type": "Point", "coordinates": [8.5303318, 47.2486088]}}, {"type": "Feature", "properties": {"name": "EwSS1VNJblnJ5KqBg95s3A", "score": 21.646486915360565}, "geometry": {"type": "Point", "coordinates": [8.5304489, 47.2485421]}}, {"type": "Feature", "properties": {"name": "_QxsN8C68V823_N-P9Sl4w", "score": 14.148722619136388}, "geometry": {"type": "Point", "coordinates": [8.5305456, 47.2484692]}}, {"type": "Feature", "properties": {"name": "7VVGBArFqvBBqT0VYU07xg", "score": 12.297659032804034}, "geometry": {"type": "Point", "coordinates": [8.5306675, 47.2483996]}}, {"type": "Feature", "properties": {"name": "ogYJUznZsuAEerQgYwXW9Q", "score": 5.890056348984896}, "geometry": {"type": "Point", "coordinates": [8.5307717, 47.2483229]}}, {"type": "Feature", "properties": {"name": "79ziItVADA0hWOt8YvBH_w", "score": 10.59637555388777}, "geometry": {"type": "Point", "coordinates": [8.5308304, 47.2482232]}}, {"type": "Feature", "properties": {"name": "PNNcEjo0ilYGzN27BfHTIw", "score": 6.721760838930939}, "geometry": {"type": "Point", "coordinates": [8.5309433, 47.2481396]}}, {"type": "Feature", "properties": {"name": "BKai0FKhwwPSvlIbe_bDTw", "score": 4.118542761514976}, "geometry": {"type": "Point", "coordinates": [8.5310056, 47.2480608]}}, {"type": "Feature", "properties": {"name": "r71CybDRSsuyUnlAQjKWPw", "score": 13.473731858312474}, "geometry": {"type": "Point", "coordinates": [8.531085, 47.2479691]}}, {"type": "Feature", "properties": {"name": "D_EHEXV0moXb--wnDdiHjg", "score": 25.33021354248369}, "geometry": {"type": "Point", "coordinates": [8.5312585, 47.2478917]}}, {"type": "Feature", "properties": {"name": "70hhcGRGa5Vi8RKwkIilUg", "score": 15.390259810904013}, "geometry": {"type": "Point", "coordinates": [8.5313355, 47.247804]}}, {"type": "Feature", "properties": {"name": "0Q8Hqdalmzii1C8-mctsbw", "score": 10.536810969008801}, "geometry": {"type": "Point", "coordinates": [8.5314383, 47.2477077]}}, {"type": "Feature", "properties": {"name": "W9rPf6HF-dwijd2pQ4rafg", "score": 13.473731858312474}, "geometry": {"type": "Point", "coordinates": [8.5315276, 47.2476262]}}, {"type": "Feature", "properties": {"name": "JgpRD0nX-373TT-M5HwrdQ", "score": 10.59637555388777}, "geometry": {"type": "Point", "coordinates": [8.531631, 47.247524]}}, {"type": "Feature", "properties": {"name": "HuYzCEXQfMJeyTsDDWaR3g", "score": 31.44181350006214}, "geometry": {"type": "Point", "coordinates": [8.5317287, 47.2474231]}}, {"type": "Feature", "properties": {"name": "GNgoszvsofvy_YdpMFQRaA", "score": 12.297659032804034}, "geometry": {"type": "Point", "coordinates": [8.5318408, 47.2473277]}}, {"type": "Feature", "properties": {"name": "jSUABgAgVOQ650URp09yEA", "score": 23.757028553884638}, "geometry": {"type": "Point", "coordinates": [8.5319322, 47.2472342]}}, {"type": "Feature", "properties": {"name": "Cuo4tsFAPq2EAp9UALI54A", "score": 32.809698534599576}, "geometry": {"type": "Point", "coordinates": [8.5320064, 47.2470966]}}, {"type": "Feature", "properties": {"name": "zThuGqrjFw5Cq9wnuNXDIA", "score": 25.79463916739995}, "geometry": {"type": "Point", "coordinates": [8.5320562, 47.2470027]}}, {"type": "Feature", "properties": {"name": "KneRk79mVvSLs9xAxDQCSQ", "score": 18.841729037025413}, "geometry": {"type": "Point", "coordinates": [8.5321343, 47.2468896]}}, {"type": "Feature", "properties": {"name": "smyZ1ZydaJHozYLi6ebXIg", "score": 20.07256452351442}, "geometry": {"type": "Point", "coordinates": [8.5321852, 47.2467862]}}, {"type": "Feature", "properties": {"name": "OQgukTV3CWrwbC1JTJPRFA", "score": 9.876674671321634}, "geometry": {"type": "Point", "coordinates": [8.5322418, 47.2466722]}}, {"type": "Feature", "properties": {"name": "_tOmq1CDtUKVrVkXmQFXAg", "score": 5.718705808424039}, "geometry": {"type": "Point", "coordinates": [8.5322669, 47.2465492]}}, {"type": "Feature", "properties": {"name": "dE0GpyjiytW0gi_kaNsT7g", "score": 12.297659032804034}, "geometry": {"type": "Point", "coordinates": [8.5323303, 47.2464242]}}, {"type": "Feature", "properties": {"name": "oybBCLTPsbBzU0TMX3FS3w", "score": 2.9871448751000176}, "geometry": {"type": "Point", "coordinates": [8.5324064, 47.2463151]}}, {"type": "Feature", "properties": {"name": "y1hD-kLrVXr0qpsXAuStOQ", "score": 12.297659032804034}, "geometry": {"type": "Point", "coordinates": [8.5324755, 47.2461981]}}, {"type": "Feature", "properties": {"name": "Csx3F3XyGjlLqceLWsfGbQ", "score": 8.356180531928304}, "geometry": {"type": "Point", "coordinates": [8.5325326, 47.2460885]}}, {"type": "Feature", "properties": {"name": "uFExFG--puDboAXRMotJMA", "score": 12.161420827536697}, "geometry": {"type": "Point", "coordinates": [8.5326206, 47.2459853]}}, {"type": "Feature", "properties": {"name": "pio912E2mfowMqSwZ19cxw", "score": 8.791056351703036}, "geometry": {"type": "Point", "coordinates": [8.5326734, 47.2458663]}}, {"type": "Feature", "properties": {"name": "i7n3VMFrsbilVVv635yWbQ", "score": 14.813083760233964}, "geometry": {"type": "Point", "coordinates": [8.53271, 47.2457366]}}, {"type": "Feature", "properties": {"name": "8W8LJNJUKt5zpZtDS4VJ6w", "score": 12.113862799560467}, "geometry": {"type": "Point", "coordinates": [8.5327682, 47.2456249]}}, {"type": "Feature", "properties": {"name": "-2pmf0YCOHiuLLYiAYQ-xg", "score": 29.87627493219649}, "geometry": {"type": "Point", "coordinates": [8.5328089, 47.2455243]}}, {"type": "Feature", "properties": {"name": "VfIGoLDSFWLaxgq_PHMwzQ", "score": 21.02308775833765}, "geometry": {"type": "Point", "coordinates": [8.5328704, 47.2454219]}}, {"type": "Feature", "properties": {"name": "nOmbt68Jv1t6GLu4oRggpA", "score": 21.26307088833821}, "geometry": {"type": "Point", "coordinates": [8.5329385, 47.2453107]}}, {"type": "Feature", "properties": {"name": "TWposf_ay-vIAcnbTGGp_g", "score": 15.15485223850567}, "geometry": {"type": "Point", "coordinates": [8.5329971, 47.2452193]}}, {"type": "Feature", "properties": {"name": "Hl_90d5NW0PJJLcYFH4d-g", "score": 10.556337324060102}, "geometry": {"type": "Point", "coordinates": [8.5330505, 47.2451169]}}, {"type": "Feature", "properties": {"name": "WxFgHBXISkv8r6rPAD-GJw", "score": 20.07256452351442}, "geometry": {"type": "Point", "coordinates": [8.5331277, 47.245033]}}, {"type": "Feature", "properties": {"name": "RX_JlbpqUvAumhihh6KKFw", "score": 19.205212986417546}, "geometry": {"type": "Point", "coordinates": [8.5332534, 47.2449575]}}, {"type": "Feature", "properties": {"name": "ReNwAbTZhrYjM7Xsr4iDuA", "score": 13.204570158848124}, "geometry": {"type": "Point", "coordinates": [8.5333077, 47.2448607]}}, {"type": "Feature", "properties": {"name": "ZYjxmjlRoCLFVy3tqnFWSw", "score": 23.506824331128776}, "geometry": {"type": "Point", "coordinates": [8.5333818, 47.2447671]}}, {"type": "Feature", "properties": {"name": "ZaK1P4gGw01oKMrlpuJnMA", "score": 21.791499144659976}, "geometry": {"type": "Point", "coordinates": [8.5334611, 47.2446608]}}, {"type": "Feature", "properties": {"name": "ZumZLuHy1MipFGJeVpcyOQ", "score": 28.736929111661805}, "geometry": {"type": "Point", "coordinates": [8.5335218, 47.2445626]}}, {"type": "Feature", "properties": {"name": "wiT3K65E16XJ501nwkELUA", "score": 14.077493984157531}, "geometry": {"type": "Point", "coordinates": [8.53359, 47.244464]}}, {"type": "Feature", "properties": {"name": "uOdmIvVAPitv3cw7WrsVuA", "score": 20.021279740836786}, "geometry": {"type": "Point", "coordinates": [8.5336603, 47.2443569]}}, {"type": "Feature", "properties": {"name": "dj7MtrIgl-Q5U-eprHdlqA", "score": 25.298120882545014}, "geometry": {"type": "Point", "coordinates": [8.5336968, 47.2442659]}}, {"type": "Feature", "properties": {"name": "F1X2yD5U7H8q_zo1n2mB2w", "score": 12.297659032804034}, "geometry": {"type": "Point", "coordinates": [8.533759, 47.2441856]}}, {"type": "Feature", "properties": {"name": "TyNS363VMPTQPUl8oKlpJw", "score": 22.614724375145595}, "geometry": {"type": "Point", "coordinates": [8.5338479, 47.244113]}}, {"type": "Feature", "properties": {"name": "9e4clI8KXGTi22-UEWu46Q", "score": 28.736929111661805}, "geometry": {"type": "Point", "coordinates": [8.5338486, 47.2440235]}}, {"type": "Feature", "properties": {"name": "TAWVj-kZiTgLykNoCL_ICA", "score": 12.538643135156045}, "geometry": {"type": "Point", "coordinates": [8.5338268, 47.2439391]}}, {"type": "Feature", "properties": {"name": "Jg5m0Kq-PJdEP_CN-OdbHw", "score": 28.303888880734277}, "geometry": {"type": "Point", "coordinates": [8.5338216, 47.2438447]}}, {"type": "Feature", "properties": {"name": "jUKIn3vOtWMSRUPFr5U74Q", "score": 15.474081275930185}, "geometry": {"type": "Point", "coordinates": [8.533776, 47.2437264]}}, {"type": "Feature", "properties": {"name": "u2WX86p0lXk_HVDjYX4hPA", "score": 12.704025505966007}, "geometry": {"type": "Point", "coordinates": [8.5337152, 47.2436301]}}, {"type": "Feature", "properties": {"name": "AqOB6wP7gJDCvoebYq-LLQ", "score": 19.668372610226335}, "geometry": {"type": "Point", "coordinates": [8.5336686, 47.2435306]}}, {"type": "Feature", "properties": {"name": "HTy0JGc4ZR6cbdrQlf2hbQ", "score": 31.016924667056347}, "geometry": {"type": "Point", "coordinates": [8.5335888, 47.2434342]}}, {"type": "Feature", "properties": {"name": "UvAty_orzP4jiqfoHvyzVA", "score": 36.11085701588388}, "geometry": {"type": "Point", "coordinates": [8.5334883, 47.2433049]}}, {"type": "Feature", "properties": {"name": "hSVUA1P3YmF4Fp5Dd7dPeA", "score": 31.575241015228258}, "geometry": {"type": "Point", "coordinates": [8.533425, 47.2431978]}}, {"type": "Feature", "properties": {"name": "kHG-ngSDajKLjMxwLX5Xmw", "score": 15.267843486935204}, "geometry": {"type": "Point", "coordinates": [8.5333601, 47.2430957]}}, {"type": "Feature", "properties": {"name": "p4rs_K16I3P2l4FirosYFQ", "score": 20.174885679631455}, "geometry": {"type": "Point", "coordinates": [8.5332983, 47.242972]}}, {"type": "Feature", "properties": {"name": "kUDRD-uiplICD9T9NDJ_QQ", "score": 28.827964665064634}, "geometry": {"type": "Point", "coordinates": [8.5332328, 47.2428714]}}, {"type": "Feature", "properties": {"name": "cTsVij9obwigEvnsjueUtA", "score": 24.92905509927631}, "geometry": {"type": "Point", "coordinates": [8.5331182, 47.2427562]}}, {"type": "Feature", "properties": {"name": "dYIrK0Bh8emtBoKMApoQHw", "score": 34.60974018909599}, "geometry": {"type": "Point", "coordinates": [8.5330185, 47.2426534]}}, {"type": "Feature", "properties": {"name": "Mo8eukQduwJaVKpsL8nyyA", "score": 19.518576173023828}, "geometry": {"type": "Point", "coordinates": [8.5329241, 47.2425498]}}, {"type": "Feature", "properties": {"name": "tUpFYbqxv1si_f-26v9Lpw", "score": 28.78720410161422}, "geometry": {"type": "Point", "coordinates": [8.5328238, 47.2424468]}}, {"type": "Feature", "properties": {"name": "gooMbPGWUzwDqs1rh29-VQ", "score": 10.756338718018725}, "geometry": {"type": "Point", "coordinates": [8.5327101, 47.2423536]}}, {"type": "Feature", "properties": {"name": "zpDosbKUmIE-rp36taOBaw", "score": 20.053624809586818}, "geometry": {"type": "Point", "coordinates": [8.5326159, 47.2422574]}}, {"type": "Feature", "properties": {"name": "tV3vpSt2m4-IcyfCTU-Jxg", "score": 27.73688827726017}, "geometry": {"type": "Point", "coordinates": [8.5325143, 47.2421491]}}, {"type": "Feature", "properties": {"name": "zJItZ3toDoAEtp9ukU14Ew", "score": 14.593525534586934}, "geometry": {"type": "Point", "coordinates": [8.5324049, 47.2420185]}}, {"type": "Feature", "properties": {"name": "FixMdvZuHwOC88zJlweHow", "score": 31.265023045248935}, "geometry": {"type": "Point", "coordinates": [8.5323155, 47.2419089]}}, {"type": "Feature", "properties": {"name": "LV5qPwBI7KIK3A6Fe8F7Xg", "score": 38.00024261403411}, "geometry": {"type": "Point", "coordinates": [8.5322197, 47.2417912]}}, {"type": "Feature", "properties": {"name": "isiaua0DVNcqtGg2sepqjA", "score": 12.297659032804034}, "geometry": {"type": "Point", "coordinates": [8.5321156, 47.241665]}}, {"type": "Feature", "properties": {"name": "BS02j-DRoWvWJlkcS1H9LQ", "score": 13.08305042393859}, "geometry": {"type": "Point", "coordinates": [8.532017, 47.2415196]}}, {"type": "Feature", "properties": {"name": "hWczDy6akad_8N1iVg6wxg", "score": 24.68845240878345}, "geometry": {"type": "Point", "coordinates": [8.5319274, 47.2413992]}}, {"type": "Feature", "properties": {"name": "sb7e0iKFW8a42t0lKrwROw", "score": 26.176571613106347}, "geometry": {"type": "Point", "coordinates": [8.5318464, 47.2412793]}}, {"type": "Feature", "properties": {"name": "swgZZupQHhY9_3QZ4U1h0w", "score": 28.736929111661805}, "geometry": {"type": "Point", "coordinates": [8.5317804, 47.2411394]}}, {"type": "Feature", "properties": {"name": "MKKP0X1hg2CznHGCobgyzQ", "score": 9.069581766883978}, "geometry": {"type": "Point", "coordinates": [8.5317318, 47.2409976]}}, {"type": "Feature", "properties": {"name": "3lKpHU0lUnC-Z-CzxBRzxQ", "score": 25.840590586082012}, "geometry": {"type": "Point", "coordinates": [8.5317074, 47.2408692]}}, {"type": "Feature", "properties": {"name": "toZBW2zgQ50Q4FDCge2giA", "score": 37.36311896352515}, "geometry": {"type": "Point", "coordinates": [8.5316807, 47.2407313]}}, {"type": "Feature", "properties": {"name": "CzlRTCqcyIPZ-3nVGNCoHw", "score": 22.68743171958967}, "geometry": {"type": "Point", "coordinates": [8.5316501, 47.2405885]}}, {"type": "Feature", "properties": {"name": "pID9Mgn9DlR2nJWBiITC7A", "score": 29.55131666961348}, "geometry": {"type": "Point", "coordinates": [8.531627, 47.2404485]}}, {"type": "Feature", "properties": {"name": "MYiPCL1ei9s2IznBj-m9nw", "score": 25.391143659636697}, "geometry": {"type": "Point", "coordinates": [8.5315844, 47.2403045]}}, {"type": "Feature", "properties": {"name": "MIlEkxvXOjEUVq0B-Y9HhA", "score": 20.07256452351442}, "geometry": {"type": "Point", "coordinates": [8.5315359, 47.2401585]}}, {"type": "Feature", "properties": {"name": "2UjJFkzfI6zikRLk7opBUw", "score": 24.50805630727212}, "geometry": {"type": "Point", "coordinates": [8.5314952, 47.2400076]}}, {"type": "Feature", "properties": {"name": "TEi2MqJ_yrFT8bMn3PakFA", "score": 19.32058633330357}, "geometry": {"type": "Point", "coordinates": [8.5314519, 47.2398571]}}, {"type": "Feature", "properties": {"name": "q4C6t6Rl_MNEyEcNqOyjIg", "score": 28.736929111661805}, "geometry": {"type": "Point", "coordinates": [8.5314015, 47.2396995]}}, {"type": "Feature", "properties": {"name": "75A9qtrXpH1kGYoZLIxcYQ", "score": 34.88484639136227}, "geometry": {"type": "Point", "coordinates": [8.5313305, 47.2395467]}}, {"type": "Feature", "properties": {"name": "JKIdrvh6VPYAcVSZBIdDmA", "score": 28.363516584311277}, "geometry": {"type": "Point", "coordinates": [8.531248, 47.2393804]}}, {"type": "Feature", "properties": {"name": "c20iMTfE_hNfW2S8z7CsOg", "score": 24.633814290990156}, "geometry": {"type": "Point", "coordinates": [8.5311695, 47.2392068]}}, {"type": "Feature", "properties": {"name": "5qphD2XOSa1GtqZmOIr3pA", "score": 21.44849376344569}, "geometry": {"type": "Point", "coordinates": [8.5311151, 47.2390446]}}, {"type": "Feature", "properties": {"name": "NtKjRaW0_-bCR7XwrOFN-Q", "score": 36.526268141687545}, "geometry": {"type": "Point", "coordinates": [8.5310534, 47.2388828]}}, {"type": "Feature", "properties": {"name": "zS-Gexhsft8KaPKSMNyeSg", "score": 27.19886063849967}, "geometry": {"type": "Point", "coordinates": [8.5309858, 47.2387103]}}, {"type": "Feature", "properties": {"name": "la_pzxXEfk0UHrihCdUK3w", "score": 19.40031232566576}, "geometry": {"type": "Point", "coordinates": [8.5309223, 47.2385358]}}, {"type": "Feature", "properties": {"name": "1dLMrSs48vVK1IfWt9kYDQ", "score": 30.04975448498923}, "geometry": {"type": "Point", "coordinates": [8.5308484, 47.2383615]}}, {"type": "Feature", "properties": {"name": "_kyrvb3PEy4RLViW2kcdXg", "score": 22.38470846954526}, "geometry": {"type": "Point", "coordinates": [8.5307717, 47.238187]}}, {"type": "Feature", "properties": {"name": "gv9_79y08zvC8t0GseJHIw", "score": 38.085691073069405}, "geometry": {"type": "Point", "coordinates": [8.5306884, 47.2380145]}}, {"type": "Feature", "properties": {"name": "KD10wkXWfttAu4KQuQT95g", "score": 22.399771394160663}, "geometry": {"type": "Point", "coordinates": [8.5306245, 47.237852]}}, {"type": "Feature", "properties": {"name": "KDbZ74-ie5WXWvlWd4sZ7Q", "score": 25.955086257079895}, "geometry": {"type": "Point", "coordinates": [8.5305452, 47.23769]}}, {"type": "Feature", "properties": {"name": "zs9rHy1ZS4yvnv1E08VFmg", "score": 39.636083311113275}, "geometry": {"type": "Point", "coordinates": [8.530468, 47.2375263]}}, {"type": "Feature", "properties": {"name": "rYOLNczBATz9GZuIHltMnA", "score": 38.22928472005232}, "geometry": {"type": "Point", "coordinates": [8.5303924, 47.2373568]}}, {"type": "Feature", "properties": {"name": "2brzyjZC8vvnaOaFMgA-gA", "score": 32.79683751280371}, "geometry": {"type": "Point", "coordinates": [8.5303222, 47.2371822]}}, {"type": "Feature", "properties": {"name": "0b__M2Sm1_d1n-h-reHSzA", "score": 17.374778688606447}, "geometry": {"type": "Point", "coordinates": [8.5302414, 47.2370122]}}, {"type": "Feature", "properties": {"name": "ewefXTZmFQR6vIpZBjqT6Q", "score": 34.75053790519651}, "geometry": {"type": "Point", "coordinates": [8.5301733, 47.2368358]}}, {"type": "Feature", "properties": {"name": "CnCa0kei5I3bfZ7NcJlR1Q", "score": 32.139357163337316}, "geometry": {"type": "Point", "coordinates": [8.5300998, 47.2366552]}}, {"type": "Feature", "properties": {"name": "6NgdrX2YJ1Hj5lpgnO696g", "score": 47.62028123729113}, "geometry": {"type": "Point", "coordinates": [8.5300334, 47.2364828]}}, {"type": "Feature", "properties": {"name": "h9RwffUVc7POZyruXWA0rQ", "score": 40.76542670431936}, "geometry": {"type": "Point", "coordinates": [8.5299473, 47.2363133]}}, {"type": "Feature", "properties": {"name": "m_CSQ3KodWJfmFcLMtC71A", "score": 31.543942788067636}, "geometry": {"type": "Point", "coordinates": [8.5298729, 47.2361396]}}, {"type": "Feature", "properties": {"name": "kj-dRrhavCp9O844M1i7iw", "score": 28.09821563066571}, "geometry": {"type": "Point", "coordinates": [8.529806, 47.2359696]}}, {"type": "Feature", "properties": {"name": "LwgE0jqymNrcVuO9WaHqNQ", "score": 36.526268141687545}, "geometry": {"type": "Point", "coordinates": [8.5297406, 47.2357966]}}, {"type": "Feature", "properties": {"name": "Mrv1cNiBBb5rdEpB9qVnmg", "score": 42.36427524184469}, "geometry": {"type": "Point", "coordinates": [8.5296661, 47.2356253]}}, {"type": "Feature", "properties": {"name": "140TUKqEqFk5u6zCdcqG0w", "score": 24.113179083660064}, "geometry": {"type": "Point", "coordinates": [8.5296159, 47.2354693]}}, {"type": "Feature", "properties": {"name": "74n0FzBmTqrpuVaEe7o3qQ", "score": 25.33038237382343}, "geometry": {"type": "Point", "coordinates": [8.5294947, 47.2352996]}}, {"type": "Feature", "properties": {"name": "xOpsVcKwy9WYvVyEDs7gCg", "score": 34.50259594111001}, "geometry": {"type": "Point", "coordinates": [8.5293732, 47.2351442]}}, {"type": "Feature", "properties": {"name": "km37tcb5ow7pc27nSNBZgw", "score": 28.597517277181105}, "geometry": {"type": "Point", "coordinates": [8.5292277, 47.2349994]}}, {"type": "Feature", "properties": {"name": "c85yzSGElQh0XjoWjrNbFw", "score": 36.02787239052204}, "geometry": {"type": "Point", "coordinates": [8.5290607, 47.2348578]}}, {"type": "Feature", "properties": {"name": "NZTbt8enyW7sjIpApX-Q5Q", "score": 38.965546003881826}, "geometry": {"type": "Point", "coordinates": [8.5288889, 47.2347101]}}, {"type": "Feature", "properties": {"name": "sMda6hJE0qDlOAzKYvWm6A", "score": 36.526268141687545}, "geometry": {"type": "Point", "coordinates": [8.52872, 47.2345629]}}, {"type": "Feature", "properties": {"name": "hQIBe5Lzmh7rRCM79VJPLQ", "score": 19.27540581889741}, "geometry": {"type": "Point", "coordinates": [8.5285793, 47.234424]}}, {"type": "Feature", "properties": {"name": "2O8bggM_EiwEwkC3WzqviQ", "score": 27.143198134703734}, "geometry": {"type": "Point", "coordinates": [8.5284255, 47.2342769]}}, {"type": "Feature", "properties": {"name": "vjjcfFgH5URVAHDdNYHCvg", "score": 28.063277909314987}, "geometry": {"type": "Point", "coordinates": [8.5282879, 47.2341437]}}, {"type": "Feature", "properties": {"name": "B19d_oQUkNbeNZyN3Vx7mQ", "score": 37.693867893348475}, "geometry": {"type": "Point", "coordinates": [8.528135, 47.2340022]}}, {"type": "Feature", "properties": {"name": "o1vqQMR5UqaM1hbw7jOH5A", "score": 33.49842445416109}, "geometry": {"type": "Point", "coordinates": [8.5279821, 47.2338684]}}, {"type": "Feature", "properties": {"name": "9f9-_MfRKFzZu9GBM53LYg", "score": 26.447897240009418}, "geometry": {"type": "Point", "coordinates": [8.527835, 47.2337317]}}, {"type": "Feature", "properties": {"name": "TWnkfLz4BI0hGO2bd07kkQ", "score": 42.68911900100051}, "geometry": {"type": "Point", "coordinates": [8.5277002, 47.2335946]}}, {"type": "Feature", "properties": {"name": "x8HZTJ1_KbBsZdoJpCc6XQ", "score": 26.61682861715358}, "geometry": {"type": "Point", "coordinates": [8.5275569, 47.2334632]}}, {"type": "Feature", "properties": {"name": "YlIUHzgxvJ1JxluEXvWI5Q", "score": 41.44089205288092}, "geometry": {"type": "Point", "coordinates": [8.5274296, 47.233327]}}, {"type": "Feature", "properties": {"name": "7TINRA4EF6UWXjApDwS_tw", "score": 37.901131053956846}, "geometry": {"type": "Point", "coordinates": [8.5272929, 47.2331925]}}, {"type": "Feature", "properties": {"name": "e0YQdcCiTPSFVuyX3g_row", "score": 40.80104923462163}, "geometry": {"type": "Point", "coordinates": [8.5271619, 47.2330563]}}, {"type": "Feature", "properties": {"name": "QUDVY656owqD4D8SEGFcTw", "score": 18.558186499937857}, "geometry": {"type": "Point", "coordinates": [8.5270387, 47.2329249]}}, {"type": "Feature", "properties": {"name": "35qMGuR14FmJjBA4mPfTvw", "score": 18.18399916980436}, "geometry": {"type": "Point", "coordinates": [8.5269295, 47.2327799]}}, {"type": "Feature", "properties": {"name": "s7Tv-stizmPJn1lYLchUnQ", "score": 22.770636833147133}, "geometry": {"type": "Point", "coordinates": [8.5268276, 47.2326379]}}, {"type": "Feature", "properties": {"name": "tosw4mQHW7nC5iHCrhyFaw", "score": 41.56866372083464}, "geometry": {"type": "Point", "coordinates": [8.5267412, 47.2325041]}}, {"type": "Feature", "properties": {"name": "2o3dXBiGZxsb8SJMbrWgpQ", "score": 14.88408261097676}, "geometry": {"type": "Point", "coordinates": [8.5266526, 47.2323638]}}, {"type": "Feature", "properties": {"name": "XYEWT-BIdH7WDTnMfFGvSg", "score": 22.725385239841568}, "geometry": {"type": "Point", "coordinates": [8.5265634, 47.2322218]}}, {"type": "Feature", "properties": {"name": "CIxDTGv84B72W56jz22JtQ", "score": 25.159303368694093}, "geometry": {"type": "Point", "coordinates": [8.526495, 47.2320802]}}, {"type": "Feature", "properties": {"name": "m8-ypHXrJCvLTJEaKT2Deg", "score": 10.59637555388777}, "geometry": {"type": "Point", "coordinates": [8.5264252, 47.231929]}}, {"type": "Feature", "properties": {"name": "IczxizJrTmVkAVyKmNlfPw", "score": 13.473731858312474}, "geometry": {"type": "Point", "coordinates": [8.5263877, 47.2317851]}}, {"type": "Feature", "properties": {"name": "M-ySQeHmhteGD7ijn-AfDQ", "score": 40.85348657872569}, "geometry": {"type": "Point", "coordinates": [8.5263468, 47.2316395]}}, {"type": "Feature", "properties": {"name": "GZbj4qU32ByTtmlWQRRcSw", "score": 30.435282623647385}, "geometry": {"type": "Point", "coordinates": [8.5263401, 47.2314835]}}, {"type": "Feature", "properties": {"name": "X_Y4e7LkSFGSftOj3EegMA", "score": 12.297659032804034}, "geometry": {"type": "Point", "coordinates": [8.5263605, 47.2313444]}}, {"type": "Feature", "properties": {"name": "Dgqapu0nVi0w7f04InXTkQ", "score": 20.386992058946987}, "geometry": {"type": "Point", "coordinates": [8.5263854, 47.2311962]}}, {"type": "Feature", "properties": {"name": "ehjdSnqfWOMxGEmT-E3g0w", "score": 24.37082987581565}, "geometry": {"type": "Point", "coordinates": [8.5264421, 47.231055]}}, {"type": "Feature", "properties": {"name": "597a0g9c-xIpeHcTIAqXbw", "score": 5.829242850879351}, "geometry": {"type": "Point", "coordinates": [8.5265157, 47.2309102]}}, {"type": "Feature", "properties": {"name": "z2o0arlGrthcFkkziLvRwQ", "score": 11.947225516300005}, "geometry": {"type": "Point", "coordinates": [8.5265976, 47.230765]}}, {"type": "Feature", "properties": {"name": "HyIPpSqnxwf4P1NvrYQL0A", "score": 21.628320473800464}, "geometry": {"type": "Point", "coordinates": [8.5266701, 47.2306256]}}, {"type": "Feature", "properties": {"name": "MjVbP3QJBa3J6VIfOpIdfA", "score": 16.552672931282082}, "geometry": {"type": "Point", "coordinates": [8.5267409, 47.2304854]}}, {"type": "Feature", "properties": {"name": "PhplwRJ1KG3vuHbVJGpCaw", "score": 28.020871576545144}, "geometry": {"type": "Point", "coordinates": [8.5268052, 47.230341]}}, {"type": "Feature", "properties": {"name": "85R84SiAwC5o9RgqR8U3ZQ", "score": 21.833170791200725}, "geometry": {"type": "Point", "coordinates": [8.5268624, 47.2301923]}}, {"type": "Feature", "properties": {"name": "PJZTevqRiJLAqlX1Sn4YeQ", "score": 15.390259810904013}, "geometry": {"type": "Point", "coordinates": [8.5269061, 47.2300499]}}, {"type": "Feature", "properties": {"name": "Je9yfc0qR57TX1gm5GV3Vw", "score": 29.614063386749812}, "geometry": {"type": "Point", "coordinates": [8.5269313, 47.2299099]}}, {"type": "Feature", "properties": {"name": "ZW5NfKxQxGtesjQBGxzPxw", "score": 18.609383612243874}, "geometry": {"type": "Point", "coordinates": [8.5269367, 47.2297678]}}, {"type": "Feature", "properties": {"name": "LPSSOI56h8bFnU28rXenTg", "score": 26.927625268772047}, "geometry": {"type": "Point", "coordinates": [8.5269313, 47.2296383]}}, {"type": "Feature", "properties": {"name": "FCn8PSp3C0S_C-USGVUvkw", "score": 22.119964270889557}, "geometry": {"type": "Point", "coordinates": [8.5269248, 47.2294927]}}, {"type": "Feature", "properties": {"name": "7f2StHTb_jyKp2U8me9A3A", "score": 39.858684018198616}, "geometry": {"type": "Point", "coordinates": [8.5269138, 47.2293485]}}, {"type": "Feature", "properties": {"name": "XZ2KUawLxAvbZ0s5kU0uig", "score": 33.43252739568016}, "geometry": {"type": "Point", "coordinates": [8.5268903, 47.2292144]}}, {"type": "Feature", "properties": {"name": "b_9wioJTMv1zF2U6vFAwdQ", "score": 21.5478966839404}, "geometry": {"type": "Point", "coordinates": [8.5268795, 47.2290695]}}, {"type": "Feature", "properties": {"name": "rTBw_4hdB--kuHFCuxPBWQ", "score": 11.760595819717876}, "geometry": {"type": "Point", "coordinates": [8.5269015, 47.228931]}}, {"type": "Feature", "properties": {"name": "FEtFsgeO_WBsK0TOfU8jDQ", "score": 37.70234096719596}, "geometry": {"type": "Point", "coordinates": [8.5269029, 47.228784]}}, {"type": "Feature", "properties": {"name": "7oZQxKDnCMx2NozCZPrd1w", "score": 15.427119665939887}, "geometry": {"type": "Point", "coordinates": [8.5268926, 47.2286301]}}, {"type": "Feature", "properties": {"name": "VrxcoeiUmYpJi8cannwNwg", "score": 3.92814598772861}, "geometry": {"type": "Point", "coordinates": [8.5268743, 47.2284831]}}, {"type": "Feature", "properties": {"name": "FKDMPAw4ntknWWKowNtIPg", "score": 22.580019251395942}, "geometry": {"type": "Point", "coordinates": [8.5268608, 47.2283412]}}, {"type": "Feature", "properties": {"name": "qIaOU7GodmUoN2dqzXUw0g", "score": 19.36524334917837}, "geometry": {"type": "Point", "coordinates": [8.5268435, 47.2281966]}}, {"type": "Feature", "properties": {"name": "UmylvuQ2w5dTnWyyPKBMNw", "score": 13.473731858312474}, "geometry": {"type": "Point", "coordinates": [8.5268639, 47.22806]}}, {"type": "Feature", "properties": {"name": "_Ug-4hcpmSEyioaO0fWXNg", "score": 7.591211719718373}, "geometry": {"type": "Point", "coordinates": [8.5268526, 47.2279094]}}, {"type": "Feature", "properties": {"name": "M0DXpaiaooK5llF5cuhv3w", "score": 13.473731858312474}, "geometry": {"type": "Point", "coordinates": [8.5268429, 47.2277588]}}, {"type": "Feature", "properties": {"name": "mOQhnfQnuSjL3bEln16t-w", "score": 21.26307088833821}, "geometry": {"type": "Point", "coordinates": [8.5268276, 47.2276093]}}, {"type": "Feature", "properties": {"name": "9X0ULa3ig2JoISHPmR0PVQ", "score": 8.278698206081057}, "geometry": {"type": "Point", "coordinates": [8.5268148, 47.2274599]}}, {"type": "Feature", "properties": {"name": "4hsWyQPJjqXkjomfxfOQQw", "score": 22.035133296472143}, "geometry": {"type": "Point", "coordinates": [8.5268035, 47.2273143]}}, {"type": "Feature", "properties": {"name": "rqGLPtRUYeL3lnW3KgkVpw", "score": 27.705101305750006}, "geometry": {"type": "Point", "coordinates": [8.5268076, 47.2271661]}}, {"type": "Feature", "properties": {"name": "MtxjzfNsVxoUVrDuBMWVFA", "score": 26.290852587569418}, "geometry": {"type": "Point", "coordinates": [8.5268193, 47.2270212]}}, {"type": "Feature", "properties": {"name": "HpR2jDsxIMj7c8VYQk5iFQ", "score": 20.07256452351442}, "geometry": {"type": "Point", "coordinates": [8.5268085, 47.2268626]}}, {"type": "Feature", "properties": {"name": "2n29S60fZBWkrxgAUdqCYQ", "score": 31.002570260427365}, "geometry": {"type": "Point", "coordinates": [8.5267949, 47.2267075]}}, {"type": "Feature", "properties": {"name": "6QdVDjkzjwoUQDkcClkjzw", "score": 31.18072562591598}, "geometry": {"type": "Point", "coordinates": [8.5267548, 47.2265486]}}, {"type": "Feature", "properties": {"name": "jWXvPTKhqB6bMpWV9tj_6w", "score": 10.649825175119677}, "geometry": {"type": "Point", "coordinates": [8.526686, 47.2263958]}}, {"type": "Feature", "properties": {"name": "DzU2A9XOJrSRXHKARiV5fA", "score": 37.38465831427507}, "geometry": {"type": "Point", "coordinates": [8.5266024, 47.2262353]}}, {"type": "Feature", "properties": {"name": "N-jD0PTmIAzUI8IXJywoJg", "score": 22.607804371535277}, "geometry": {"type": "Point", "coordinates": [8.5265077, 47.2260863]}}, {"type": "Feature", "properties": {"name": "YybBhnlWjfP62MoDj5g7rw", "score": 27.98764946165663}, "geometry": {"type": "Point", "coordinates": [8.5263944, 47.2259396]}}, {"type": "Feature", "properties": {"name": "xnlWJbx3CbcIMq1Fqnz40A", "score": 29.693470695086535}, "geometry": {"type": "Point", "coordinates": [8.5262782, 47.2258]}}, {"type": "Feature", "properties": {"name": "bt_Hv9JJm4BP8bhAYqJK-w", "score": 30.371897948061026}, "geometry": {"type": "Point", "coordinates": [8.5261604, 47.2256611]}}, {"type": "Feature", "properties": {"name": "G-iCSFGq_JjwxxjlX5EsHA", "score": 32.88742169616104}, "geometry": {"type": "Point", "coordinates": [8.5260193, 47.2255122]}}, {"type": "Feature", "properties": {"name": "JyiDHTbz9vr6--SfqB2DOw", "score": 24.42890837793194}, "geometry": {"type": "Point", "coordinates": [8.5258807, 47.2253654]}}, {"type": "Feature", "properties": {"name": "i0BWcO-7mX12airfAL72Sg", "score": 22.993969885500892}, "geometry": {"type": "Point", "coordinates": [8.5257526, 47.2252212]}}, {"type": "Feature", "properties": {"name": "MKEEyVVeK8unnfhMYJcAkQ", "score": 26.24305369337162}, "geometry": {"type": "Point", "coordinates": [8.5256048, 47.2250781]}}, {"type": "Feature", "properties": {"name": "-7fw2MTLHYlmpwvu7xPKwA", "score": 44.26318808185742}, "geometry": {"type": "Point", "coordinates": [8.5254529, 47.2249183]}}, {"type": "Feature", "properties": {"name": "FKGbY_O-lFA2ZmYnjYQTbA", "score": 29.528383689507972}, "geometry": {"type": "Point", "coordinates": [8.5253175, 47.2247689]}}, {"type": "Feature", "properties": {"name": "xIP7VJKU3K1Krkz22vsQWA", "score": 21.26307088833821}, "geometry": {"type": "Point", "coordinates": [8.5251803, 47.224634]}}, {"type": "Feature", "properties": {"name": "02oPexFEitZMzCyc_AziuQ", "score": 22.748076675205112}, "geometry": {"type": "Point", "coordinates": [8.525045, 47.2244892]}}, {"type": "Feature", "properties": {"name": "0IqO14Lzv4J8j23KsOR7Tg", "score": 36.29082558222847}, "geometry": {"type": "Point", "coordinates": [8.5249012, 47.2243461]}}, {"type": "Feature", "properties": {"name": "QkeqtrwG1l9pclLNhf_zow", "score": 37.54971337956564}, "geometry": {"type": "Point", "coordinates": [8.5247726, 47.224202]}}, {"type": "Feature", "properties": {"name": "4w-Mp1zJ-D-boA38j9sF-Q", "score": 21.26307088833821}, "geometry": {"type": "Point", "coordinates": [8.5246382, 47.2240534]}}, {"type": "Feature", "properties": {"name": "FhW7lx1HDPIjCThrx0a1ng", "score": 38.20340428499693}, "geometry": {"type": "Point", "coordinates": [8.5244941, 47.223909]}}, {"type": "Feature", "properties": {"name": "xgWp2O5v5U1pRgticn-ddQ", "score": 29.41204604842048}, "geometry": {"type": "Point", "coordinates": [8.524369, 47.2237666]}}, {"type": "Feature", "properties": {"name": "iBXnp5RwArbdztyDe4ZtCA", "score": 40.42790404246011}, "geometry": {"type": "Point", "coordinates": [8.5242421, 47.2236288]}}, {"type": "Feature", "properties": {"name": "iK0zmV1cHxtgZibJnqSeCg", "score": 23.93251640659178}, "geometry": {"type": "Point", "coordinates": [8.5241095, 47.2234899]}}, {"type": "Feature", "properties": {"name": "NM7imYJ5A8I1RZ9P9RXrGw", "score": 29.927435476485574}, "geometry": {"type": "Point", "coordinates": [8.5239689, 47.2233465]}}, {"type": "Feature", "properties": {"name": "dmlu4zK4_aaO82bcToy5fQ", "score": 38.2883192925401}, "geometry": {"type": "Point", "coordinates": [8.5238281, 47.2231976]}}, {"type": "Feature", "properties": {"name": "al2dQidr64EKVCvLoaqFjQ", "score": 41.208943648296966}, "geometry": {"type": "Point", "coordinates": [8.523693, 47.2230589]}}, {"type": "Feature", "properties": {"name": "vMoVH53fz3EeJZ4cIt7qDw", "score": 21.26307088833821}, "geometry": {"type": "Point", "coordinates": [8.5235584, 47.2229106]}}, {"type": "Feature", "properties": {"name": "Vd_fT8jC1FVmkBB9pHoLjw", "score": 26.92605445571896}, "geometry": {"type": "Point", "coordinates": [8.5234196, 47.2227539]}}, {"type": "Feature", "properties": {"name": "oXI22L7SzD9CQredGoxmXg", "score": 28.736929111661805}, "geometry": {"type": "Point", "coordinates": [8.5232904, 47.2226067]}}, {"type": "Feature", "properties": {"name": "cpkPr_9KiCcm47926srldg", "score": 30.206657637845055}, "geometry": {"type": "Point", "coordinates": [8.5231537, 47.2224646]}}, {"type": "Feature", "properties": {"name": "06iEA6itVWyrrEbtVVhaqQ", "score": 45.75684450103913}, "geometry": {"type": "Point", "coordinates": [8.5230232, 47.2223098]}}, {"type": "Feature", "properties": {"name": "uZzeZzm5Q_JhxdPgYo0ggA", "score": 39.22336348816475}, "geometry": {"type": "Point", "coordinates": [8.5228875, 47.222164]}}, {"type": "Feature", "properties": {"name": "veH9q_DfUqGwuMqMMDhELQ", "score": 27.129878218104796}, "geometry": {"type": "Point", "coordinates": [8.5227701, 47.2220294]}}, {"type": "Feature", "properties": {"name": "uw3SQ8NPB5F4Lmx-lAJzqQ", "score": 25.509596706450182}, "geometry": {"type": "Point", "coordinates": [8.5226363, 47.2218816]}}, {"type": "Feature", "properties": {"name": "PIUAb_6Xs75hffrgPdZNIA", "score": 28.736929111661805}, "geometry": {"type": "Point", "coordinates": [8.5225114, 47.2217238]}}, {"type": "Feature", "properties": {"name": "U29YLnCRcLeXEr6nwevjHA", "score": 29.927435476485574}, "geometry": {"type": "Point", "coordinates": [8.5223791, 47.2215814]}}, {"type": "Feature", "properties": {"name": "HUqqElXr1NUFoNCna27fGg", "score": 27.064790235845905}, "geometry": {"type": "Point", "coordinates": [8.5222428, 47.2214377]}}, {"type": "Feature", "properties": {"name": "7kptY0HBHv527ZMH5TdZLA", "score": 11.779488209528589}, "geometry": {"type": "Point", "coordinates": [8.5221079, 47.2212913]}}, {"type": "Feature", "properties": {"name": "YJ7RrrKcZAnlqmtVadR_Eg", "score": 24.97544335562961}, "geometry": {"type": "Point", "coordinates": [8.5219943, 47.2211525]}}, {"type": "Feature", "properties": {"name": "J5dn44FwtUPgG1DcyorWOw", "score": 30.213976803346267}, "geometry": {"type": "Point", "coordinates": [8.5218615, 47.2210059]}}, {"type": "Feature", "properties": {"name": "pfbb5701OGSKu7AAY9p-ww", "score": 39.09763277060081}, "geometry": {"type": "Point", "coordinates": [8.5217278, 47.2208628]}}, {"type": "Feature", "properties": {"name": "pw45YaRZJ3Ci0h-Ylqt7Ig", "score": 23.014192300238093}, "geometry": {"type": "Point", "coordinates": [8.5215948, 47.2207205]}}, {"type": "Feature", "properties": {"name": "jCj1zE6vOx1u8nNJuXKQNA", "score": 15.017484119501628}, "geometry": {"type": "Point", "coordinates": [8.5214605, 47.2205741]}}, {"type": "Feature", "properties": {"name": "SK7jBcKZGmNX7CDX-HfBBQ", "score": 13.473731858312474}, "geometry": {"type": "Point", "coordinates": [8.5213282, 47.2204297]}}, {"type": "Feature", "properties": {"name": "ZTc7Zgyymx1TCeuiJWdw6g", "score": 12.297659032804034}, "geometry": {"type": "Point", "coordinates": [8.5212001, 47.2202757]}}, {"type": "Feature", "properties": {"name": "R8xwIKeESgMuYr4PBYbKLg", "score": 23.033617828016954}, "geometry": {"type": "Point", "coordinates": [8.5210803, 47.2201413]}}, {"type": "Feature", "properties": {"name": "VviiYbtmAnfnGBrZgPaAgg", "score": 19.153109198023778}, "geometry": {"type": "Point", "coordinates": [8.5209699, 47.2199903]}}, {"type": "Feature", "properties": {"name": "M1tHEinQlJHqRk5pLiN6Bw", "score": 22.51203247664534}, "geometry": {"type": "Point", "coordinates": [8.5208615, 47.2198318]}}, {"type": "Feature", "properties": {"name": "7NFikbJY8pZWngsA15EL-A", "score": 22.86459167452497}, "geometry": {"type": "Point", "coordinates": [8.5207681, 47.2196846]}}, {"type": "Feature", "properties": {"name": "xDFWd5-hh09ySWheksI_pw", "score": 29.06369455613901}, "geometry": {"type": "Point", "coordinates": [8.5206713, 47.2195331]}}, {"type": "Feature", "properties": {"name": "a-HGpt9yatPErMySOpp-bg", "score": 17.032302072899288}, "geometry": {"type": "Point", "coordinates": [8.5205869, 47.2193756]}}, {"type": "Feature", "properties": {"name": "QTDN3jx4Yc7CGQ4d3H-8Ow", "score": 35.744267050327736}, "geometry": {"type": "Point", "coordinates": [8.520498, 47.2192162]}}, {"type": "Feature", "properties": {"name": "LLUaBcTNm5qI93Fv7rzXAA", "score": 31.466452090356697}, "geometry": {"type": "Point", "coordinates": [8.5204136, 47.2190665]}}, {"type": "Feature", "properties": {"name": "rAPLuaL8j57x2L7F2K9EPg", "score": 48.02611003782039}, "geometry": {"type": "Point", "coordinates": [8.5203409, 47.2189153]}}, {"type": "Feature", "properties": {"name": "dMhCTHB3mqtW1w_UmTHMdg", "score": 25.014316723500247}, "geometry": {"type": "Point", "coordinates": [8.5202492, 47.2187672]}}, {"type": "Feature", "properties": {"name": "7QiAAuVorJwARpoIwtf5Yg", "score": 29.927435476485574}, "geometry": {"type": "Point", "coordinates": [8.5201623, 47.2186161]}}, {"type": "Feature", "properties": {"name": "pXIPbOFXqg3Nqkyrty1Yiw", "score": 20.064312454474592}, "geometry": {"type": "Point", "coordinates": [8.5200778, 47.2184801]}}, {"type": "Feature", "properties": {"name": "EMesrlMjXga0aq2a8IOu_A", "score": 34.205246368230036}, "geometry": {"type": "Point", "coordinates": [8.519995, 47.2183292]}}, {"type": "Feature", "properties": {"name": "sDwgaodFypPPHF6hEb_jhw", "score": 30.98522973167581}, "geometry": {"type": "Point", "coordinates": [8.519908, 47.2181755]}}, {"type": "Feature", "properties": {"name": "Eeu2-bd5dDZZ5c2gnCinyQ", "score": 32.72513066060715}, "geometry": {"type": "Point", "coordinates": [8.5198349, 47.218028]}}, {"type": "Feature", "properties": {"name": "QjeqXKtqoPaL5erZrLKa2A", "score": 28.736929111661805}, "geometry": {"type": "Point", "coordinates": [8.5197533, 47.2178849]}}, {"type": "Feature", "properties": {"name": "eYMriYLQJQiJs0HmgbSYzg", "score": 25.350703740261835}, "geometry": {"type": "Point", "coordinates": [8.5196737, 47.2177352]}}, {"type": "Feature", "properties": {"name": "IIEKYygf21lDYmAkon3AsA", "score": 37.70234096719596}, "geometry": {"type": "Point", "coordinates": [8.5195749, 47.2175779]}}, {"type": "Feature", "properties": {"name": "X9-MX_n2lC0ib-aXzRATnA", "score": 24.366981278001823}, "geometry": {"type": "Point", "coordinates": [8.5194882, 47.2174275]}}, {"type": "Feature", "properties": {"name": "QVSG3FZXZVQEUv3CqtiQrA", "score": 26.43543335007252}, "geometry": {"type": "Point", "coordinates": [8.519409, 47.2172856]}}, {"type": "Feature", "properties": {"name": "s1rDQw8b7UTunzPNPCDIWg", "score": 27.590865072226517}, "geometry": {"type": "Point", "coordinates": [8.5193257, 47.2171495]}}, {"type": "Feature", "properties": {"name": "vnSHApRo__zbBROHtMrm7g", "score": 20.29906355487822}, "geometry": {"type": "Point", "coordinates": [8.5192418, 47.2170083]}}, {"type": "Feature", "properties": {"name": "Ox605xAiCuADjvG3UGIEsw", "score": 14.511636446725872}, "geometry": {"type": "Point", "coordinates": [8.5191715, 47.2168676]}}, {"type": "Feature", "properties": {"name": "U2QU6NiYJb2oIyqXlse7Bw", "score": 24.32080485864124}, "geometry": {"type": "Point", "coordinates": [8.5190925, 47.2167251]}}, {"type": "Feature", "properties": {"name": "QXhBJv6eEcwbKhtjhnQBPA", "score": 20.158568503638765}, "geometry": {"type": "Point", "coordinates": [8.5190194, 47.2165857]}}, {"type": "Feature", "properties": {"name": "hb9EoC5ULssE-uBReUQsMQ", "score": 27.783304183885708}, "geometry": {"type": "Point", "coordinates": [8.5189496, 47.2164443]}}, {"type": "Feature", "properties": {"name": "zPHjHZ3HupX89CnjSP_PTw", "score": 10.244273989831576}, "geometry": {"type": "Point", "coordinates": [8.5188703, 47.2163042]}}, {"type": "Feature", "properties": {"name": "fZTVYes0uBxAoUwaIW8RWw", "score": 21.26307088833821}, "geometry": {"type": "Point", "coordinates": [8.5188081, 47.2161775]}}, {"type": "Feature", "properties": {"name": "AgiihhJu3h58LAxhQAfcpw", "score": 20.07256452351442}, "geometry": {"type": "Point", "coordinates": [8.5187234, 47.2160381]}}, {"type": "Feature", "properties": {"name": "YWJA9PDQBZfPyaSdoaq01A", "score": 12.297659032804034}, "geometry": {"type": "Point", "coordinates": [8.518642, 47.2159107]}}, {"type": "Feature", "properties": {"name": "UQatUQsDmvjG9wwarLQxeQ", "score": 24.688806507841306}, "geometry": {"type": "Point", "coordinates": [8.5185661, 47.215783]}}, {"type": "Feature", "properties": {"name": "WDApQ0zdjZlI4m5EXicFkg", "score": 26.85108909804702}, "geometry": {"type": "Point", "coordinates": [8.5184903, 47.2156461]}}, {"type": "Feature", "properties": {"name": "8qRGf4T1-NXT7nsRX57TNA", "score": 12.632858297855702}, "geometry": {"type": "Point", "coordinates": [8.5184138, 47.215522]}}, {"type": "Feature", "properties": {"name": "4T3vR6ih57r6agacIOeRtw", "score": 9.312969521238543}, "geometry": {"type": "Point", "coordinates": [8.5183346, 47.2154011]}}, {"type": "Feature", "properties": {"name": "4rSUX9VofzWPmk-JhD5sAQ", "score": 13.473731858312474}, "geometry": {"type": "Point", "coordinates": [8.5182384, 47.2152784]}}, {"type": "Feature", "properties": {"name": "tIpQsoLqatxlTHSkjZLi_g", "score": 28.736929111661805}, "geometry": {"type": "Point", "coordinates": [8.5181343, 47.21517]}}, {"type": "Feature", "properties": {"name": "nCIrFsDYnQSAAaLJI3wy-Q", "score": 15.390259810904013}, "geometry": {"type": "Point", "coordinates": [8.5180357, 47.2150689]}}, {"type": "Feature", "properties": {"name": "pYd7OgUkGslYrAo6B5GIFg", "score": 12.297659032804034}, "geometry": {"type": "Point", "coordinates": [8.5179047, 47.2149694]}}, {"type": "Feature", "properties": {"name": "pyovN0jRfSYx06vtFzop1Q", "score": 23.60476574011205}, "geometry": {"type": "Point", "coordinates": [8.5177647, 47.2148751]}}, {"type": "Feature", "properties": {"name": "NMTLwOUSV9PMv8U9eni4FA", "score": 11.608134913272801}, "geometry": {"type": "Point", "coordinates": [8.5176218, 47.2147843]}}, {"type": "Feature", "properties": {"name": "Mo7KjT4bWC-fl6Cp2LYv5w", "score": 15.747175331361282}, "geometry": {"type": "Point", "coordinates": [8.5174553, 47.2146999]}}, {"type": "Feature", "properties": {"name": "RLhm46lB2zVLDdmfKs4h8g", "score": 28.736929111661805}, "geometry": {"type": "Point", "coordinates": [8.5172843, 47.2146199]}}, {"type": "Feature", "properties": {"name": "1Al1AYp9sgayoZqsERyCNw", "score": 22.66670762236941}, "geometry": {"type": "Point", "coordinates": [8.5171189, 47.2145493]}}, {"type": "Feature", "properties": {"name": "LBNlgVy1sEBBHH1nYm_QdA", "score": 30.782834082781804}, "geometry": {"type": "Point", "coordinates": [8.5169243, 47.2144782]}}, {"type": "Feature", "properties": {"name": "qlRAqOMP_u15MaJ7-NDbGw", "score": 24.41976579914662}, "geometry": {"type": "Point", "coordinates": [8.5167194, 47.2144077]}}, {"type": "Feature", "properties": {"name": "OrGtIlYh9YdND9KeRTN0EA", "score": 12.297659032804034}, "geometry": {"type": "Point", "coordinates": [8.5165115, 47.2143398]}}, {"type": "Feature", "properties": {"name": "ukVoQjtqeCsq7GT-0x6E4A", "score": 23.041096733623583}, "geometry": {"type": "Point", "coordinates": [8.5163105, 47.2142709]}}, {"type": "Feature", "properties": {"name": "EUDO0ZqdKmBHtVcVv8lWpw", "score": 37.84728659070144}, "geometry": {"type": "Point", "coordinates": [8.5161046, 47.2142036]}}, {"type": "Feature", "properties": {"name": "ddp5A5JyM-yKB8P0cs-Ocw", "score": 27.2787537104959}, "geometry": {"type": "Point", "coordinates": [8.5158912, 47.2141304]}}, {"type": "Feature", "properties": {"name": "-3e2bw_Vt6CymW8Q4KUj3g", "score": 22.6315999525713}, "geometry": {"type": "Point", "coordinates": [8.5156804, 47.2140601]}}, {"type": "Feature", "properties": {"name": "TTL-Wft3tSC9BO9gtpcRrQ", "score": 33.15031261751763}, "geometry": {"type": "Point", "coordinates": [8.5154773, 47.213991]}}, {"type": "Feature", "properties": {"name": "N_8fi5RRlWzLqKUEHraXxA", "score": 29.90146423144125}, "geometry": {"type": "Point", "coordinates": [8.5152639, 47.2139151]}}, {"type": "Feature", "properties": {"name": "U1fwE53zAZs5IYXKLgoqCA", "score": 36.526268141687545}, "geometry": {"type": "Point", "coordinates": [8.5150448, 47.2138409]}}, {"type": "Feature", "properties": {"name": "uzIqAvUjU4MGNWy6sKiiTA", "score": 30.740408268538708}, "geometry": {"type": "Point", "coordinates": [8.5148218, 47.2137714]}}, {"type": "Feature", "properties": {"name": "-GQVmeaMnYK4xSI6rvysKQ", "score": 15.390259810904013}, "geometry": {"type": "Point", "coordinates": [8.5145941, 47.2136972]}}, {"type": "Feature", "properties": {"name": "Y7t9OCC-ZIqf2LnKGPQ15Q", "score": 27.48970444757929}, "geometry": {"type": "Point", "coordinates": [8.514361, 47.2136222]}}, {"type": "Feature", "properties": {"name": "iUlc0WOk4u1igoA5VyMLTA", "score": 30.551986353173174}, "geometry": {"type": "Point", "coordinates": [8.5141196, 47.213546]}}, {"type": "Feature", "properties": {"name": "agJphzeaXqDHHVn9NK63og", "score": 24.99700246511322}, "geometry": {"type": "Point", "coordinates": [8.5139052, 47.2134726]}}, {"type": "Feature", "properties": {"name": "ZkpCqxKqZLTxO_o2bXMd1A", "score": 26.246914304034117}, "geometry": {"type": "Point", "coordinates": [8.5136882, 47.2134097]}}, {"type": "Feature", "properties": {"name": "yXyAAX4mPKwEHE2mVnB4Vg", "score": 30.128766713081834}, "geometry": {"type": "Point", "coordinates": [8.513476, 47.2133402]}}, {"type": "Feature", "properties": {"name": "f__h4tpSLN4Q-k8ydZ7u0A", "score": 32.429536510631394}, "geometry": {"type": "Point", "coordinates": [8.5132531, 47.2132635]}}, {"type": "Feature", "properties": {"name": "PN3TXn8cOzROIjC4M8xMcg", "score": 18.341423441938964}, "geometry": {"type": "Point", "coordinates": [8.5130287, 47.2131891]}}, {"type": "Feature", "properties": {"name": "sRItsjQ2J1gmj60YgRuDrg", "score": 37.833450639514744}, "geometry": {"type": "Point", "coordinates": [8.5127969, 47.213113]}}, {"type": "Feature", "properties": {"name": "cJSjKdS4yZ_JRlRbMtzpIQ", "score": 18.005712146033535}, "geometry": {"type": "Point", "coordinates": [8.5125801, 47.2130393]}}, {"type": "Feature", "properties": {"name": "NPlVQMr8qPO5lQa1AwOFFQ", "score": 23.249298259118028}, "geometry": {"type": "Point", "coordinates": [8.5123707, 47.2129532]}}, {"type": "Feature", "properties": {"name": "3lBUqAZ6DCEHPIiQ73Ec3Q", "score": 30.037622486437332}, "geometry": {"type": "Point", "coordinates": [8.5121543, 47.2128636]}}, {"type": "Feature", "properties": {"name": "fEZa6WZkjVXnvJvQRvimIQ", "score": 22.09777962818369}, "geometry": {"type": "Point", "coordinates": [8.5119509, 47.2127693]}}, {"type": "Feature", "properties": {"name": "NYRAa2VL7H2ooqz8GmzWHw", "score": 36.2826511926039}, "geometry": {"type": "Point", "coordinates": [8.5117476, 47.2126695]}}, {"type": "Feature", "properties": {"name": "Y6zTcucmFlcbjAkBFffaEg", "score": 14.63134996881616}, "geometry": {"type": "Point", "coordinates": [8.5115607, 47.2125516]}}, {"type": "Feature", "properties": {"name": "Oeqlu6BoFYCZCYavn_dldw", "score": 33.912427686748835}, "geometry": {"type": "Point", "coordinates": [8.5113962, 47.2124354]}}, {"type": "Feature", "properties": {"name": "9WalPBTcXRT6wzRXZsI74w", "score": 47.62028123729113}, "geometry": {"type": "Point", "coordinates": [8.5112536, 47.2123097]}}, {"type": "Feature", "properties": {"name": "Fc3Ze8GnTabvpgyb0_DZZw", "score": 22.57855234069784}, "geometry": {"type": "Point", "coordinates": [8.5111003, 47.2121839]}}, {"type": "Feature", "properties": {"name": "u3-nV18H5CJ4ZN-VvNBytA", "score": 33.01636749631137}, "geometry": {"type": "Point", "coordinates": [8.5109712, 47.2120506]}}, {"type": "Feature", "properties": {"name": "HldS2_vTw6UoWj9VQeHtcQ", "score": 30.40314871011388}, "geometry": {"type": "Point", "coordinates": [8.5108545, 47.2119073]}}, {"type": "Feature", "properties": {"name": "q9uJNSDbrqvylD0ix_jdcw", "score": 25.744160470924495}, "geometry": {"type": "Point", "coordinates": [8.5107556, 47.2117656]}}, {"type": "Feature", "properties": {"name": "h7k0Mm1jvQt_kMRfPXLnlA", "score": 32.83715453926069}, "geometry": {"type": "Point", "coordinates": [8.5106683, 47.2116219]}}, {"type": "Feature", "properties": {"name": "A1Z6FIusgxxEPje1i0Slqw", "score": 39.50635428094827}, "geometry": {"type": "Point", "coordinates": [8.5105864, 47.2114784]}}, {"type": "Feature", "properties": {"name": "mVZioHiatV-0zIlMoemzpg", "score": 40.70371515839869}, "geometry": {"type": "Point", "coordinates": [8.510508, 47.211335]}}, {"type": "Feature", "properties": {"name": "E_YndOCr00AVebLs6h4Rog", "score": 36.526268141687545}, "geometry": {"type": "Point", "coordinates": [8.5104403, 47.2111881]}}, {"type": "Feature", "properties": {"name": "AIZs4ku2tRKQUG2VNlB1YQ", "score": 21.90178436933425}, "geometry": {"type": "Point", "coordinates": [8.5103931, 47.2110798]}}, {"type": "Feature", "properties": {"name": "nnU0YDs6Gttbaz6gv4q7Mg", "score": 8.409873863908997}, "geometry": {"type": "Point", "coordinates": [8.5103551, 47.2109839]}}, {"type": "Feature", "properties": {"name": "A_mb2_wZmixiHHutfih0Xw", "score": 25.084264470439987}, "geometry": {"type": "Point", "coordinates": [8.5102992, 47.2108664]}}, {"type": "Feature", "properties": {"name": "BIYoWPXIAXiiky92LUH3yA", "score": 20.850122727332465}, "geometry": {"type": "Point", "coordinates": [8.5102519, 47.2107525]}}, {"type": "Feature", "properties": {"name": "0yKpEcc5QmsVOKu0vz9WjA", "score": 28.672575991797796}, "geometry": {"type": "Point", "coordinates": [8.5102056, 47.2106464]}}, {"type": "Feature", "properties": {"name": "2sqgcoFDtxpqOxD5S4ciEg", "score": 11.840167286073699}, "geometry": {"type": "Point", "coordinates": [8.5101611, 47.2105558]}}, {"type": "Feature", "properties": {"name": "hYHBRgZOnc5GA6RAbT5Q6w", "score": 12.297659032804034}, "geometry": {"type": "Point", "coordinates": [8.5101322, 47.2104817]}}, {"type": "Feature", "properties": {"name": "vcMzDi4V5aRxgVGGtSt8ww", "score": 13.473731858312474}, "geometry": {"type": "Point", "coordinates": [8.5101165, 47.2104385]}}, {"type": "Feature", "properties": {"name": "BD191gXy-Qo2Wx9PxKJmyQ", "score": 9.725507989250154}, "geometry": {"type": "Point", "coordinates": [8.5101119, 47.2103929]}}, {"type": "Feature", "properties": {"name": "Mr_OP-3q8MyYOmtdGZkycQ", "score": 22.85365012473077}, "geometry": {"type": "Point", "coordinates": [8.5101283, 47.2103244]}}, {"type": "Feature", "properties": {"name": "3Nlqv6l2cH5lqdI4QAl3fw", "score": 28.632031312141102}, "geometry": {"type": "Point", "coordinates": [8.5101283, 47.2103244]}}, {"type": "Feature", "properties": {"name": "9eNcr1q7q1_zoulmrB5k-Q", "score": 21.807221945561754}, "geometry": {"type": "Point", "coordinates": [8.5101362, 47.2102598]}}, {"type": "Feature", "properties": {"name": "jzoKH8owi3DTCRQWIrJ58A", "score": 8.670310505251166}, "geometry": {"type": "Point", "coordinates": [8.5102035, 47.2101754]}}, {"type": "Feature", "properties": {"name": "4Upuasoz1jFXD4_qOmQcDA", "score": 21.225826876477946}, "geometry": {"type": "Point", "coordinates": [8.5102827, 47.2100846]}}, {"type": "Feature", "properties": {"name": "pg-lju5T_pjYU0vXWlLAaQ", "score": 8.65008129471485}, "geometry": {"type": "Point", "coordinates": [8.5103731, 47.210001]}}, {"type": "Feature", "properties": {"name": "5nFPmYs2Z5M_TUuf-zNGYg", "score": 25.749223469013746}, "geometry": {"type": "Point", "coordinates": [8.510464, 47.2098912]}}, {"type": "Feature", "properties": {"name": "9kgXOnSbdhqgkmaiqi5EOg", "score": 19.10211907177383}, "geometry": {"type": "Point", "coordinates": [8.5105529, 47.2097838]}}, {"type": "Feature", "properties": {"name": "278RFdquZ1c6exMeOre1kw", "score": 21.009434213939564}, "geometry": {"type": "Point", "coordinates": [8.5106612, 47.2096493]}}, {"type": "Feature", "properties": {"name": "SYJ7YJJOO40SD3dv540UGA", "score": 15.708410250018057}, "geometry": {"type": "Point", "coordinates": [8.5107511, 47.2095407]}}, {"type": "Feature", "properties": {"name": "Qs0pWFVSSNtCKOk7quTgJg", "score": 22.48878598168146}, "geometry": {"type": "Point", "coordinates": [8.5108447, 47.2094311]}}, {"type": "Feature", "properties": {"name": "V9jGZzaLu0lUMg0A1abC_g", "score": 21.264788788586305}, "geometry": {"type": "Point", "coordinates": [8.510935, 47.2093195]}}, {"type": "Feature", "properties": {"name": "NXVryZGjauV0ezMZrT-0qA", "score": 22.046844134259747}, "geometry": {"type": "Point", "coordinates": [8.5110283, 47.2092056]}}, {"type": "Feature", "properties": {"name": "RQaNXL0dzo_kwQphpBUVyg", "score": 21.022888377188636}, "geometry": {"type": "Point", "coordinates": [8.5111579, 47.2090974]}}, {"type": "Feature", "properties": {"name": "fzTCXIKEKiROmd8-2iqp0A", "score": 24.688806507841306}, "geometry": {"type": "Point", "coordinates": [8.5113048, 47.208984]}}, {"type": "Feature", "properties": {"name": "47NH8Eh8mUSryhYtOvYMhg", "score": 24.69491521173325}, "geometry": {"type": "Point", "coordinates": [8.5114245, 47.2088668]}}, {"type": "Feature", "properties": {"name": "DUDsSFVDxwvROBpPBq4sEQ", "score": 24.141286986121045}, "geometry": {"type": "Point", "coordinates": [8.5115526, 47.2087562]}}, {"type": "Feature", "properties": {"name": "PmflYHLFUUD72llrd-t2rg", "score": 13.763304394862917}, "geometry": {"type": "Point", "coordinates": [8.5116868, 47.2086537]}}, {"type": "Feature", "properties": {"name": "1poV2_BuH3vhyxrYAXef6A", "score": 17.6322722753327}, "geometry": {"type": "Point", "coordinates": [8.511823, 47.2085421]}}, {"type": "Feature", "properties": {"name": "k4LxNM3VGj4AOhl4_q-d0Q", "score": 30.317590233348596}, "geometry": {"type": "Point", "coordinates": [8.5119517, 47.2084318]}}, {"type": "Feature", "properties": {"name": "81Rv_3tGAh215_iEPLUXhg", "score": 18.72943666813175}, "geometry": {"type": "Point", "coordinates": [8.5120771, 47.2083201]}}, {"type": "Feature", "properties": {"name": "BpQ8eCJN1BgniRL8bcN6AA", "score": 21.26307088833821}, "geometry": {"type": "Point", "coordinates": [8.5121176, 47.2081642]}}, {"type": "Feature", "properties": {"name": "HNoXsqlRWCdlmYFlKU7tOQ", "score": 34.60974018909599}, "geometry": {"type": "Point", "coordinates": [8.5121659, 47.2080202]}}, {"type": "Feature", "properties": {"name": "DWqE8J2mRb48Khv4JGS_WA", "score": 38.721950869854695}, "geometry": {"type": "Point", "coordinates": [8.512187, 47.2078686]}}, {"type": "Feature", "properties": {"name": "d0mTFsIsIrQRLZsAoAMKWQ", "score": 21.669658023632017}, "geometry": {"type": "Point", "coordinates": [8.5122066, 47.2077107]}}, {"type": "Feature", "properties": {"name": "Vl1iWmK3utF8CF32lWIBzA", "score": 12.141076323214705}, "geometry": {"type": "Point", "coordinates": [8.5121995, 47.2075423]}}, {"type": "Feature", "properties": {"name": "R_XguyrabfJ6iDKlWgl1Lw", "score": 27.12286765993352}, "geometry": {"type": "Point", "coordinates": [8.512159, 47.2073901]}}, {"type": "Feature", "properties": {"name": "4FitL_r_1GTTQuLXQCE_gw", "score": 37.27602028276435}, "geometry": {"type": "Point", "coordinates": [8.5120507, 47.2072544]}}, {"type": "Feature", "properties": {"name": "c4K_4fWFgXBV17S8o70h-Q", "score": 29.927435476485574}, "geometry": {"type": "Point", "coordinates": [8.5119051, 47.2071158]}}, {"type": "Feature", "properties": {"name": "XXYiyvr0jVghsgHqgNomIg", "score": 37.70234096719596}, "geometry": {"type": "Point", "coordinates": [8.511772, 47.2069845]}}, {"type": "Feature", "properties": {"name": "NNnvB-vFp8GEAPElzIgh4w", "score": 36.526268141687545}, "geometry": {"type": "Point", "coordinates": [8.5116163, 47.2068786]}}, {"type": "Feature", "properties": {"name": "AlA3RnTPCvLFXcgyoPyuZg", "score": 20.08137389664806}, "geometry": {"type": "Point", "coordinates": [8.5114667, 47.2067971]}}, {"type": "Feature", "properties": {"name": "_3AG_TeuUXTUdE_1T0PoFQ", "score": 27.56608704619769}, "geometry": {"type": "Point", "coordinates": [8.5113752, 47.2066749]}}, {"type": "Feature", "properties": {"name": "A4DBU6zdnlmiHGITgmAJTg", "score": 23.461772289088824}, "geometry": {"type": "Point", "coordinates": [8.5112977, 47.2065247]}}, {"type": "Feature", "properties": {"name": "9XOXLX7WxN1JBkM8rIzd8g", "score": 20.218878674212846}, "geometry": {"type": "Point", "coordinates": [8.5112664, 47.2063846]}}, {"type": "Feature", "properties": {"name": "vFmmzXyN5eSi-DtE9BmbHA", "score": 28.51510050509419}, "geometry": {"type": "Point", "coordinates": [8.5112664, 47.2063846]}}, {"type": "Feature", "properties": {"name": "Ot9xepIXC97cYyq1TBa-7g", "score": 20.60104909572905}, "geometry": {"type": "Point", "coordinates": [8.5112625, 47.2062433]}}, {"type": "Feature", "properties": {"name": "FzMLIZQiN6I4AAeapKa0KQ", "score": 19.05391502344351}, "geometry": {"type": "Point", "coordinates": [8.5113095, 47.2061016]}}, {"type": "Feature", "properties": {"name": "uhHdLuOlK69KKjxLMEy3cQ", "score": 22.11364294391391}, "geometry": {"type": "Point", "coordinates": [8.5113808, 47.2059778]}}, {"type": "Feature", "properties": {"name": "QC6mF6EvZ5MWLx5E7FCAzQ", "score": 19.498013417651666}, "geometry": {"type": "Point", "coordinates": [8.5116067, 47.2058887]}}, {"type": "Feature", "properties": {"name": "OBzt_O9gFeCU72R8CEOwBQ", "score": 29.952224586387}, "geometry": {"type": "Point", "coordinates": [8.511724, 47.2057572]}}, {"type": "Feature", "properties": {"name": "4Jrdboh38MW6R5V16cRDtQ", "score": 12.29667442878493}, "geometry": {"type": "Point", "coordinates": [8.5118784, 47.2056376]}}, {"type": "Feature", "properties": {"name": "XS-YSIiJba6CIz6sYJkrUQ", "score": 9.96425841741126}, "geometry": {"type": "Point", "coordinates": [8.5120433, 47.2055317]}}, {"type": "Feature", "properties": {"name": "hr32FXeD5oh9Oxe97_i4HA", "score": 19.199151973059273}, "geometry": {"type": "Point", "coordinates": [8.5121583, 47.2053593]}}, {"type": "Feature", "properties": {"name": "i9iZ0hMUuGhx3iJvx0dE6Q", "score": 23.841291890723614}, "geometry": {"type": "Point", "coordinates": [8.5122739, 47.2052066]}}, {"type": "Feature", "properties": {"name": "mHB236WWsVsjrWvMpSKkFA", "score": 8.124512633629177}, "geometry": {"type": "Point", "coordinates": [8.512387, 47.2050575]}}, {"type": "Feature", "properties": {"name": "TS6wDHJqZCVqLSxTBISWXA", "score": 12.695905973923592}, "geometry": {"type": "Point", "coordinates": [8.5125137, 47.2049215]}}, {"type": "Feature", "properties": {"name": "cQDNdZKJNN9-mm0Zs2wYRQ", "score": 12.099049202434852}, "geometry": {"type": "Point", "coordinates": [8.5126107, 47.2047978]}}, {"type": "Feature", "properties": {"name": "dL38T4ln1uVJhrg9Q1FXgQ", "score": 31.44181350006214}, "geometry": {"type": "Point", "coordinates": [8.5127176, 47.2046647]}}, {"type": "Feature", "properties": {"name": "mLCQ0d-fkLTIFpRFvAzNeg", "score": 5.701791491595481}, "geometry": {"type": "Point", "coordinates": [8.5127314, 47.2044843]}}, {"type": "Feature", "properties": {"name": "BsDZnXTEV9VvD0ddTkrs6A", "score": 24.688806507841306}, "geometry": {"type": "Point", "coordinates": [8.5127688, 47.2043485]}}, {"type": "Feature", "properties": {"name": "WKyVkxiw8dbxXvIKJv8Vhg", "score": 30.040329023898874}, "geometry": {"type": "Point", "coordinates": [8.5128242, 47.2042136]}}, {"type": "Feature", "properties": {"name": "hipwI5cqTMjSMQnCyRoaJg", "score": 30.551986353173174}, "geometry": {"type": "Point", "coordinates": [8.5128716, 47.2040814]}}, {"type": "Feature", "properties": {"name": "aaVqrTl4pk9z7gT97gwLjA", "score": 37.70234096719596}, "geometry": {"type": "Point", "coordinates": [8.5129335, 47.2039793]}}, {"type": "Feature", "properties": {"name": "3eFHkKS7eF31cwQrg51WPA", "score": 25.31119349215866}, "geometry": {"type": "Point", "coordinates": [8.5129908, 47.2038552]}}, {"type": "Feature", "properties": {"name": "DZJhFF1zpuHupZJOsao5dQ", "score": 38.22928472005232}, "geometry": {"type": "Point", "coordinates": [8.5132959, 47.2037805]}}, {"type": "Feature", "properties": {"name": "Mdh1_Wz20-qLCXRxMnwhUg", "score": 14.18739168051726}, "geometry": {"type": "Point", "coordinates": [8.5134661, 47.2036782]}}, {"type": "Feature", "properties": {"name": "a6uYOwEExcDYz94S7r311A", "score": 28.736929111661805}, "geometry": {"type": "Point", "coordinates": [8.5135964, 47.2035762]}}, {"type": "Feature", "properties": {"name": "5coydMhlgZld-wBrO5UsQQ", "score": 23.39613068869288}, "geometry": {"type": "Point", "coordinates": [8.5137147, 47.2034766]}}, {"type": "Feature", "properties": {"name": "ylYYuqfFgYOfTJLKuAkmJg", "score": 25.097828760943713}, "geometry": {"type": "Point", "coordinates": [8.5138522, 47.2033673]}}, {"type": "Feature", "properties": {"name": "v4TsddqVMitsCYqQmqM6Fw", "score": 9.281100683740249}, "geometry": {"type": "Point", "coordinates": [8.5139955, 47.2032613]}}, {"type": "Feature", "properties": {"name": "a4gCaw0BfPCzNuEGGfh1_w", "score": 3.1668906950115456}, "geometry": {"type": "Point", "coordinates": [8.5141283, 47.2031835]}}, {"type": "Feature", "properties": {"name": "x5apls-abad3SuVWU8pOgQ", "score": 12.578318618319004}, "geometry": {"type": "Point", "coordinates": [8.5142561, 47.2030883]}}, {"type": "Feature", "properties": {"name": "YrcxKZ15Zx4Ba6hfp8AS_w", "score": 12.297659032804034}, "geometry": {"type": "Point", "coordinates": [8.5144041, 47.2030002]}}, {"type": "Feature", "properties": {"name": "nKvSVgKg8ypKNcJrdKeLhA", "score": 14.185916236335624}, "geometry": {"type": "Point", "coordinates": [8.5145268, 47.2029145]}}, {"type": "Feature", "properties": {"name": "VbmeYCWG8YS0Vmju71llcg", "score": 10.59637555388777}, "geometry": {"type": "Point", "coordinates": [8.514654, 47.202824]}}, {"type": "Feature", "properties": {"name": "OVlch0wIahgUV1m5CugDMA", "score": 12.85202194447697}, "geometry": {"type": "Point", "coordinates": [8.5147753, 47.2027269]}}, {"type": "Feature", "properties": {"name": "Acm9YuSHqlAx6dHaItTE6g", "score": 12.368124534698243}, "geometry": {"type": "Point", "coordinates": [8.5148401, 47.2026194]}}, {"type": "Feature", "properties": {"name": "FjZtLQ9I8EkGxY0NYMz8-w", "score": 13.473731858312474}, "geometry": {"type": "Point", "coordinates": [8.5149076, 47.2024843]}}, {"type": "Feature", "properties": {"name": "Hgwlt6lelgC1qhaostTkAA", "score": 5.395574856594122}, "geometry": {"type": "Point", "coordinates": [8.5149945, 47.2023868]}}, {"type": "Feature", "properties": {"name": "jWxQKTgWVggSTj-gPIfbjQ", "score": 13.473731858312474}, "geometry": {"type": "Point", "coordinates": [8.5151056, 47.2022838]}}, {"type": "Feature", "properties": {"name": "hYM9As3TJ6Y4HSAeHh_hmg", "score": 7.305915821734709}, "geometry": {"type": "Point", "coordinates": [8.5152274, 47.2022164]}}, {"type": "Feature", "properties": {"name": "clcGBP57KTVHMHKsQ-VPig", "score": 13.46042767523263}, "geometry": {"type": "Point", "coordinates": [8.5153569, 47.2021309]}}, {"type": "Feature", "properties": {"name": "ThpqI261ns1EARJ1k6V0qw", "score": 9.397043768006977}, "geometry": {"type": "Point", "coordinates": [8.5154845, 47.2020506]}}, {"type": "Feature", "properties": {"name": "nZ_54HAZ9v74AeJTgXgYow", "score": 5.887633565026528}, "geometry": {"type": "Point", "coordinates": [8.5156229, 47.2019528]}}, {"type": "Feature", "properties": {"name": "5DxCWCTSpeSI3OraH8mzFA", "score": 11.140562997882176}, "geometry": {"type": "Point", "coordinates": [8.5157474, 47.2018736]}}, {"type": "Feature", "properties": {"name": "XGS88UEUT3azkoxANBySoA", "score": 13.159781310768773}, "geometry": {"type": "Point", "coordinates": [8.5158703, 47.2017649]}}, {"type": "Feature", "properties": {"name": "KTwQxSytabJxYc7_FAQkBA", "score": 10.353722494355111}, "geometry": {"type": "Point", "coordinates": [8.5159917, 47.2016796]}}, {"type": "Feature", "properties": {"name": "J-jtvr54KjN59cbM_juElg", "score": 11.760595819717876}, "geometry": {"type": "Point", "coordinates": [8.5161294, 47.2016054]}}, {"type": "Feature", "properties": {"name": "KhzALw2VgZShbIuwgKkV7Q", "score": 21.26307088833821}, "geometry": {"type": "Point", "coordinates": [8.5162695, 47.20152]}}, {"type": "Feature", "properties": {"name": "_RXbwXHDr7MXHegcQbXf6Q", "score": 0}, "geometry": {"type": "Point", "coordinates": [8.5164048, 47.2014533]}}, {"type": "Feature", "properties": {"name": "j3BW6DnUMTw6kqRKn91Upw", "score": 19.644900673944186}, "geometry": {"type": "Point", "coordinates": [8.5165354, 47.2013745]}}, {"type": "Feature", "properties": {"name": "aG0mamjwptnrqV17x0Z_Gg", "score": 17.572336313701346}, "geometry": {"type": "Point", "coordinates": [8.5167572, 47.2013141]}}, {"type": "Feature", "properties": {"name": "GVP3GVx9TiW7Y-kjfi9XtQ", "score": 12.297659032804034}, "geometry": {"type": "Point", "coordinates": [8.5169201, 47.2012571]}}, {"type": "Feature", "properties": {"name": "52hFZZYkabFVgU2vvakXaQ", "score": 5.202302261761139}, "geometry": {"type": "Point", "coordinates": [8.5170785, 47.2011999]}}, {"type": "Feature", "properties": {"name": "Yw4IcVuw48tlaPjjlluE0w", "score": 8.585165176270856}, "geometry": {"type": "Point", "coordinates": [8.5172268, 47.2011446]}}, {"type": "Feature", "properties": {"name": "DDtik0P8GymW1dgxMBAimg", "score": 15.585734989329724}, "geometry": {"type": "Point", "coordinates": [8.5173813, 47.2010995]}}, {"type": "Feature", "properties": {"name": "18YA7fDzv0kXFvhyAC8M9A", "score": 13.853947240163244}, "geometry": {"type": "Point", "coordinates": [8.5175114, 47.201043]}}, {"type": "Feature", "properties": {"name": "j_uFUymznX1AIfTIw-K0yQ", "score": 25.31119349215866}, "geometry": {"type": "Point", "coordinates": [8.517657, 47.200988]}}, {"type": "Feature", "properties": {"name": "GjJZWiqq-YzQR1ge-Kyw2g", "score": 10.55772481223399}, "geometry": {"type": "Point", "coordinates": [8.5177933, 47.2009448]}}, {"type": "Feature", "properties": {"name": "59IVDU5v_PNYYxi_IfHxMg", "score": 21.77108236736485}, "geometry": {"type": "Point", "coordinates": [8.5179433, 47.2008753]}}, {"type": "Feature", "properties": {"name": "RtTna-0UJvh7lX1rpT_rRg", "score": 7.484829916655116}, "geometry": {"type": "Point", "coordinates": [8.5180923, 47.2008039]}}, {"type": "Feature", "properties": {"name": "w5v0hXQiHdra7Kx_H9Z4uQ", "score": 20.07256452351442}, "geometry": {"type": "Point", "coordinates": [8.5182378, 47.2007261]}}, {"type": "Feature", "properties": {"name": "ztkKo1AbvuQGyV84RkDrtg", "score": 7.8126501043085055}, "geometry": {"type": "Point", "coordinates": [8.5183692, 47.2006471]}}, {"type": "Feature", "properties": {"name": "iLzSKNNLmhbXI6aeHcMFUA", "score": 0}, "geometry": {"type": "Point", "coordinates": [8.5185126, 47.200561]}}, {"type": "Feature", "properties": {"name": "lUiP3Hnhg7m0ERgt9yz89A", "score": 10.820967809493833}, "geometry": {"type": "Point", "coordinates": [8.5186577, 47.2004918]}}, {"type": "Feature", "properties": {"name": "Jpn5H3EYZcPIJarJfbEhUg", "score": 29.973533329053517}, "geometry": {"type": "Point", "coordinates": [8.5187961, 47.2004126]}}, {"type": "Feature", "properties": {"name": "Sb8nPif18ON9nR6qvUrBmg", "score": 21.26307088833821}, "geometry": {"type": "Point", "coordinates": [8.5189463, 47.200326]}}, {"type": "Feature", "properties": {"name": "SXpMYkxw-szjfsZD0MlVCg", "score": 1.9801324550196155}, "geometry": {"type": "Point", "coordinates": [8.519092, 47.2002485]}}, {"type": "Feature", "properties": {"name": "jUxoHovMx3vlCddTQMpjCw", "score": 10.568947627973902}, "geometry": {"type": "Point", "coordinates": [8.5192678, 47.20017]}}, {"type": "Feature", "properties": {"name": "7zVa4mSTlAI-3s1GxYCIHA", "score": 9.421886234024186}, "geometry": {"type": "Point", "coordinates": [8.5194159, 47.2000887]}}, {"type": "Feature", "properties": {"name": "ehyBccoeNw-tTydiI0ZKXA", "score": 10.064817772377761}, "geometry": {"type": "Point", "coordinates": [8.5195406, 47.1999963]}}, {"type": "Feature", "properties": {"name": "YIU05CvS4s_SoaXQ26EN-Q", "score": 29.25439188503996}, "geometry": {"type": "Point", "coordinates": [8.519686, 47.1999159]}}, {"type": "Feature", "properties": {"name": "-X8zz7GrwUqVbChcc38lWw", "score": 12.297659032804034}, "geometry": {"type": "Point", "coordinates": [8.5198409, 47.1998372]}}, {"type": "Feature", "properties": {"name": "4wqYXOcYOdniKLj5uVpnWQ", "score": 12.028816363174196}, "geometry": {"type": "Point", "coordinates": [8.5199935, 47.199754]}}, {"type": "Feature", "properties": {"name": "z45WaHoSaC9-Piv6Ve5Fqw", "score": 3.1460628018151997}, "geometry": {"type": "Point", "coordinates": [8.5201399, 47.199679]}}, {"type": "Feature", "properties": {"name": "Q4oGFv10zyOviVBltDny9w", "score": 13.473731858312474}, "geometry": {"type": "Point", "coordinates": [8.5203361, 47.199611]}}, {"type": "Feature", "properties": {"name": "Tm2DyaktnHNxJzrowD1xHQ", "score": 12.297659032804034}, "geometry": {"type": "Point", "coordinates": [8.5204818, 47.1995311]}}, {"type": "Feature", "properties": {"name": "4g9KpCaFKbJrkRBphgdNaA", "score": 12.046391078097955}, "geometry": {"type": "Point", "coordinates": [8.5206314, 47.1994479]}}, {"type": "Feature", "properties": {"name": "i2Rwbl0LjSAPpxlDBN5ZMQ", "score": 10.224382872731331}, "geometry": {"type": "Point", "coordinates": [8.5207869, 47.1993612]}}, {"type": "Feature", "properties": {"name": "MH4mjaHyqSRnvFwYOu_5Bg", "score": 19.756512222076903}, "geometry": {"type": "Point", "coordinates": [8.5209309, 47.1992793]}}, {"type": "Feature", "properties": {"name": "Q6dsctgcZcSsJK63MXAlrg", "score": 3.0629017824553304}, "geometry": {"type": "Point", "coordinates": [8.5210827, 47.1991964]}}, {"type": "Feature", "properties": {"name": "BH6yOnsna-Aqu_mwfQyvcg", "score": 13.473731858312474}, "geometry": {"type": "Point", "coordinates": [8.5212174, 47.1991243]}}, {"type": "Feature", "properties": {"name": "sdPSgbAYvdxf0h4_ZdXW8w", "score": 5.199750291067104}, "geometry": {"type": "Point", "coordinates": [8.5213422, 47.1990414]}}, {"type": "Feature", "properties": {"name": "NhDSMWw909tZLKwH0wj66g", "score": 10.795184783533596}, "geometry": {"type": "Point", "coordinates": [8.5214572, 47.1989712]}}, {"type": "Feature", "properties": {"name": "RtTcF18fFFC-iB7dt7H0Mg", "score": 25.021351124293563}, "geometry": {"type": "Point", "coordinates": [8.5215545, 47.1988985]}}, {"type": "Feature", "properties": {"name": "YT_jPNnxbxVKoOSZMljF3w", "score": 13.626053252399053}, "geometry": {"type": "Point", "coordinates": [8.5216489, 47.1988333]}}, {"type": "Feature", "properties": {"name": "NA7sWkQigQqzx3u5FrCxqQ", "score": 8.776683870207115}, "geometry": {"type": "Point", "coordinates": [8.5217354, 47.198748]}}, {"type": "Feature", "properties": {"name": "MeMxD00cGB4fWIQkRho77w", "score": 12.9950635241576}, "geometry": {"type": "Point", "coordinates": [8.52182, 47.1986802]}}, {"type": "Feature", "properties": {"name": "WjpCBz6AVyOaZseuVJvnHQ", "score": 0}, "geometry": {"type": "Point", "coordinates": [8.5218837, 47.198602]}}, {"type": "Feature", "properties": {"name": "eldEKg7-xXlawHh_-RCDGw", "score": 9.434912917199636}, "geometry": {"type": "Point", "coordinates": [8.5219389, 47.1985234]}}, {"type": "Feature", "properties": {"name": "o4EKaHUqPEpNLOJLZf489A", "score": 7.7082183755654645}, "geometry": {"type": "Point", "coordinates": [8.5220035, 47.1984439]}}, {"type": "Feature", "properties": {"name": "YM1FuZaj5RBZgQdsHETTTg", "score": 13.473731858312474}, "geometry": {"type": "Point", "coordinates": [8.5220635, 47.1983656]}}, {"type": "Feature", "properties": {"name": "VlIoU-4mxZFM5LbHQlyJ1g", "score": 9.820364073721986}, "geometry": {"type": "Point", "coordinates": [8.5221283, 47.1982824]}}, {"type": "Feature", "properties": {"name": "IpHjszVODTn0kl0xt_tMQg", "score": 6.034526781653815}, "geometry": {"type": "Point", "coordinates": [8.5221799, 47.1982153]}}, {"type": "Feature", "properties": {"name": "AkghupzKYwQIsOZfdQ3_2g", "score": 3.442714979685807}, "geometry": {"type": "Point", "coordinates": [8.5222305, 47.1981446]}}, {"type": "Feature", "properties": {"name": "jO2nujA3sN4w_4TSwNDsMw", "score": 11.760595819717876}, "geometry": {"type": "Point", "coordinates": [8.5222871, 47.1980742]}}, {"type": "Feature", "properties": {"name": "RoCES_lXuvbpqt0pObcSeA", "score": 18.028634926629643}, "geometry": {"type": "Point", "coordinates": [8.522343, 47.1979956]}}, {"type": "Feature", "properties": {"name": "uwi56TRK16y-WIjAh1eVyQ", "score": 9.056184313713498}, "geometry": {"type": "Point", "coordinates": [8.5223881, 47.197932]}}, {"type": "Feature", "properties": {"name": "79Llstd36m8AnjpJtA9pdQ", "score": 12.24377214590879}, "geometry": {"type": "Point", "coordinates": [8.5224385, 47.1978652]}}, {"type": "Feature", "properties": {"name": "6gw8Z8X6m4jk9RIGDfVInw", "score": 27.778209259857675}, "geometry": {"type": "Point", "coordinates": [8.5224734, 47.1978371]}}, {"type": "Feature", "properties": {"name": "xltfTCu_uKjzRRLIZYNsoQ", "score": 37.70234096719596}, "geometry": {"type": "Point", "coordinates": [8.5225029, 47.1977739]}}, {"type": "Feature", "properties": {"name": "BabLZHFEBNC0I-6bxsiHZQ", "score": 29.63139367877598}, "geometry": {"type": "Point", "coordinates": [8.5225348, 47.1977151]}}, {"type": "Feature", "properties": {"name": "8jGstghWfboHZFWG-cSCGg", "score": 10.59637555388777}, "geometry": {"type": "Point", "coordinates": [8.522553, 47.1976771]}}, {"type": "Feature", "properties": {"name": "Q2kbEb0sFk8PL-0S7t3sWg", "score": 20.838131562451377}, "geometry": {"type": "Point", "coordinates": [8.5225599, 47.1976249]}}, {"type": "Feature", "properties": {"name": "t21e-4fWs9tWDsJkVDh1zw", "score": 12.297659032804034}, "geometry": {"type": "Point", "coordinates": [8.5225502, 47.1975776]}}, {"type": "Feature", "properties": {"name": "jKGAagNbsSmaCq57sGGlbQ", "score": 24.688806507841306}, "geometry": {"type": "Point", "coordinates": [8.5225212, 47.1975208]}}, {"type": "Feature", "properties": {"name": "VszLoBNiTadkvUpm6pnDJQ", "score": 19.20681624204013}, "geometry": {"type": "Point", "coordinates": [8.5224751, 47.1974537]}}, {"type": "Feature", "properties": {"name": "ts3iV_5ujKC9GDMFpVVP_w", "score": 26.723176030745197}, "geometry": {"type": "Point", "coordinates": [8.5224116, 47.1973901]}}, {"type": "Feature", "properties": {"name": "oDk1sEBnTRXa6UmDIvu03Q", "score": 12.297659032804034}, "geometry": {"type": "Point", "coordinates": [8.5223399, 47.1973346]}}, {"type": "Feature", "properties": {"name": "gGxksQsc58elyq7TL_UahA", "score": 14.776992914360184}, "geometry": {"type": "Point", "coordinates": [8.5222245, 47.1972713]}}, {"type": "Feature", "properties": {"name": "5RSP_wq4HQtF9xZkdOpMTw", "score": 12.297659032804034}, "geometry": {"type": "Point", "coordinates": [8.5221273, 47.1972186]}}, {"type": "Feature", "properties": {"name": "mMih6lrG7K0_HGIdm6LbZg", "score": 9.353662261016662}, "geometry": {"type": "Point", "coordinates": [8.5220317, 47.1971719]}}, {"type": "Feature", "properties": {"name": "wqweOV0hqTbr91evgOJQWw", "score": 23.503386964265435}, "geometry": {"type": "Point", "coordinates": [8.5219235, 47.1971071]}}, {"type": "Feature", "properties": {"name": "9Bb8AoVTJJfSvzHZThdHCw", "score": 8.18556108869173}, "geometry": {"type": "Point", "coordinates": [8.5218124, 47.1970518]}}, {"type": "Feature", "properties": {"name": "kb5uRTcKtu8FElD2X8mA1g", "score": 7.090970382568082}, "geometry": {"type": "Point", "coordinates": [8.5216964, 47.1969996]}}, {"type": "Feature", "properties": {"name": "Ttu7zdBqyoPiz8NFHrPGxw", "score": 12.457309420205906}, "geometry": {"type": "Point", "coordinates": [8.5215559, 47.1969446]}}, {"type": "Feature", "properties": {"name": "mOurI73wFeA45Mq0PrmA9g", "score": 16.782244300100604}, "geometry": {"type": "Point", "coordinates": [8.5214287, 47.1968924]}}, {"type": "Feature", "properties": {"name": "ffyzD46znUw9wF9kYvnwGA", "score": 22.26336226075284}, "geometry": {"type": "Point", "coordinates": [8.5213001, 47.1968306]}}, {"type": "Feature", "properties": {"name": "_epubRr-KpYEnojiOKt0xQ", "score": 12.054903424872846}, "geometry": {"type": "Point", "coordinates": [8.5211675, 47.1967703]}}, {"type": "Feature", "properties": {"name": "uJJB92Mh94pmkbXbMbNPmg", "score": 9.589507767958073}, "geometry": {"type": "Point", "coordinates": [8.5210334, 47.1967196]}}, {"type": "Feature", "properties": {"name": "Kk84aty_YJ4_wvl4QT5TCw", "score": 6.123084306891897}, "geometry": {"type": "Point", "coordinates": [8.5209176, 47.1966721]}}, {"type": "Feature", "properties": {"name": "UnEb94ddFqsEZvviSTUrrg", "score": 13.473731858312474}, "geometry": {"type": "Point", "coordinates": [8.5207921, 47.196625]}}, {"type": "Feature", "properties": {"name": "mXDaQjWdW0jpeA5tB-kXWw", "score": 12.297659032804034}, "geometry": {"type": "Point", "coordinates": [8.5206699, 47.1965778]}}, {"type": "Feature", "properties": {"name": "ttDCa3cnUjlsvh7YQEx8Ww", "score": 7.834462020996999}, "geometry": {"type": "Point", "coordinates": [8.5205273, 47.1965398]}}, {"type": "Feature", "properties": {"name": "VbaqfGCtL8MhYxEqcpIZbw", "score": 3.058783092555236}, "geometry": {"type": "Point", "coordinates": [8.5203989, 47.1965012]}}, {"type": "Feature", "properties": {"name": "-rjbt-8_vZ07EXWtxyuiHw", "score": 9.041852209592216}, "geometry": {"type": "Point", "coordinates": [8.5202699, 47.1964554]}}, {"type": "Feature", "properties": {"name": "-uDxryx8FsGUyy4C0XgNJg", "score": 1.655892785736364}, "geometry": {"type": "Point", "coordinates": [8.5201407, 47.1964131]}}, {"type": "Feature", "properties": {"name": "O2xQyDABKQbed3ikE-xLzA", "score": 13.473731858312474}, "geometry": {"type": "Point", "coordinates": [8.5200155, 47.1963764]}}, {"type": "Feature", "properties": {"name": "LqwiDE0--j7SUPoTOK1r9Q", "score": 17.698937597229012}, "geometry": {"type": "Point", "coordinates": [8.5198898, 47.1963393]}}, {"type": "Feature", "properties": {"name": "my39Nxi9LposDaCd8JTXzg", "score": 14.538152653498491}, "geometry": {"type": "Point", "coordinates": [8.5197825, 47.1963085]}}, {"type": "Feature", "properties": {"name": "hSO1gsJsu4uKwwTJgSUAYQ", "score": 12.297659032804034}, "geometry": {"type": "Point", "coordinates": [8.5196728, 47.196277]}}, {"type": "Feature", "properties": {"name": "BuBRRraokLfrZUZUeDeEGw", "score": 8.403139508212549}, "geometry": {"type": "Point", "coordinates": [8.519559, 47.1962486]}}, {"type": "Feature", "properties": {"name": "OB_1SOP3QeGcKd29v9ws0w", "score": 4.147634799263219}, "geometry": {"type": "Point", "coordinates": [8.5194554, 47.1962191]}}, {"type": "Feature", "properties": {"name": "HXbh1rFjkUtnlS8pX7IxRg", "score": 13.289337221854653}, "geometry": {"type": "Point", "coordinates": [8.5193724, 47.1961957]}}, {"type": "Feature", "properties": {"name": "fj5HlMgRK9_PkjsRbmWTUw", "score": 18.943805825416273}, "geometry": {"type": "Point", "coordinates": [8.5192834, 47.1961771]}}, {"type": "Feature", "properties": {"name": "MUoYtp_lTvmrZpx1J-nMPQ", "score": 7.456118661745556}, "geometry": {"type": "Point", "coordinates": [8.5192104, 47.196154]}}, {"type": "Feature", "properties": {"name": "xggVZx6isrNUEUjM1hdAGg", "score": 10.639214077420084}, "geometry": {"type": "Point", "coordinates": [8.5191447, 47.1961353]}}, {"type": "Feature", "properties": {"name": "2wlEP2xJV7GMx5RHrLEZjg", "score": 10.775406243197935}, "geometry": {"type": "Point", "coordinates": [8.5190965, 47.196125]}}, {"type": "Feature", "properties": {"name": "TJ9pgYJLbvhcCumzKT3tGQ", "score": 12.297659032804034}, "geometry": {"type": "Point", "coordinates": [8.5190348, 47.1961085]}}, {"type": "Feature", "properties": {"name": "nJgAgbbXbGUqQD72uJVbNA", "score": 12.323154804232967}, "geometry": {"type": "Point", "coordinates": [8.5189983, 47.1961114]}}, {"type": "Feature", "properties": {"name": "44Ydl1Ux1yQbcmjOY_0zWg", "score": 11.504584874802216}, "geometry": {"type": "Point", "coordinates": [8.5189712, 47.1961054]}}, {"type": "Feature", "properties": {"name": "dFFN1S0xEiPbG9nJQVzwTg", "score": 10.656290180189425}, "geometry": {"type": "Point", "coordinates": [8.5189287, 47.1960961]}}, {"type": "Feature", "properties": {"name": "-s_rV4lLps0da3r1qGhd9A", "score": 6.691622380419455}, "geometry": {"type": "Point", "coordinates": [8.5188627, 47.1960844]}}, {"type": "Feature", "properties": {"name": "b8awwUQV2AANAq9I67o_7A", "score": 3.5183270187232547}, "geometry": {"type": "Point", "coordinates": [8.5187877, 47.1960692]}}, {"type": "Feature", "properties": {"name": "MMSctDlFyvhGi4E1JUGEgA", "score": 5.854109052541414}, "geometry": {"type": "Point", "coordinates": [8.5186887, 47.1960383]}}, {"type": "Feature", "properties": {"name": "OQ_kbDyPbvf5njhObhGgKg", "score": 2.6145995568889977}, "geometry": {"type": "Point", "coordinates": [8.518574, 47.1960098]}}, {"type": "Feature", "properties": {"name": "g58JnBoxQd6Q3uWEhAlhXA", "score": 3.79677934578936}, "geometry": {"type": "Point", "coordinates": [8.5184605, 47.1959749]}}, {"type": "Feature", "properties": {"name": "YFDH7R1fOaNm4tAgNdV5sQ", "score": 18.759832127658825}, "geometry": {"type": "Point", "coordinates": [8.5183326, 47.1959317]}}, {"type": "Feature", "properties": {"name": "zBxWCopmizEEf-ZEKrIIIg", "score": 0}, "geometry": {"type": "Point", "coordinates": [8.5181917, 47.1958834]}}, {"type": "Feature", "properties": {"name": "fETX6Cf2Y5Auw0NPGNkMlA", "score": 13.473731858312474}, "geometry": {"type": "Point", "coordinates": [8.5180408, 47.1958379]}}, {"type": "Feature", "properties": {"name": "yUrEF2U8c9-G1oN1t7Q1-w", "score": 11.770715279947671}, "geometry": {"type": "Point", "coordinates": [8.5178845, 47.1957851]}}, {"type": "Feature", "properties": {"name": "8f3L4dQwLKbfSHaQZMU9UA", "score": 3.7109694728951954}, "geometry": {"type": "Point", "coordinates": [8.5177186, 47.1957304]}}, {"type": "Feature", "properties": {"name": "d8keAv4NMv_N7koGYoLqsw", "score": 11.673518150057857}, "geometry": {"type": "Point", "coordinates": [8.5175448, 47.1956726]}}, {"type": "Feature", "properties": {"name": "MGUrSWBZ1Ced7NLXA6huOg", "score": 11.646644196303368}, "geometry": {"type": "Point", "coordinates": [8.5173701, 47.1956112]}}, {"type": "Feature", "properties": {"name": "NcJzQoa9SQEPmXbvI4jAew", "score": 6.595942732029483}, "geometry": {"type": "Point", "coordinates": [8.5171827, 47.1955412]}}, {"type": "Feature", "properties": {"name": "US-DHF8C65SWT5htANrY3A", "score": 4.857330830925046}, "geometry": {"type": "Point", "coordinates": [8.5170041, 47.1954724]}}, {"type": "Feature", "properties": {"name": "pqOteowRheOqeEqw5BZS_g", "score": 16.453556469573808}, "geometry": {"type": "Point", "coordinates": [8.5168209, 47.1953994]}}, {"type": "Feature", "properties": {"name": "Jk_LOXS9MULYrUE5Ex_Acw", "score": 15.390259810904013}, "geometry": {"type": "Point", "coordinates": [8.5166413, 47.195325]}}, {"type": "Feature", "properties": {"name": "wpZKRo5KjLDysnjwRvIeiQ", "score": 10.59637555388777}, "geometry": {"type": "Point", "coordinates": [8.5164609, 47.1952521]}}, {"type": "Feature", "properties": {"name": "-wbar5-8DQJwsBrpDW23Sg", "score": 13.473731858312474}, "geometry": {"type": "Point", "coordinates": [8.5162723, 47.1951701]}}, {"type": "Feature", "properties": {"name": "MiHvhH_QDZ9xZUi9YhyJ4w", "score": 11.988668202742803}, "geometry": {"type": "Point", "coordinates": [8.516103, 47.1950853]}}, {"type": "Feature", "properties": {"name": "7XQDu4f2B8vRfk0O30gXzg", "score": 14.167791379081686}, "geometry": {"type": "Point", "coordinates": [8.5159353, 47.1949902]}}, {"type": "Feature", "properties": {"name": "epFtO9qPQdu8Bw4QDhahUA", "score": 6.607575135595538}, "geometry": {"type": "Point", "coordinates": [8.5157661, 47.1948848]}}, {"type": "Feature", "properties": {"name": "pZgAGsD73u-UUdRzp2k0Eg", "score": 21.790005397522144}, "geometry": {"type": "Point", "coordinates": [8.5156069, 47.1947808]}}, {"type": "Feature", "properties": {"name": "Ydf9gAyJ8GNJu22_VJhmVg", "score": 11.98099294341406}, "geometry": {"type": "Point", "coordinates": [8.51545, 47.1946712]}}, {"type": "Feature", "properties": {"name": "XQhdJGiGI-QO1OXRfEocSQ", "score": 2.4775564018887892}, "geometry": {"type": "Point", "coordinates": [8.5152991, 47.194565]}}, {"type": "Feature", "properties": {"name": "1E6V1RKTCnFLznH5NuvfiQ", "score": 11.60841907544604}, "geometry": {"type": "Point", "coordinates": [8.5151534, 47.1944584]}}, {"type": "Feature", "properties": {"name": "rn5mfeI9_BhJtZ0Iyf7Ipw", "score": 15.752900657747404}, "geometry": {"type": "Point", "coordinates": [8.5150047, 47.1943444]}}, {"type": "Feature", "properties": {"name": "sBvPOh41KgvbiHLvjt3Dgg", "score": 10.59637555388777}, "geometry": {"type": "Point", "coordinates": [8.5148648, 47.1942292]}}, {"type": "Feature", "properties": {"name": "SNf8xnqBrCDUVzvVafypzw", "score": 13.473731858312474}, "geometry": {"type": "Point", "coordinates": [8.5147335, 47.1941132]}}, {"type": "Feature", "properties": {"name": "HNrTjeXniqamH6tPU1y6aA", "score": 16.042609694043175}, "geometry": {"type": "Point", "coordinates": [8.5146007, 47.1939956]}}, {"type": "Feature", "properties": {"name": "IbpasP-Xvm1vXXlYih7jUg", "score": 12.37494724777613}, "geometry": {"type": "Point", "coordinates": [8.5144755, 47.1938809]}}, {"type": "Feature", "properties": {"name": "izFTm11gZ6idKJ024W76RA", "score": 12.297659032804034}, "geometry": {"type": "Point", "coordinates": [8.5143557, 47.1937702]}}, {"type": "Feature", "properties": {"name": "QCxKGRLJ54L7jQo7Gsb5sw", "score": 5.724474306114664}, "geometry": {"type": "Point", "coordinates": [8.5142362, 47.1936583]}}, {"type": "Feature", "properties": {"name": "0jeOD3fjSfgWgH-crT7MKw", "score": 12.297659032804034}, "geometry": {"type": "Point", "coordinates": [8.5141267, 47.1935587]}}, {"type": "Feature", "properties": {"name": "7-SeN9YJQt2PaWBbLWBehw", "score": 13.473731858312474}, "geometry": {"type": "Point", "coordinates": [8.5140227, 47.1934617]}}, {"type": "Feature", "properties": {"name": "I5R5bGdAtXtZn_T0QYPktA", "score": 11.17174734370202}, "geometry": {"type": "Point", "coordinates": [8.51393, 47.1933778]}}, {"type": "Feature", "properties": {"name": "W-NRrTHrWpXtd82iyA6Hxg", "score": 11.30748319217779}, "geometry": {"type": "Point", "coordinates": [8.5138492, 47.1933022]}}, {"type": "Feature", "properties": {"name": "XJf6lRmI65QR_uN2Gop3SQ", "score": 12.095133670384419}, "geometry": {"type": "Point", "coordinates": [8.5137766, 47.1932302]}}, {"type": "Feature", "properties": {"name": "S5mYMvDoVuxCwkOCWGgeRw", "score": 10.656290180189425}, "geometry": {"type": "Point", "coordinates": [8.5137177, 47.1931726]}}, {"type": "Feature", "properties": {"name": "lSTKi9sWds_usWLofA3NBw", "score": 4.3962469496084795}, "geometry": {"type": "Point", "coordinates": [8.5136679, 47.1931223]}}, {"type": "Feature", "properties": {"name": "YiHzeh6vVv1ivnQ9XEwbUg", "score": 17.666081831987057}, "geometry": {"type": "Point", "coordinates": [8.5136258, 47.1930817]}}, {"type": "Feature", "properties": {"name": "0MGw0JniZKeZLnpkkEbIFw", "score": 5.670193797405583}, "geometry": {"type": "Point", "coordinates": [8.5135928, 47.1930465]}}, {"type": "Feature", "properties": {"name": "oeCPO3wPyaJQLu9jQ1uiVg", "score": 11.349726934717905}, "geometry": {"type": "Point", "coordinates": [8.5135648, 47.193017]}}, {"type": "Feature", "properties": {"name": "u1mcl6yB0dDRWq847-lx2w", "score": 12.297659032804034}, "geometry": {"type": "Point", "coordinates": [8.5135243, 47.1929742]}}, {"type": "Feature", "properties": {"name": "xMYx1nE70xGDUtdUbHAP7Q", "score": 12.525869517320034}, "geometry": {"type": "Point", "coordinates": [8.5134915, 47.192934]}}, {"type": "Feature", "properties": {"name": "RzHtxhbGyPFqfXIM_KlIBw", "score": 12.297659032804034}, "geometry": {"type": "Point", "coordinates": [8.5134663, 47.1929091]}}, {"type": "Feature", "properties": {"name": "1Az2eFXo7QQDBRrVU2rjzg", "score": 11.760595819717876}, "geometry": {"type": "Point", "coordinates": [8.5134378, 47.1928812]}}, {"type": "Feature", "properties": {"name": "zTPuDTwXGFonbFtBiZjlZA", "score": 11.024363950613013}, "geometry": {"type": "Point", "coordinates": [8.5134009, 47.192843]}}, {"type": "Feature", "properties": {"name": "OiuV3AvdaPagtvWpeZt54A", "score": 0}, "geometry": {"type": "Point", "coordinates": [8.5133601, 47.1927971]}}, {"type": "Feature", "properties": {"name": "0JHsJzBWIwPyzz72jD7Bcw", "score": 1.4922281781383}, "geometry": {"type": "Point", "coordinates": [8.5133121, 47.1927423]}}, {"type": "Feature", "properties": {"name": "YIberyEY2OuZX8eXoqCTqw", "score": 11.211416037334725}, "geometry": {"type": "Point", "coordinates": [8.513256, 47.1926732]}}, {"type": "Feature", "properties": {"name": "ooort1NbqANicjClr5fZuw", "score": 11.36314550165527}, "geometry": {"type": "Point", "coordinates": [8.5131936, 47.192594]}}, {"type": "Feature", "properties": {"name": "6VWwjxmQCI6ZxFuaEl5_Vw", "score": 11.952052847457665}, "geometry": {"type": "Point", "coordinates": [8.5131266, 47.1925059]}}, {"type": "Feature", "properties": {"name": "VFYru1162ekq3Bx_C0ZHng", "score": 10.90236722939919}, "geometry": {"type": "Point", "coordinates": [8.5130595, 47.192413]}}, {"type": "Feature", "properties": {"name": "RNG6hjQ7ZIaWbm-Qfrregw", "score": 8.466994924036499}, "geometry": {"type": "Point", "coordinates": [8.5129921, 47.1923136]}}, {"type": "Feature", "properties": {"name": "gX-YPkFxNQE_3he1_D8ltQ", "score": 17.085687969363807}, "geometry": {"type": "Point", "coordinates": [8.5129218, 47.192203]}}, {"type": "Feature", "properties": {"name": "6apoY1ZrD0s2vgmGr7CSfw", "score": 13.473731858312474}, "geometry": {"type": "Point", "coordinates": [8.5128538, 47.1920904]}}, {"type": "Feature", "properties": {"name": "4gYZe0J0cR_cAtw3tExtmg", "score": 11.17231278440523}, "geometry": {"type": "Point", "coordinates": [8.5127866, 47.1919732]}}, {"type": "Feature", "properties": {"name": "6w2DrsVNgUN28ryzY-qNAw", "score": 2.537232537093065}, "geometry": {"type": "Point", "coordinates": [8.5127215, 47.1918548]}}, {"type": "Feature", "properties": {"name": "-aihLJ-D_JdrDvwygd2Weg", "score": 10.507373327298746}, "geometry": {"type": "Point", "coordinates": [8.5126614, 47.1917318]}}, {"type": "Feature", "properties": {"name": "uR3-IycVqF5Wa2nyNHonTw", "score": 24.688806507841306}, "geometry": {"type": "Point", "coordinates": [8.5126016, 47.191603]}}, {"type": "Feature", "properties": {"name": "VCAo9KtUXacgiqDE6gnQuQ", "score": 2.5271512026595584}, "geometry": {"type": "Point", "coordinates": [8.5125407, 47.1914804]}}, {"type": "Feature", "properties": {"name": "GzrT0AWdW_kbyBfWbOaVDw", "score": 12.792446149831166}, "geometry": {"type": "Point", "coordinates": [8.5124716, 47.1913557]}}, {"type": "Feature", "properties": {"name": "4TDJsz0YNZcZP2dwaNXzyw", "score": 22.104887155819434}, "geometry": {"type": "Point", "coordinates": [8.5123933, 47.1912384]}}, {"type": "Feature", "properties": {"name": "9zzJpxWrHWozSSzIaVJVCw", "score": 15.251616367826758}, "geometry": {"type": "Point", "coordinates": [8.5123113, 47.1911205]}}, {"type": "Feature", "properties": {"name": "qDlsvLRwT6eibZ63r2lCXw", "score": 4.2019129305875405}, "geometry": {"type": "Point", "coordinates": [8.5122335, 47.1910032]}}, {"type": "Feature", "properties": {"name": "S9mclKl9vCAikkEIcO7WXQ", "score": 11.314690533143814}, "geometry": {"type": "Point", "coordinates": [8.5121674, 47.190876]}}, {"type": "Feature", "properties": {"name": "xKcmKJWPcBuydC6vSvLeQA", "score": 14.49666892409932}, "geometry": {"type": "Point", "coordinates": [8.512112, 47.1907487]}}, {"type": "Feature", "properties": {"name": "EXDZQZ62PZi2z4a4L-kJuA", "score": 21.273009555354726}, "geometry": {"type": "Point", "coordinates": [8.5120574, 47.1906115]}}, {"type": "Feature", "properties": {"name": "HhjFOSXRQPSYEaEcx1SyKQ", "score": 10.404129806090722}, "geometry": {"type": "Point", "coordinates": [8.512006, 47.1904783]}}, {"type": "Feature", "properties": {"name": "UnT1ajwSqYEEAH-kGEhYEQ", "score": 21.313186201817018}, "geometry": {"type": "Point", "coordinates": [8.5119574, 47.190348]}}, {"type": "Feature", "properties": {"name": "h0IwyEW6g1i6bP69OTI5nQ", "score": 29.855164020900638}, "geometry": {"type": "Point", "coordinates": [8.5119069, 47.1902086]}}, {"type": "Feature", "properties": {"name": "7DVPf9EX1vql0GqnnNWCAg", "score": 18.106328243894804}, "geometry": {"type": "Point", "coordinates": [8.5118668, 47.1900783]}}, {"type": "Feature", "properties": {"name": "HDZrqfrBWOlUr7J9VUun0g", "score": 10.109790569531178}, "geometry": {"type": "Point", "coordinates": [8.5118329, 47.1899404]}}, {"type": "Feature", "properties": {"name": "Npj6uxqyasGyqZVn7hTvYA", "score": 6.944021871370948}, "geometry": {"type": "Point", "coordinates": [8.5118109, 47.1898061]}}, {"type": "Feature", "properties": {"name": "0l2E_pIQ7ZXQhs3CWUGx8w", "score": 21.69605847524921}, "geometry": {"type": "Point", "coordinates": [8.5117944, 47.1896712]}}, {"type": "Feature", "properties": {"name": "jWN8Ey84DcBpQoS6bNlu4A", "score": 24.688806507841306}, "geometry": {"type": "Point", "coordinates": [8.5117816, 47.1895452]}}, {"type": "Feature", "properties": {"name": "rr_9maqs47fwxAJ8-JX5lg", "score": 10.59637555388777}, "geometry": {"type": "Point", "coordinates": [8.5117715, 47.1894284]}}, {"type": "Feature", "properties": {"name": "omlkaByCfWdr0bUyQDA5Og", "score": 20.3894213190406}, "geometry": {"type": "Point", "coordinates": [8.5117622, 47.1893181]}}, {"type": "Feature", "properties": {"name": "aDUFOCgr6_A1rrKg8aWHGw", "score": 17.067830889061934}, "geometry": {"type": "Point", "coordinates": [8.5117551, 47.1892118]}}, {"type": "Feature", "properties": {"name": "KQbQ0S3qpHEXnqgdRijPOg", "score": 5.211163227971763}, "geometry": {"type": "Point", "coordinates": [8.5117468, 47.1891035]}}, {"type": "Feature", "properties": {"name": "u3XV_33aNcE5xi4Duig8jg", "score": 1.1615705913962209}, "geometry": {"type": "Point", "coordinates": [8.511742, 47.1889988]}}, {"type": "Feature", "properties": {"name": "1dfPQTzLQmJBCGR_EgXyiQ", "score": 13.473731858312474}, "geometry": {"type": "Point", "coordinates": [8.5117515, 47.1888856]}}, {"type": "Feature", "properties": {"name": "pU9niIaVnDvxy6a8gafWtw", "score": 12.297659032804034}, "geometry": {"type": "Point", "coordinates": [8.5117762, 47.188775]}}, {"type": "Feature", "properties": {"name": "BoGthl_oZZ97Z1V5saQxZg", "score": 10.089238445938971}, "geometry": {"type": "Point", "coordinates": [8.5118289, 47.1886657]}}, {"type": "Feature", "properties": {"name": "OUzQJ9hQFkFMn633drBHEA", "score": 15.716506068106895}, "geometry": {"type": "Point", "coordinates": [8.5119084, 47.1885737]}}, {"type": "Feature", "properties": {"name": "j74FU7TqktSzy7mchr33ng", "score": 10.015293075946333}, "geometry": {"type": "Point", "coordinates": [8.5120004, 47.1884921]}}, {"type": "Feature", "properties": {"name": "pGRCJKUw_4u4j7TJx7NyfQ", "score": 17.95425796961234}, "geometry": {"type": "Point", "coordinates": [8.5121095, 47.1884175]}}, {"type": "Feature", "properties": {"name": "D3ZCljocXA4DUO4n0mrLYw", "score": 13.473731858312474}, "geometry": {"type": "Point", "coordinates": [8.5122336, 47.188364]}}, {"type": "Feature", "properties": {"name": "8tuXydX2cyJII7A3xI3g_Q", "score": 12.297659032804034}, "geometry": {"type": "Point", "coordinates": [8.5123772, 47.1883204]}}, {"type": "Feature", "properties": {"name": "DxkdYxgQ9J13bA6XOEWCQA", "score": 11.311714919972287}, "geometry": {"type": "Point", "coordinates": [8.5125205, 47.1882884]}}, {"type": "Feature", "properties": {"name": "qdmhK_34agiUMmw9PaqfwQ", "score": 12.297659032804034}, "geometry": {"type": "Point", "coordinates": [8.5126714, 47.1882642]}}, {"type": "Feature", "properties": {"name": "SzuOu9rAevvw2xkmdsbUPQ", "score": 13.473731858312474}, "geometry": {"type": "Point", "coordinates": [8.5128267, 47.188248]}}, {"type": "Feature", "properties": {"name": "FjfHLaUKMvKVL3EMPO19DQ", "score": 11.498905047492299}, "geometry": {"type": "Point", "coordinates": [8.5129717, 47.1882349]}}, {"type": "Feature", "properties": {"name": "qaDAW28boHl3alf0awhqNA", "score": 21.87537313339586}, "geometry": {"type": "Point", "coordinates": [8.5131183, 47.1882244]}}, {"type": "Feature", "properties": {"name": "FV44_tCvlFsulkENPNRGsw", "score": 9.728391604306891}, "geometry": {"type": "Point", "coordinates": [8.5132712, 47.1882137]}}, {"type": "Feature", "properties": {"name": "1xsOirva1XC4NLXaZWR9sA", "score": 6.527473170398366}, "geometry": {"type": "Point", "coordinates": [8.5134149, 47.1882011]}}, {"type": "Feature", "properties": {"name": "5P910-p0hzLZENq0oH2B6A", "score": 5.750685412953668}, "geometry": {"type": "Point", "coordinates": [8.5135599, 47.18819]}}, {"type": "Feature", "properties": {"name": "4i_cQJReapkyIrNQwH-eww", "score": 9.319873313585278}, "geometry": {"type": "Point", "coordinates": [8.5136964, 47.1881735]}}, {"type": "Feature", "properties": {"name": "7B9V4K5c75mNLh1pu0qaAA", "score": 3.448932746480547}, "geometry": {"type": "Point", "coordinates": [8.5138192, 47.1881541]}},