{"type": "FeatureCollection", "features": [{"type": "Feature", "properties": {"name": "4EJ9knYFESuQsptvJHMuWw", "score": 13}, "geometry": {"type": "Point", "coordinates": [8.2784933, 47.6006142]}}, {"type": "Feature", "properties": {"name": "8LBY3XnTICAwIACPQ89OdA", "score": 44}, "geometry": {"type": "Point", "coordinates": [8.2784951, 47.6006153]}}, {"type": "Feature", "properties": {"name": "foWeouhaQyqPknrSd8w3sg", "score": 17}, "geometry": {"type": "Point", "coordinates": [8.2785284, 47.6006223]}}, {"type": "Feature", "properties": {"name": "j05LZN3WP87EdN-ap5Hevw", "score": 34}, "geometry": {"type": "Point", "coordinates": [8.2785935, 47.600616]}}, {"type": "Feature", "properties": {"name": "7K-LA2YkJtnk1AQ7TG5xSQ", "score": 22}, "geometry": {"type": "Point", "coordinates": [8.2786954, 47.6005861]}}, {"type": "Feature", "properties": {"name": "_f3weZTQ1ZMa-vT6l8huMQ", "score": 21}, "geometry": {"type": "Point", "coordinates": [8.2788251, 47.6005542]}}, {"type": "Feature", "properties": {"name": "bb5kSYnp4VwPpb8v3-1NFQ", "score": 4}, "geometry": {"type": "Point", "coordinates": [8.2789778, 47.6005307]}}, {"type": "Feature", "properties": {"name": "axs_I2THsF66Ugnq5VETKQ", "score": 14}, "geometry": {"type": "Point", "coordinates": [8.2791432, 47.6005113]}}, {"type": "Feature", "properties": {"name": "U-Fm_r7rEvXsspYAQfqAeA", "score": 24}, "geometry": {"type": "Point", "coordinates": [8.279327, 47.6004841]}}, {"type": "Feature", "properties": {"name": "Mn3yf2nHG3gqg-76mpaXqA", "score": 30}, "geometry": {"type": "Point", "coordinates": [8.2794867, 47.6004239]}}, {"type": "Feature", "properties": {"name": "fhMcIPH-t4VWuJ7GJh99SQ", "score": 10}, "geometry": {"type": "Point", "coordinates": [8.2796149, 47.6003728]}}, {"type": "Feature", "properties": {"name": "mdjy49xfyCQ4sHAMczBLig", "score": 14}, "geometry": {"type": "Point", "coordinates": [8.2797382, 47.6003193]}}, {"type": "Feature", "properties": {"name": "aAElxUCx3JZHpTACCi4jrw", "score": 6}, "geometry": {"type": "Point", "coordinates": [8.2798887, 47.6002701]}}, {"type": "Feature", "properties": {"name": "jctGQVxSWbJN_u_QoybmUA", "score": 24}, "geometry": {"type": "Point", "coordinates": [8.2800271, 47.6002057]}}, {"type": "Feature", "properties": {"name": "yvEmLSIqiMopniTSADm61w", "score": 27}, "geometry": {"type": "Point", "coordinates": [8.2801457, 47.6001621]}}, {"type": "Feature", "properties": {"name": "jL9dwIg9OYXhJ-wF4-j44g", "score": 2}, "geometry": {"type": "Point", "coordinates": [8.2802883, 47.6000987]}}, {"type": "Feature", "properties": {"name": "yovqRBIlGdAyYAWydb7QyA", "score": 10}, "geometry": {"type": "Point", "coordinates": [8.2804335, 47.6000503]}}, {"type": "Feature", "properties": {"name": "Up_SEMojVrGLEzC8V4QF5Q", "score": 10}, "geometry": {"type": "Point", "coordinates": [8.2805879, 47.5999855]}}, {"type": "Feature", "properties": {"name": "sl8uyRHRq06t_LA93gE1Og", "score": 20}, "geometry": {"type": "Point", "coordinates": [8.2807472, 47.5999229]}}, {"type": "Feature", "properties": {"name": "vg8Q0WaQLSCKXDfFI_YTsA", "score": 18}, "geometry": {"type": "Point", "coordinates": [8.2808905, 47.5998227]}}, {"type": "Feature", "properties": {"name": "8eVq1j8-_ZHDXRIzhSXjrw", "score": 36}, "geometry": {"type": "Point", "coordinates": [8.2810192, 47.5997307]}}, {"type": "Feature", "properties": {"name": "QdNw_pDUZPJOYLclTpgqEQ", "score": 5}, "geometry": {"type": "Point", "coordinates": [8.2811544, 47.5996489]}}, {"type": "Feature", "properties": {"name": "MsSnGMLyLTAgkNT6BdT8lQ", "score": 10}, "geometry": {"type": "Point", "coordinates": [8.2812706, 47.5995896]}}, {"type": "Feature", "properties": {"name": "gJ39qKque4wmYDdhDI4Tpg", "score": 16}, "geometry": {"type": "Point", "coordinates": [8.2813747, 47.5995196]}}, {"type": "Feature", "properties": {"name": "aEgnU7LDFojfP0hqcGv0Eg", "score": 13}, "geometry": {"type": "Point", "coordinates": [8.2815021, 47.5994368]}}, {"type": "Feature", "properties": {"name": "KA7psLk0F4UHnECuO-q6rQ", "score": 18}, "geometry": {"type": "Point", "coordinates": [8.281638, 47.5993826]}}, {"type": "Feature", "properties": {"name": "I2usx9Uk94TTjKCG0SxPbw", "score": 30}, "geometry": {"type": "Point", "coordinates": [8.2817491, 47.5993317]}}, {"type": "Feature", "properties": {"name": "gX7mebMfePxZOEtqWyD0UQ", "score": 13}, "geometry": {"type": "Point", "coordinates": [8.2818717, 47.5992711]}}, {"type": "Feature", "properties": {"name": "03JG0lHsmAVOfGyPHF1Y9g", "score": 19}, "geometry": {"type": "Point", "coordinates": [8.2819861, 47.5992399]}}, {"type": "Feature", "properties": {"name": "IkTKcgvoIC2e_zh4me1j_g", "score": 6}, "geometry": {"type": "Point", "coordinates": [8.2820921, 47.599195]}}, {"type": "Feature", "properties": {"name": "F5HxFgxDdXEZ2YO5G1edtQ", "score": 13}, "geometry": {"type": "Point", "coordinates": [8.2822223, 47.599142]}}, {"type": "Feature", "properties": {"name": "KwGThISH_TUiPeaHeO92aQ", "score": 25}, "geometry": {"type": "Point", "coordinates": [8.2823467, 47.5990875]}}, {"type": "Feature", "properties": {"name": "c2tpxbevX3IfYtwW4Ay26Q", "score": 1}, "geometry": {"type": "Point", "coordinates": [8.2824583, 47.5990199]}}, {"type": "Feature", "properties": {"name": "6nfkXYmflaKFaz0-NjWR1A", "score": 27}, "geometry": {"type": "Point", "coordinates": [8.282556, 47.5989534]}}, {"type": "Feature", "properties": {"name": "9qRjOdLIT9Dxv6kNw6pMAw", "score": 6}, "geometry": {"type": "Point", "coordinates": [8.2826506, 47.5988799]}}, {"type": "Feature", "properties": {"name": "xPIXr7p0_CXoRnDtrfwH5A", "score": 10}, "geometry": {"type": "Point", "coordinates": [8.2827379, 47.5988134]}}, {"type": "Feature", "properties": {"name": "ZPqrVUkRm-c_WaaGRffumA", "score": 15}, "geometry": {"type": "Point", "coordinates": [8.2828197, 47.5987513]}}, {"type": "Feature", "properties": {"name": "Lg4hKJ1SkAUuCcCFphztCw", "score": 14}, "geometry": {"type": "Point", "coordinates": [8.282905, 47.5986931]}}, {"type": "Feature", "properties": {"name": "lOR-wdk2DEJTHWL-XgOIuw", "score": 14}, "geometry": {"type": "Point", "coordinates": [8.2829818, 47.5986192]}}, {"type": "Feature", "properties": {"name": "uhEcjwhm5W0SXuz5vPQfvQ", "score": 8}, "geometry": {"type": "Point", "coordinates": [8.2830431, 47.5985496]}}, {"type": "Feature", "properties": {"name": "RYlTOYQcwRrJiT5wI8Q_yw", "score": 13}, "geometry": {"type": "Point", "coordinates": [8.2831202, 47.5984499]}}, {"type": "Feature", "properties": {"name": "XFT-XDryBeyM3X66W3QzMg", "score": 14}, "geometry": {"type": "Point", "coordinates": [8.2831889, 47.5983753]}}, {"type": "Feature", "properties": {"name": "UIBhaxrxMynqEKCcYoMuBg", "score": 21}, "geometry": {"type": "Point", "coordinates": [8.2832154, 47.5983418]}}, {"type": "Feature", "properties": {"name": "kxlZFgl0UTChGflsqspciw", "score": 30}, "geometry": {"type": "Point", "coordinates": [8.2833074, 47.5982355]}}, {"type": "Feature", "properties": {"name": "pRWtloBEJIYnaT_ZxsYlvQ", "score": 20}, "geometry": {"type": "Point", "coordinates": [8.2833659, 47.5981716]}}, {"type": "Feature", "properties": {"name": "6EqKSya25JpXBkZeTaNOmA", "score": 7}, "geometry": {"type": "Point", "coordinates": [8.2834289, 47.5981038]}}, {"type": "Feature", "properties": {"name": "zbT46WHgckHYgo8NyPTBcA", "score": 30}, "geometry": {"type": "Point", "coordinates": [8.2834845, 47.5980359]}}, {"type": "Feature", "properties": {"name": "3PPNbRUdhkqf0fKrUNO-sw", "score": 7}, "geometry": {"type": "Point", "coordinates": [8.2835317, 47.5979563]}}, {"type": "Feature", "properties": {"name": "g0FKDeflisxjI0v0DT-mfQ", "score": 10}, "geometry": {"type": "Point", "coordinates": [8.2835693, 47.5978673]}}, {"type": "Feature", "properties": {"name": "mpebyMeg2wL-Xbxq2mMS8w", "score": 13}, "geometry": {"type": "Point", "coordinates": [8.2836088, 47.597787]}}, {"type": "Feature", "properties": {"name": "CbJoNvajjKtFQnxj2DmAog", "score": 22}, "geometry": {"type": "Point", "coordinates": [8.283648, 47.5977009]}}, {"type": "Feature", "properties": {"name": "NjUECszVXOZTP9v1-Ti1GQ", "score": 24}, "geometry": {"type": "Point", "coordinates": [8.2836842, 47.5976223]}}, {"type": "Feature", "properties": {"name": "-rdFCAE-cOXv4yg7S3QCsg", "score": 16}, "geometry": {"type": "Point", "coordinates": [8.2837219, 47.5975488]}}, {"type": "Feature", "properties": {"name": "-dSQ48cRnEH09qa2XOeB0g", "score": 15}, "geometry": {"type": "Point", "coordinates": [8.2837645, 47.5974695]}}, {"type": "Feature", "properties": {"name": "NVJ2cZ6CeDpB712IHsTgRQ", "score": 12}, "geometry": {"type": "Point", "coordinates": [8.2838034, 47.5973965]}}, {"type": "Feature", "properties": {"name": "k0I_pnlgEB6ofq1ZKxGV2g", "score": 10}, "geometry": {"type": "Point", "coordinates": [8.2838513, 47.5973172]}}, {"type": "Feature", "properties": {"name": "GiZ3K_tmLMGI9kYbatxrZw", "score": 15}, "geometry": {"type": "Point", "coordinates": [8.2838987, 47.597243]}}, {"type": "Feature", "properties": {"name": "0ntuhH5DL1_ftLRhf9ra3g", "score": 14}, "geometry": {"type": "Point", "coordinates": [8.2839427, 47.5971673]}}, {"type": "Feature", "properties": {"name": "7O5CLaMYiTgHfoYoP-dnrw", "score": 10}, "geometry": {"type": "Point", "coordinates": [8.2839841, 47.5970949]}}, {"type": "Feature", "properties": {"name": "iR9PFqYqtRCxRbWp9HZRog", "score": 16}, "geometry": {"type": "Point", "coordinates": [8.2840238, 47.5970249]}}, {"type": "Feature", "properties": {"name": "54GrLShFnxLA8h_t4ePr7g", "score": 6}, "geometry": {"type": "Point", "coordinates": [8.2840654, 47.5969452]}}, {"type": "Feature", "properties": {"name": "Eu-jOobXmvfNAVwt2bI9mQ", "score": 3}, "geometry": {"type": "Point", "coordinates": [8.284106, 47.5968733]}}, {"type": "Feature", "properties": {"name": "W4Mp6yHU9jLOtpdWl4b7ig", "score": 14}, "geometry": {"type": "Point", "coordinates": [8.2841545, 47.5968041]}}, {"type": "Feature", "properties": {"name": "nIauuduZ5U0MZh6fxwntTA", "score": 15}, "geometry": {"type": "Point", "coordinates": [8.2842037, 47.596732]}}, {"type": "Feature", "properties": {"name": "OimusmZmQbdcn2kxe6w-pA", "score": 25}, "geometry": {"type": "Point", "coordinates": [8.2842501, 47.5966671]}}, {"type": "Feature", "properties": {"name": "pKiDg1BDYGhHpyAbyo5rXw", "score": 33}, "geometry": {"type": "Point", "coordinates": [8.2842981, 47.5965967]}}, {"type": "Feature", "properties": {"name": "tzJABfuXNcRDAmcp7fM6ag", "score": 33}, "geometry": {"type": "Point", "coordinates": [8.2843429, 47.5965272]}}, {"type": "Feature", "properties": {"name": "3EXl1zMEA7SCro79Nyl8dQ", "score": 16}, "geometry": {"type": "Point", "coordinates": [8.2843964, 47.596462]}}, {"type": "Feature", "properties": {"name": "04WkhZFOSqCx5IX4_izrWA", "score": 15}, "geometry": {"type": "Point", "coordinates": [8.284451, 47.5963964]}}, {"type": "Feature", "properties": {"name": "-k-mU-SBePyvKpXluWkSRA", "score": 14}, "geometry": {"type": "Point", "coordinates": [8.2848504, 47.5960254]}}, {"type": "Feature", "properties": {"name": "WZbIu6REwCdpQCXO6EUu5Q", "score": 13}, "geometry": {"type": "Point", "coordinates": [8.2855481, 47.5955112]}}, {"type": "Feature", "properties": {"name": "dxD5kf2y-rd3fIlsZwnQRA", "score": 11}, "geometry": {"type": "Point", "coordinates": [8.2856273, 47.595447]}}, {"type": "Feature", "properties": {"name": "4wHTadsou_3Y-2UXWaAnyw", "score": 14}, "geometry": {"type": "Point", "coordinates": [8.2857112, 47.595386]}}, {"type": "Feature", "properties": {"name": "7STSSgsVfeQyx7JN2UNO9w", "score": 21}, "geometry": {"type": "Point", "coordinates": [8.2858011, 47.5953181]}}, {"type": "Feature", "properties": {"name": "E_kRW79rtBA1j6eZSZLPcg", "score": 18}, "geometry": {"type": "Point", "coordinates": [8.2858886, 47.5952554]}}, {"type": "Feature", "properties": {"name": "-WDDR16hy7zsWG2uHsa4dA", "score": 12}, "geometry": {"type": "Point", "coordinates": [8.2859692, 47.5951938]}}, {"type": "Feature", "properties": {"name": "x3MrFAC0g7R2fPHNUImYTg", "score": 7}, "geometry": {"type": "Point", "coordinates": [8.2860511, 47.5951408]}}, {"type": "Feature", "properties": {"name": "0k8U7_gPishxDdpvPEIIRQ", "score": 11}, "geometry": {"type": "Point", "coordinates": [8.2861462, 47.5950967]}}, {"type": "Feature", "properties": {"name": "-3R1kvBMoOjT6TTKFmw53g", "score": 14}, "geometry": {"type": "Point", "coordinates": [8.2861926, 47.5950748]}}, {"type": "Feature", "properties": {"name": "pDce_EIa_GyBKkZw23fvZQ", "score": 16}, "geometry": {"type": "Point", "coordinates": [8.2863115, 47.5949956]}}, {"type": "Feature", "properties": {"name": "_WdTqNDrHyz3KtrY0PYofg", "score": 13}, "geometry": {"type": "Point", "coordinates": [8.2863823, 47.5949399]}}, {"type": "Feature", "properties": {"name": "5byy2Vrclb6miK0fayZkHQ", "score": 9}, "geometry": {"type": "Point", "coordinates": [8.2864227, 47.5948747]}}, {"type": "Feature", "properties": {"name": "KvEIUUJE0wXJuMsJyvO_ZA", "score": 33}, "geometry": {"type": "Point", "coordinates": [8.2864208, 47.5948023]}}, {"type": "Feature", "properties": {"name": "nDa1FxRpiLpYbuzuTTh-Qg", "score": 20}, "geometry": {"type": "Point", "coordinates": [8.2863906, 47.5947534]}}, {"type": "Feature", "properties": {"name": "HD_555JsMkAYCeVT7HqhfQ", "score": 15}, "geometry": {"type": "Point", "coordinates": [8.2863475, 47.5946996]}}, {"type": "Feature", "properties": {"name": "ZFKtCKocItGXoPwuuC1Pvg", "score": 44}, "geometry": {"type": "Point", "coordinates": [8.2862798, 47.5946255]}}, {"type": "Feature", "properties": {"name": "cMhv1Hna_eC_HGqAqKDhlw", "score": 20}, "geometry": {"type": "Point", "coordinates": [8.2862282, 47.5945706]}}, {"type": "Feature", "properties": {"name": "JHihFATCqExEgdpQgGI_XQ", "score": 6}, "geometry": {"type": "Point", "coordinates": [8.2861868, 47.5944998]}}, {"type": "Feature", "properties": {"name": "zX4sNia8HPbhW6IqEiUK6A", "score": 10}, "geometry": {"type": "Point", "coordinates": [8.2861631, 47.5944223]}}, {"type": "Feature", "properties": {"name": "fRjq6YgSFBdV-aJq-5PJCQ", "score": 15}, "geometry": {"type": "Point", "coordinates": [8.2861559, 47.5943463]}}, {"type": "Feature", "properties": {"name": "fAUwvAV4CTh7dYwkyNgNaA", "score": 32}, "geometry": {"type": "Point", "coordinates": [8.2861584, 47.594307]}}, {"type": "Feature", "properties": {"name": "xxtbfoOXT9kmW8gAHZGfSA", "score": 34}, "geometry": {"type": "Point", "coordinates": [8.2862066, 47.5941909]}}, {"type": "Feature", "properties": {"name": "6jvbf9mK3ChMZ-1cpdsvdQ", "score": 6}, "geometry": {"type": "Point", "coordinates": [8.2862639, 47.5941175]}}, {"type": "Feature", "properties": {"name": "GLdM2_sSc-5Y_0kbk2dvrQ", "score": 11}, "geometry": {"type": "Point", "coordinates": [8.286329, 47.5940464]}}, {"type": "Feature", "properties": {"name": "J_KQDCcOn0_hsqCFOM6kgQ", "score": 12}, "geometry": {"type": "Point", "coordinates": [8.286403, 47.5939885]}}, {"type": "Feature", "properties": {"name": "t_jCQ9y2MquPHVQSi7H8DA", "score": 9}, "geometry": {"type": "Point", "coordinates": [8.2864872, 47.5939404]}}, {"type": "Feature", "properties": {"name": "VHFdyjagqvmLFhrru7SyAA", "score": 23}, "geometry": {"type": "Point", "coordinates": [8.2865741, 47.5938999]}}, {"type": "Feature", "properties": {"name": "b_kVkBtChaiWu-mkLGrUiQ", "score": 14}, "geometry": {"type": "Point", "coordinates": [8.2866716, 47.5938536]}}, {"type": "Feature", "properties": {"name": "dJ9iAoXBVzoJvvzWlCs94w", "score": 14}, "geometry": {"type": "Point", "coordinates": [8.2867674, 47.5938079]}}, {"type": "Feature", "properties": {"name": "0sTw4tTV1xeVlPMKUsIeyg", "score": 12}, "geometry": {"type": "Point", "coordinates": [8.2868655, 47.5937582]}}, {"type": "Feature", "properties": {"name": "abCpvjNFailTcNAkFnPs3g", "score": 11}, "geometry": {"type": "Point", "coordinates": [8.2869655, 47.5937019]}}, {"type": "Feature", "properties": {"name": "gkzDI7PUKX1iE780alqSuQ", "score": 12}, "geometry": {"type": "Point", "coordinates": [8.2870595, 47.5936528]}}, {"type": "Feature", "properties": {"name": "YhQstWia-Kirlr5qf0q0Og", "score": 12}, "geometry": {"type": "Point", "coordinates": [8.2871593, 47.5936003]}}, {"type": "Feature", "properties": {"name": "Ln_wsbX_3hMQn9UsMpUD9Q", "score": 19}, "geometry": {"type": "Point", "coordinates": [8.2872574, 47.5935521]}}, {"type": "Feature", "properties": {"name": "n_bGiOKsnc_qcFJHdoDT4w", "score": 10}, "geometry": {"type": "Point", "coordinates": [8.2873759, 47.5935055]}}, {"type": "Feature", "properties": {"name": "13Z6BOss9hbJt6ub30k9Aw", "score": 14}, "geometry": {"type": "Point", "coordinates": [8.2874778, 47.5934561]}}, {"type": "Feature", "properties": {"name": "_NunKK7rItIzPVXlx1p7rQ", "score": 15}, "geometry": {"type": "Point", "coordinates": [8.2875806, 47.593365]}}, {"type": "Feature", "properties": {"name": "q-DsrgA0UoUBBESsNxrG9Q", "score": 12}, "geometry": {"type": "Point", "coordinates": [8.2876953, 47.5933154]}}, {"type": "Feature", "properties": {"name": "1vuXuuhtNy95WC4U5TECeA", "score": 21}, "geometry": {"type": "Point", "coordinates": [8.2878388, 47.5931994]}}, {"type": "Feature", "properties": {"name": "0Zo3kLOUpSmWTh8Alsd1Pg", "score": 24}, "geometry": {"type": "Point", "coordinates": [8.2879491, 47.5931638]}}, {"type": "Feature", "properties": {"name": "kulkTkS97t7wvM8CZd94uQ", "score": 21}, "geometry": {"type": "Point", "coordinates": [8.2880704, 47.5930944]}}, {"type": "Feature", "properties": {"name": "uzHZNru3OhCqand1lWGfSQ", "score": 10}, "geometry": {"type": "Point", "coordinates": [8.2881791, 47.5930412]}}, {"type": "Feature", "properties": {"name": "TQgplRx90r9XB0yTd2hPGg", "score": 15}, "geometry": {"type": "Point", "coordinates": [8.2884665, 47.5928464]}}, {"type": "Feature", "properties": {"name": "NIHK8LbYQwpiIEFIn-aROA", "score": 29}, "geometry": {"type": "Point", "coordinates": [8.2885395, 47.5928048]}}, {"type": "Feature", "properties": {"name": "SHCdVZo9MH2Tp-u1UBFu2w", "score": 24}, "geometry": {"type": "Point", "coordinates": [8.2886162, 47.5927409]}}, {"type": "Feature", "properties": {"name": "lBvu8HFnFEsIvepdQH8Dtg", "score": 16}, "geometry": {"type": "Point", "coordinates": [8.2886986, 47.5926957]}}, {"type": "Feature", "properties": {"name": "qPZ7DGbSlMe59kom9aS1lg", "score": 12}, "geometry": {"type": "Point", "coordinates": [8.2887851, 47.5926535]}}, {"type": "Feature", "properties": {"name": "m9ssHiKjhFolgWEmsY7ouw", "score": 20}, "geometry": {"type": "Point", "coordinates": [8.2888789, 47.5926114]}}, {"type": "Feature", "properties": {"name": "jeoDvyZOTWfs4GF-u6xjyQ", "score": 32}, "geometry": {"type": "Point", "coordinates": [8.2889721, 47.59257]}}, {"type": "Feature", "properties": {"name": "kj0XEkd9uIJIwI8mWFcJcA", "score": 19}, "geometry": {"type": "Point", "coordinates": [8.2890613, 47.5925216]}}, {"type": "Feature", "properties": {"name": "HnvHU1b7UoKal3dr3Wa9Fw", "score": 11}, "geometry": {"type": "Point", "coordinates": [8.2891557, 47.5924683]}}, {"type": "Feature", "properties": {"name": "gSaYt6i09XW6fkzp2a9ykg", "score": 24}, "geometry": {"type": "Point", "coordinates": [8.2892418, 47.5924173]}}, {"type": "Feature", "properties": {"name": "GsefSfvq1IUF7dVDMinayA", "score": 16}, "geometry": {"type": "Point", "coordinates": [8.289316, 47.5923685]}}, {"type": "Feature", "properties": {"name": "GIYSj1vhBfst2jB-1P4TWA", "score": 9}, "geometry": {"type": "Point", "coordinates": [8.2893896, 47.5923207]}}, {"type": "Feature", "properties": {"name": "4ST0Ki2EHY_jHhwNNNwzIg", "score": 12}, "geometry": {"type": "Point", "coordinates": [8.2894504, 47.5922795]}}, {"type": "Feature", "properties": {"name": "0xQD_3BUhHYUkBKWyf-_Kw", "score": 14}, "geometry": {"type": "Point", "coordinates": [8.2898257, 47.5916311]}}, {"type": "Feature", "properties": {"name": "FZ6eXRr2rQQrhnjxLbVeNA", "score": 10}, "geometry": {"type": "Point", "coordinates": [8.2898507, 47.5915821]}}, {"type": "Feature", "properties": {"name": "HkXZQkqUvwRxqQnUtJLV8Q", "score": 14}, "geometry": {"type": "Point", "coordinates": [8.2898689, 47.5915302]}}, {"type": "Feature", "properties": {"name": "IcxfFG1cLS-kcYLXyz-zpw", "score": 14}, "geometry": {"type": "Point", "coordinates": [8.2898828, 47.5914709]}}, {"type": "Feature", "properties": {"name": "hiTfqST5YB7HTokysXYm4Q", "score": 3}, "geometry": {"type": "Point", "coordinates": [8.2898982, 47.5914143]}}, {"type": "Feature", "properties": {"name": "eYgbWgcMsC6Nzr_FGR0Vlg", "score": 9}, "geometry": {"type": "Point", "coordinates": [8.2899228, 47.5913692]}}, {"type": "Feature", "properties": {"name": "kgmDkQDXGW1nMO0W-WpqDw", "score": 14}, "geometry": {"type": "Point", "coordinates": [8.2899518, 47.5913204]}}, {"type": "Feature", "properties": {"name": "zXw_BxW_-VkF4TooHGSYZQ", "score": 12}, "geometry": {"type": "Point", "coordinates": [8.2899796, 47.5912782]}}, {"type": "Feature", "properties": {"name": "mRa0iW-ITeEDoP7IiPHy0w", "score": 2}, "geometry": {"type": "Point", "coordinates": [8.290013, 47.5912469]}}, {"type": "Feature", "properties": {"name": "q3O7XNrcoRA17FXAHDrJuA", "score": 12}, "geometry": {"type": "Point", "coordinates": [8.290046, 47.5912219]}}, {"type": "Feature", "properties": {"name": "tKW-WsZbDCR3-0ySItLvNg", "score": 10}, "geometry": {"type": "Point", "coordinates": [8.2900786, 47.5911814]}}, {"type": "Feature", "properties": {"name": "JyHjFV-lAwdXdOZb-UOJTQ", "score": 9}, "geometry": {"type": "Point", "coordinates": [8.2901135, 47.5911262]}}, {"type": "Feature", "properties": {"name": "Z3PlrGSvLeKBLNzlaUk75g", "score": 31}, "geometry": {"type": "Point", "coordinates": [8.2901436, 47.591076]}}, {"type": "Feature", "properties": {"name": "_HY0NANBEN9zXzY3ljZFpg", "score": 36}, "geometry": {"type": "Point", "coordinates": [8.2901779, 47.591024]}}, {"type": "Feature", "properties": {"name": "rMv30jjbUciFVgQj046FwA", "score": 33}, "geometry": {"type": "Point", "coordinates": [8.2903251, 47.5908354]}}, {"type": "Feature", "properties": {"name": "EuH_7g6mVdLp4nKcRJl0ng", "score": 33}, "geometry": {"type": "Point", "coordinates": [8.2903784, 47.5907878]}}, {"type": "Feature", "properties": {"name": "JtGfsK58cnuUuPm8q5wGpA", "score": 23}, "geometry": {"type": "Point", "coordinates": [8.2904413, 47.5907286]}}, {"type": "Feature", "properties": {"name": "meHE2yEDH8kMd2kkp_zhWQ", "score": 16}, "geometry": {"type": "Point", "coordinates": [8.2905082, 47.5906835]}}, {"type": "Feature", "properties": {"name": "ckBabBCFh-KKwHSr-_0yVA", "score": 15}, "geometry": {"type": "Point", "coordinates": [8.2905868, 47.5906425]}}, {"type": "Feature", "properties": {"name": "gr1R-QIN2c5IuJaNiz1E4w", "score": 22}, "geometry": {"type": "Point", "coordinates": [8.2906634, 47.5905964]}}, {"type": "Feature", "properties": {"name": "7nISgOopn0X7JSiT0rrYVw", "score": 20}, "geometry": {"type": "Point", "coordinates": [8.2907334, 47.5905504]}}, {"type": "Feature", "properties": {"name": "qTJmCeeFpdO5IOfH2kxq4Q", "score": 15}, "geometry": {"type": "Point", "coordinates": [8.2908127, 47.5904983]}}, {"type": "Feature", "properties": {"name": "kuUwrd7suRoHJ_q8OL1H7Q", "score": 29}, "geometry": {"type": "Point", "coordinates": [8.2908861, 47.5904404]}}, {"type": "Feature", "properties": {"name": "lQ05WxZCYBwOhUDUuXSh6A", "score": 25}, "geometry": {"type": "Point", "coordinates": [8.290953, 47.5903854]}}, {"type": "Feature", "properties": {"name": "305eBOKhUOHf6mp67fUJNQ", "score": 24}, "geometry": {"type": "Point", "coordinates": [8.2910237, 47.5903325]}}, {"type": "Feature", "properties": {"name": "lXirHDlh8tpD5Zac5_-oQA", "score": 13}, "geometry": {"type": "Point", "coordinates": [8.2910827, 47.5902856]}}, {"type": "Feature", "properties": {"name": "3RV7aAc7r_pl0fxhCBOT6A", "score": 14}, "geometry": {"type": "Point", "coordinates": [8.2911474, 47.5902284]}}, {"type": "Feature", "properties": {"name": "bNnw1vruWm9ElirPvr8M8A", "score": 15}, "geometry": {"type": "Point", "coordinates": [8.2912149, 47.5901541]}}, {"type": "Feature", "properties": {"name": "d01C7CA4m4XHCSIVJyQowA", "score": 15}, "geometry": {"type": "Point", "coordinates": [8.2912869, 47.5900777]}}, {"type": "Feature", "properties": {"name": "AFi9I3NLieOsw2H2sb3CGg", "score": 22}, "geometry": {"type": "Point", "coordinates": [8.2913583, 47.5900065]}}, {"type": "Feature", "properties": {"name": "VBUAVg8nOGMxjB5ovh1PkQ", "score": 31}, "geometry": {"type": "Point", "coordinates": [8.2914221, 47.5899446]}}, {"type": "Feature", "properties": {"name": "QMobDVqhUEgHbUKk1nYTww", "score": 32}, "geometry": {"type": "Point", "coordinates": [8.2914882, 47.589869]}}, {"type": "Feature", "properties": {"name": "GS6c5ol9RnJI3rnXYzr0WA", "score": 25}, "geometry": {"type": "Point", "coordinates": [8.2915047, 47.5898502]}}, {"type": "Feature", "properties": {"name": "ueJlgyl_6e-Ki_LLU3Y_Qg", "score": 26}, "geometry": {"type": "Point", "coordinates": [8.2915126, 47.5898375]}}, {"type": "Feature", "properties": {"name": "0C1LtScg3IfEOPkFgGDSqw", "score": 18}, "geometry": {"type": "Point", "coordinates": [8.2915296, 47.5898013]}}, {"type": "Feature", "properties": {"name": "vEhLJlixCS6PwVjeVu3DGA", "score": 36}, "geometry": {"type": "Point", "coordinates": [8.2915773, 47.5897698]}}, {"type": "Feature", "properties": {"name": "PI39lIFGqcZwe-FxxwgIlg", "score": 11}, "geometry": {"type": "Point", "coordinates": [8.291655, 47.5897184]}}, {"type": "Feature", "properties": {"name": "FqtbhBnFN-jZBc_HfA5D4g", "score": 23}, "geometry": {"type": "Point", "coordinates": [8.291725, 47.5896622]}}, {"type": "Feature", "properties": {"name": "YzsZR83TAm7fDDib-g8_Dg", "score": 31}, "geometry": {"type": "Point", "coordinates": [8.2917945, 47.5896068]}}, {"type": "Feature", "properties": {"name": "4ujIC-4yi5EdQh-DuKe-wQ", "score": 16}, "geometry": {"type": "Point", "coordinates": [8.2918668, 47.5895529]}}, {"type": "Feature", "properties": {"name": "MVgAF3qkYccY8jF2lk4abg", "score": 13}, "geometry": {"type": "Point", "coordinates": [8.2919323, 47.589501]}}, {"type": "Feature", "properties": {"name": "OWrKqD0QI9QmpMEVs_AwbA", "score": 16}, "geometry": {"type": "Point", "coordinates": [8.292007, 47.5894334]}}, {"type": "Feature", "properties": {"name": "n4W5BfMJE3Y1L3wU_qaAIw", "score": 14}, "geometry": {"type": "Point", "coordinates": [8.2920825, 47.5893624]}}, {"type": "Feature", "properties": {"name": "WUckhELZ9JQlF_YB50tXzg", "score": 14}, "geometry": {"type": "Point", "coordinates": [8.2921597, 47.5893064]}}, {"type": "Feature", "properties": {"name": "8hyXxjNY4HwmxhaOJiw8QQ", "score": 10}, "geometry": {"type": "Point", "coordinates": [8.2922391, 47.5892528]}}, {"type": "Feature", "properties": {"name": "qOGS46JXuFTobUl5eed2BA", "score": 31}, "geometry": {"type": "Point", "coordinates": [8.2923187, 47.5892]}}, {"type": "Feature", "properties": {"name": "cClocV4VwPdqPp0ZRkBvfg", "score": 15}, "geometry": {"type": "Point", "coordinates": [8.2923983, 47.5891472]}}, {"type": "Feature", "properties": {"name": "IWZDhypiJzhYXWUFjizuFQ", "score": 22}, "geometry": {"type": "Point", "coordinates": [8.2924779, 47.5890944]}}, {"type": "Feature", "properties": {"name": "f39U7Xquhc_9ta4AJNAWng", "score": 3}, "geometry": {"type": "Point", "coordinates": [8.2925575, 47.5890416]}}, {"type": "Feature", "properties": {"name": "Ll_mQmy2hxQbvdbS7dl5PQ", "score": 7}, "geometry": {"type": "Point", "coordinates": [8.2926784, 47.5889628]}}, {"type": "Feature", "properties": {"name": "GYUvsiC77jfrN7fEXiAFLg", "score": 12}, "geometry": {"type": "Point", "coordinates": [8.2927616, 47.5889124]}}, {"type": "Feature", "properties": {"name": "P9xmkZzHeu5dUWrxkwTgbA", "score": 21}, "geometry": {"type": "Point", "coordinates": [8.2929118, 47.5888459]}}, {"type": "Feature", "properties": {"name": "NUyx8WYMOWachGf7qK5Ryw", "score": 34}, "geometry": {"type": "Point", "coordinates": [8.2929619, 47.5888089]}}, {"type": "Feature", "properties": {"name": "1MEgctzPJu-BNcj6E1ofhg", "score": 29}, "geometry": {"type": "Point", "coordinates": [8.2930696, 47.5887592]}}, {"type": "Feature", "properties": {"name": "hlLzZW9Ad94JZIRRDo3Oug", "score": 28}, "geometry": {"type": "Point", "coordinates": [8.2931843, 47.5887065]}}, {"type": "Feature", "properties": {"name": "M152ByCbEF_l6PL7u8Mugg", "score": 8}, "geometry": {"type": "Point", "coordinates": [8.2932812, 47.5886513]}}, {"type": "Feature", "properties": {"name": "1PZU3SuS6kfxt8WxHD4bbw", "score": 36}, "geometry": {"type": "Point", "coordinates": [8.2933809, 47.588603]}}, {"type": "Feature", "properties": {"name": "4XNSANdlbB3eL73HH1GPyQ", "score": 31}, "geometry": {"type": "Point", "coordinates": [8.2934537, 47.5885539]}}, {"type": "Feature", "properties": {"name": "CG8sgOYMoCUjTrpAN7vt3g", "score": 18}, "geometry": {"type": "Point", "coordinates": [8.2935291, 47.5884963]}}, {"type": "Feature", "properties": {"name": "HN9aMTopYoGB3rAx6UoHDw", "score": 15}, "geometry": {"type": "Point", "coordinates": [8.2935624, 47.5884439]}}, {"type": "Feature", "properties": {"name": "3QJSIG9z9Kn89HEtJ2BdbQ", "score": 38}, "geometry": {"type": "Point", "coordinates": [8.2935519, 47.5883866]}}, {"type": "Feature", "properties": {"name": "DS2mw0LZIdxGEoH_KUlwOg", "score": 22}, "geometry": {"type": "Point", "coordinates": [8.2935414, 47.5883293]}}, {"type": "Feature", "properties": {"name": "uDWnI8527n1FF2UQ1rq58A", "score": 24}, "geometry": {"type": "Point", "coordinates": [8.2935309, 47.588272]}}, {"type": "Feature", "properties": {"name": "Lw_jNZVApDvGXt630oc8rQ", "score": 24}, "geometry": {"type": "Point", "coordinates": [8.2935204, 47.5882147]}}, {"type": "Feature", "properties": {"name": "pz4dCAaEGo5iCg6VJKi0pA", "score": 35}, "geometry": {"type": "Point", "coordinates": [8.2934636, 47.5881041]}}, {"type": "Feature", "properties": {"name": "zuT_8VdezflbMju2PL_b3Q", "score": 33}, "geometry": {"type": "Point", "coordinates": [8.293421, 47.5880332]}}, {"type": "Feature", "properties": {"name": "XibzW02MymWyj3zMKmzt5g", "score": 23}, "geometry": {"type": "Point", "coordinates": [8.2933775, 47.5879526]}}, {"type": "Feature", "properties": {"name": "2Z3aalnep4TfKjLHWOJAXQ", "score": 22}, "geometry": {"type": "Point", "coordinates": [8.2933388, 47.5878924]}}, {"type": "Feature", "properties": {"name": "r7XsLq8ZeEVLYsi9tUZW3g", "score": 39}, "geometry": {"type": "Point", "coordinates": [8.2933009, 47.5878343]}}, {"type": "Feature", "properties": {"name": "9MzZ8W8LKuFjaChB5IiiHQ", "score": 40}, "geometry": {"type": "Point", "coordinates": [8.2932649, 47.5877754]}}, {"type": "Feature", "properties": {"name": "1D3cGNI1ZZf4ODCt7yIijQ", "score": 26}, "geometry": {"type": "Point", "coordinates": [8.2932481, 47.5877313]}}, {"type": "Feature", "properties": {"name": "pf6GRflCYdwr19OwoUb9KQ", "score": 8}, "geometry": {"type": "Point", "coordinates": [8.2933174, 47.5876646]}}, {"type": "Feature", "properties": {"name": "fQa54s4nWYeO9bkgY4e4Bg", "score": 27}, "geometry": {"type": "Point", "coordinates": [8.2934482, 47.5876126]}}, {"type": "Feature", "properties": {"name": "HJAH363WVYYrEuZyK1CpfQ", "score": 18}, "geometry": {"type": "Point", "coordinates": [8.2935837, 47.5875691]}}, {"type": "Feature", "properties": {"name": "-S37NAG_uD8ws9RFm1rkJw", "score": 30}, "geometry": {"type": "Point", "coordinates": [8.2937298, 47.5875257]}}, {"type": "Feature", "properties": {"name": "zlNayY-wdBAw8bxjYu2GUg", "score": 35}, "geometry": {"type": "Point", "coordinates": [8.2938462, 47.5874707]}}, {"type": "Feature", "properties": {"name": "QuLH01qJHJwB77DrfOwo_Q", "score": 22}, "geometry": {"type": "Point", "coordinates": [8.2939648, 47.5874159]}}, {"type": "Feature", "properties": {"name": "Y9l11zyQZwL1dg96nx8b4w", "score": 40}, "geometry": {"type": "Point", "coordinates": [8.2940719, 47.5873555]}}, {"type": "Feature", "properties": {"name": "ojva8fQw8hVDeqi3DZt-Ag", "score": 22}, "geometry": {"type": "Point", "coordinates": [8.2941583, 47.5872858]}}, {"type": "Feature", "properties": {"name": "GUVyMuPfiS2xbpVx039pLA", "score": 11}, "geometry": {"type": "Point", "coordinates": [8.2942546, 47.5872291]}}, {"type": "Feature", "properties": {"name": "QqInWfXn281e1SZI4Q4r6w", "score": 22}, "geometry": {"type": "Point", "coordinates": [8.2943527, 47.5871685]}}, {"type": "Feature", "properties": {"name": "2178SAvUXcE_C4eNc_i8hA", "score": 18}, "geometry": {"type": "Point", "coordinates": [8.2944632, 47.5871146]}}, {"type": "Feature", "properties": {"name": "zQp9Kd8PWgJc_VLLAQMbVQ", "score": 31}, "geometry": {"type": "Point", "coordinates": [8.2945533, 47.5870623]}}, {"type": "Feature", "properties": {"name": "oTm1Vp93H_HHVqw0l5XIlg", "score": 40}, "geometry": {"type": "Point", "coordinates": [8.294636, 47.5869979]}}, {"type": "Feature", "properties": {"name": "KH8f07A_dAehB6sYg1fLew", "score": 29}, "geometry": {"type": "Point", "coordinates": [8.2947209, 47.586946]}}, {"type": "Feature", "properties": {"name": "SFQyvGui47CO4qdIj1UZMg", "score": 5}, "geometry": {"type": "Point", "coordinates": [8.2947973, 47.5868941]}}, {"type": "Feature", "properties": {"name": "2AZ6bcrpW-poM71QoEqH0w", "score": 13}, "geometry": {"type": "Point", "coordinates": [8.2948852, 47.5868271]}}, {"type": "Feature", "properties": {"name": "6fWuD6ZPBuFjbgNFxnMsNg", "score": 21}, "geometry": {"type": "Point", "coordinates": [8.2949688, 47.586767]}}, {"type": "Feature", "properties": {"name": "Hctwc6RtOgSTycpRBuEy3A", "score": 17}, "geometry": {"type": "Point", "coordinates": [8.2950511, 47.5867074]}}, {"type": "Feature", "properties": {"name": "cPJfcXPeah4UKAxpHoMjcw", "score": 20}, "geometry": {"type": "Point", "coordinates": [8.2951314, 47.5866538]}}, {"type": "Feature", "properties": {"name": "6NEzaynLpWcg7cMnT-fGMg", "score": 23}, "geometry": {"type": "Point", "coordinates": [8.2952108, 47.5866043]}}, {"type": "Feature", "properties": {"name": "4G1qclSK7UoyqkEpI26E-g", "score": 30}, "geometry": {"type": "Point", "coordinates": [8.2953075, 47.5865509]}}, {"type": "Feature", "properties": {"name": "D16SFajFOOvpXueQeL4W6Q", "score": 14}, "geometry": {"type": "Point", "coordinates": [8.2953935, 47.5865076]}}, {"type": "Feature", "properties": {"name": "qUVIDf_hwZuS4eB3eFWy1A", "score": 18}, "geometry": {"type": "Point", "coordinates": [8.2954932, 47.586481]}}, {"type": "Feature", "properties": {"name": "USO0v-87MWlNXg_6F4ht8A", "score": 41}, "geometry": {"type": "Point", "coordinates": [8.295566, 47.5864512]}}, {"type": "Feature", "properties": {"name": "xElDDFupAG2o5UCjBsntpg", "score": 19}, "geometry": {"type": "Point", "coordinates": [8.2956767, 47.5864022]}}, {"type": "Feature", "properties": {"name": "OW539wvGagOG23rNx_hTVA", "score": 8}, "geometry": {"type": "Point", "coordinates": [8.2957713, 47.5863643]}}, {"type": "Feature", "properties": {"name": "FNEN_YYrKYWNZmyevddZGg", "score": 21}, "geometry": {"type": "Point", "coordinates": [8.2958658, 47.5863265]}}, {"type": "Feature", "properties": {"name": "9aj8njupbmNv1EbCOfhqPA", "score": 6}, "geometry": {"type": "Point", "coordinates": [8.2959604, 47.5862886]}}, {"type": "Feature", "properties": {"name": "EZFDucLQD4xLGHTnkeePnA", "score": 10}, "geometry": {"type": "Point", "coordinates": [8.2960549, 47.5862508]}}, {"type": "Feature", "properties": {"name": "YnYPJvOOIllQJa0sSjlprA", "score": 22}, "geometry": {"type": "Point", "coordinates": [8.2961977, 47.5861962]}}, {"type": "Feature", "properties": {"name": "f0Al44WC3U76Y_j3-vhKJg", "score": 31}, "geometry": {"type": "Point", "coordinates": [8.2963056, 47.5861511]}}, {"type": "Feature", "properties": {"name": "xJf_QmuK23cgBa1wTLQXiQ", "score": 0}, "geometry": {"type": "Point", "coordinates": [8.2964175, 47.586104]}}, {"type": "Feature", "properties": {"name": "D-LPLRNiiouvzQXejeYUNw", "score": 39}, "geometry": {"type": "Point", "coordinates": [8.29653, 47.586058]}}, {"type": "Feature", "properties": {"name": "-1nPlSpDFLhT2FoxDwJ9_A", "score": 41}, "geometry": {"type": "Point", "coordinates": [8.2966417, 47.5860148]}}, {"type": "Feature", "properties": {"name": "WACV44XvpdbaJJsOy6nVJw", "score": 15}, "geometry": {"type": "Point", "coordinates": [8.296746, 47.5859779]}}, {"type": "Feature", "properties": {"name": "p-ZqiUE5u8G8umrZvOCf1A", "score": 14}, "geometry": {"type": "Point", "coordinates": [8.2968706, 47.5859319]}}, {"type": "Feature", "properties": {"name": "G60XAn8kQ8L9QI0iWfNw1g", "score": 12}, "geometry": {"type": "Point", "coordinates": [8.2969855, 47.5858913]}}, {"type": "Feature", "properties": {"name": "KBdF931vvaVEEZFalBss3A", "score": 14}, "geometry": {"type": "Point", "coordinates": [8.2970994, 47.5858518]}}, {"type": "Feature", "properties": {"name": "p0QbRqzMtnrEW87POHnkDQ", "score": 27}, "geometry": {"type": "Point", "coordinates": [8.2972092, 47.5858135]}}, {"type": "Feature", "properties": {"name": "MzzTXD8zRetqjyvNm6GFtg", "score": 29}, "geometry": {"type": "Point", "coordinates": [8.2972662, 47.5857964]}}, {"type": "Feature", "properties": {"name": "a-4YMkIM2Pd_iEUSHSSafQ", "score": 23}, "geometry": {"type": "Point", "coordinates": [8.2973188, 47.585781]}}, {"type": "Feature", "properties": {"name": "65jPfrWOJaAobHDmnHWmTg", "score": 34}, "geometry": {"type": "Point", "coordinates": [8.2973713, 47.5857656]}}, {"type": "Feature", "properties": {"name": "mexXYl6857UdSPkkACpmNA", "score": 9}, "geometry": {"type": "Point", "coordinates": [8.2974239, 47.5857501]}}, {"type": "Feature", "properties": {"name": "Yd9ho4kiBpa4K7SqJV7tnA", "score": 15}, "geometry": {"type": "Point", "coordinates": [8.2974764, 47.5857347]}}, {"type": "Feature", "properties": {"name": "eW4LIvYoC2lW-NEd6zgASg", "score": 36}, "geometry": {"type": "Point", "coordinates": [8.297529, 47.5857193]}}, {"type": "Feature", "properties": {"name": "9sUz1hAuFlxGGViiQpsYGg", "score": 18}, "geometry": {"type": "Point", "coordinates": [8.2975816, 47.5857039]}}, {"type": "Feature", "properties": {"name": "BfjsPPr_r7k1KO1tOOFGAw", "score": 16}, "geometry": {"type": "Point", "coordinates": [8.2976341, 47.5856884]}}, {"type": "Feature", "properties": {"name": "BcugY_uAF4-vebjpyE5f2w", "score": 15}, "geometry": {"type": "Point", "coordinates": [8.2976867, 47.585673]}}, {"type": "Feature", "properties": {"name": "V8YCtWNq6FsDM7JmqzK0pw", "score": 21}, "geometry": {"type": "Point", "coordinates": [8.2977393, 47.5856576]}}, {"type": "Feature", "properties": {"name": "mr1Nl8-wfU_-bh6O-tu9yw", "score": 32}, "geometry": {"type": "Point", "coordinates": [8.2977918, 47.5856422]}}, {"type": "Feature", "properties": {"name": "SUi7klvCiwK9BXG_dl82wQ", "score": 40}, "geometry": {"type": "Point", "coordinates": [8.2978444, 47.5856267]}}, {"type": "Feature", "properties": {"name": "a8b-2-YeJ2j3vP8ybiVlkg", "score": 13}, "geometry": {"type": "Point", "coordinates": [8.297897, 47.5856113]}}, {"type": "Feature", "properties": {"name": "V7LKp52OlK2BPctAStMj4g", "score": 28}, "geometry": {"type": "Point", "coordinates": [8.2979495, 47.5855959]}}, {"type": "Feature", "properties": {"name": "DxAXhCE9a9c9gFUK5fy2nA", "score": 36}, "geometry": {"type": "Point", "coordinates": [8.2980021, 47.5855805]}}, {"type": "Feature", "properties": {"name": "OOz4DQFPdqFgapuYsB19zA", "score": 23}, "geometry": {"type": "Point", "coordinates": [8.2985657, 47.5854401]}}, {"type": "Feature", "properties": {"name": "zSHRiz26DTtzCi88WzDiyA", "score": 25}, "geometry": {"type": "Point", "coordinates": [8.2987122, 47.5854862]}}, {"type": "Feature", "properties": {"name": "ItgL0FTDJh_rPeVOl16yJw", "score": 33}, "geometry": {"type": "Point", "coordinates": [8.298747, 47.5855099]}}, {"type": "Feature", "properties": {"name": "mA6_Mn4v1BwlOdp2LCbISw", "score": 34}, "geometry": {"type": "Point", "coordinates": [8.2987837, 47.5855363]}}, {"type": "Feature", "properties": {"name": "m64iEdARDJs4jeqhxpo2EQ", "score": 16}, "geometry": {"type": "Point", "coordinates": [8.2988198, 47.5855636]}}, {"type": "Feature", "properties": {"name": "Sn9TOjhR5mKrj4NYxZ0r1Q", "score": 31}, "geometry": {"type": "Point", "coordinates": [8.2988398, 47.5855768]}}, {"type": "Feature", "properties": {"name": "MExqDgbXkaqpjGVbfKajXA", "score": 37}, "geometry": {"type": "Point", "coordinates": [8.2989035, 47.5856145]}}, {"type": "Feature", "properties": {"name": "A0fygEMSXjpYHeD_UOX2Kg", "score": 36}, "geometry": {"type": "Point", "coordinates": [8.2989387, 47.5856407]}}, {"type": "Feature", "properties": {"name": "fRmSH12Ykc4L2qz_A3WKuQ", "score": 10}, "geometry": {"type": "Point", "coordinates": [8.2989584, 47.5856626]}}, {"type": "Feature", "properties": {"name": "x0ckQ60IbxNTpDPDvvy_qA", "score": 27}, "geometry": {"type": "Point", "coordinates": [8.2989967, 47.5856782]}}, {"type": "Feature", "properties": {"name": "Vg2Wi4yll73Z2_nk0tbQQQ", "score": 13}, "geometry": {"type": "Point", "coordinates": [8.298997, 47.5856746]}}, {"type": "Feature", "properties": {"name": "hyVuHs_uiVhgHWebMJ87ug", "score": 8}, "geometry": {"type": "Point", "coordinates": [8.2990303, 47.5856523]}}, {"type": "Feature", "properties": {"name": "jZq-WnG-memOIzY9euzf0w", "score": 17}, "geometry": {"type": "Point", "coordinates": [8.2990753, 47.5856243]}}, {"type": "Feature", "properties": {"name": "VQjZiQi_VAd1lVnw5BsNnw", "score": 6}, "geometry": {"type": "Point", "coordinates": [8.2991096, 47.5856027]}}, {"type": "Feature", "properties": {"name": "fU_9mbWi1Nq11WjNDSOKdw", "score": 14}, "geometry": {"type": "Point", "coordinates": [8.2991449, 47.5855819]}}, {"type": "Feature", "properties": {"name": "bW6etjSzSmTF6l-qUOPQmg", "score": 43}, "geometry": {"type": "Point", "coordinates": [8.2991857, 47.5855758]}}, {"type": "Feature", "properties": {"name": "vJ8lmBTijNNorIFORl9uoQ", "score": 35}, "geometry": {"type": "Point", "coordinates": [8.2992401, 47.5855873]}}, {"type": "Feature", "properties": {"name": "itYzX_fhqzjC-00xqj78Ew", "score": 35}, "geometry": {"type": "Point", "coordinates": [8.2992962, 47.5856142]}}, {"type": "Feature", "properties": {"name": "cR3cPaSqvdHQzF50AX8WOg", "score": 30}, "geometry": {"type": "Point", "coordinates": [8.2993469, 47.5856443]}}, {"type": "Feature", "properties": {"name": "u9nNGuNj_R18xhdhZWKFSg", "score": 19}, "geometry": {"type": "Point", "coordinates": [8.2994056, 47.5856637]}}, {"type": "Feature", "properties": {"name": "GIMHjJOdwxFFhQcp6HrZoQ", "score": 36}, "geometry": {"type": "Point", "coordinates": [8.2994619, 47.5856786]}}, {"type": "Feature", "properties": {"name": "BdexEK7vyfyFuTnPbNTSxQ", "score": 35}, "geometry": {"type": "Point", "coordinates": [8.299515, 47.5856967]}}, {"type": "Feature", "properties": {"name": "ns3oM1xxgSMCnIB8F4F7EQ", "score": 5}, "geometry": {"type": "Point", "coordinates": [8.2995642, 47.5857141]}}, {"type": "Feature", "properties": {"name": "0PXorgl4RzoWDT_xND8FEQ", "score": 16}, "geometry": {"type": "Point", "coordinates": [8.2996178, 47.5857418]}}, {"type": "Feature", "properties": {"name": "wbaLtG4-2OxWhI4o8TUQVA", "score": 23}, "geometry": {"type": "Point", "coordinates": [8.2996715, 47.5857844]}}, {"type": "Feature", "properties": {"name": "GSKs035dCYiTiQtqODzv_g", "score": 33}, "geometry": {"type": "Point", "coordinates": [8.2997163, 47.5858394]}}, {"type": "Feature", "properties": {"name": "GxyS6JKmudV_uv6irjT6CA", "score": 47}, "geometry": {"type": "Point", "coordinates": [8.2997599, 47.5858947]}}, {"type": "Feature", "properties": {"name": "sGLKRPOYa0skP-D8qqGKFg", "score": 29}, "geometry": {"type": "Point", "coordinates": [8.2998086, 47.585947]}}, {"type": "Feature", "properties": {"name": "RSvKd5FMKMh4Q18Y6ClK7g", "score": 25}, "geometry": {"type": "Point", "coordinates": [8.2998556, 47.5859996]}}, {"type": "Feature", "properties": {"name": "-5NrlNYc95qxTqBe3bO2TA", "score": 19}, "geometry": {"type": "Point", "coordinates": [8.2999019, 47.5860512]}}, {"type": "Feature", "properties": {"name": "Tgnu0PEG56aqQleSVgbS-A", "score": 29}, "geometry": {"type": "Point", "coordinates": [8.2999958, 47.5861143]}}, {"type": "Feature", "properties": {"name": "75YWJZz296-jfHe6O9Bruw", "score": 27}, "geometry": {"type": "Point", "coordinates": [8.3001339, 47.5861847]}}, {"type": "Feature", "properties": {"name": "BNK1nOw94JpSMRMxfpkk2w", "score": 34}, "geometry": {"type": "Point", "coordinates": [8.3002743, 47.5862247]}}, {"type": "Feature", "properties": {"name": "PatKE5CB5yci0xmhihlAPA", "score": 15}, "geometry": {"type": "Point", "coordinates": [8.3004187, 47.5861862]}}, {"type": "Feature", "properties": {"name": "z1wrpZhfXDJarP_gSBvlHQ", "score": 20}, "geometry": {"type": "Point", "coordinates": [8.3005342, 47.5861539]}}, {"type": "Feature", "properties": {"name": "Zeyy6vF22IhTWEr9mBh6aA", "score": 12}, "geometry": {"type": "Point", "coordinates": [8.3006176, 47.5861211]}}, {"type": "Feature", "properties": {"name": "OuAHx9T5_EDt8wYoSnrZsA", "score": 16}, "geometry": {"type": "Point", "coordinates": [8.3006828, 47.5860809]}}, {"type": "Feature", "properties": {"name": "Z5Nbq5i2UgBqoJUmiW5utQ", "score": 29}, "geometry": {"type": "Point", "coordinates": [8.3007329, 47.586067]}}, {"type": "Feature", "properties": {"name": "9710b-Lf-olfoSNhf8u5cw", "score": 31}, "geometry": {"type": "Point", "coordinates": [8.3008116, 47.5860384]}}, {"type": "Feature", "properties": {"name": "TertVHz1dY-tkdLVNKinhg", "score": 31}, "geometry": {"type": "Point", "coordinates": [8.3008743, 47.5859953]}}, {"type": "Feature", "properties": {"name": "lvmjsCfzaz8joCDZVepASQ", "score": 36}, "geometry": {"type": "Point", "coordinates": [8.300937, 47.5859522]}}, {"type": "Feature", "properties": {"name": "n9jkoC5vq42_yJsanqnYGQ", "score": 19}, "geometry": {"type": "Point", "coordinates": [8.3009997, 47.5859091]}}, {"type": "Feature", "properties": {"name": "QSRT9LSR14LCiu2SzZZcTA", "score": 7}, "geometry": {"type": "Point", "coordinates": [8.3010624, 47.585866]}}, {"type": "Feature", "properties": {"name": "NKUY-hSYw0zmu5LNRDTw1A", "score": 6}, "geometry": {"type": "Point", "coordinates": [8.3011251, 47.5858229]}}, {"type": "Feature", "properties": {"name": "6Uu982jjFVE1YSZIG7sVLw", "score": 32}, "geometry": {"type": "Point", "coordinates": [8.3011997, 47.585769]}}, {"type": "Feature", "properties": {"name": "uTopWrz7Myy9dKn1LhXcgQ", "score": 11}, "geometry": {"type": "Point", "coordinates": [8.3015072, 47.5853547]}}, {"type": "Feature", "properties": {"name": "lSJODwkdfCR-4li7RBPJ4A", "score": 13}, "geometry": {"type": "Point", "coordinates": [8.3015488, 47.58532]}}, {"type": "Feature", "properties": {"name": "fRDWJZnAcD3xq1ZVgKgUtQ", "score": 0}, "geometry": {"type": "Point", "coordinates": [8.3016133, 47.5853096]}}, {"type": "Feature", "properties": {"name": "o8PwHKw2IJVrnCw40xeAvA", "score": 19}, "geometry": {"type": "Point", "coordinates": [8.3017221, 47.585301]}}, {"type": "Feature", "properties": {"name": "vjIrgfnX0qD8oMryMLrWAQ", "score": 29}, "geometry": {"type": "Point", "coordinates": [8.3018578, 47.5852619]}}, {"type": "Feature", "properties": {"name": "j_XZrwNbZ1h0yFRJqGmKXg", "score": 20}, "geometry": {"type": "Point", "coordinates": [8.3019677, 47.5852106]}}, {"type": "Feature", "properties": {"name": "FY7c9itqhXptBBX_rxhg7Q", "score": 24}, "geometry": {"type": "Point", "coordinates": [8.3020901, 47.5851579]}}, {"type": "Feature", "properties": {"name": "abs4PHEZ-O9ObTm-cWXr6w", "score": 17}, "geometry": {"type": "Point", "coordinates": [8.3022031, 47.5850868]}}, {"type": "Feature", "properties": {"name": "CKRUNVlkPnzh0acog6WZhQ", "score": 19}, "geometry": {"type": "Point", "coordinates": [8.3022994, 47.5850131]}}, {"type": "Feature", "properties": {"name": "_nw8de1EeJQD9iT7-R5TTg", "score": 14}, "geometry": {"type": "Point", "coordinates": [8.3023905, 47.5849247]}}, {"type": "Feature", "properties": {"name": "vnntXGhSm5N4jmXaoX5Y-g", "score": 19}, "geometry": {"type": "Point", "coordinates": [8.3024834, 47.5848489]}}, {"type": "Feature", "properties": {"name": "NSqM7A2_aloC8wqiH7RScg", "score": 10}, "geometry": {"type": "Point", "coordinates": [8.3027046, 47.5846756]}}, {"type": "Feature", "properties": {"name": "HjuOQt36h1gXHJkEfjml5A", "score": 29}, "geometry": {"type": "Point", "coordinates": [8.3028011, 47.5845851]}}, {"type": "Feature", "properties": {"name": "0mtXpCDoCvWG0w7tlIx0Rw", "score": 16}, "geometry": {"type": "Point", "coordinates": [8.3029524, 47.5844667]}}, {"type": "Feature", "properties": {"name": "M7b5xu9K3Wkox2mi4GNmIQ", "score": 28}, "geometry": {"type": "Point", "coordinates": [8.3030151, 47.5843856]}}, {"type": "Feature", "properties": {"name": "gz3Wu0855Z0CzDGyBbgzxg", "score": 13}, "geometry": {"type": "Point", "coordinates": [8.3031264, 47.5842964]}}, {"type": "Feature", "properties": {"name": "dgFnvw7JYWr4Skq9dd0w0A", "score": 6}, "geometry": {"type": "Point", "coordinates": [8.3032513, 47.5842038]}}, {"type": "Feature", "properties": {"name": "j5n5_eB53tvlK4UEirTm4A", "score": 17}, "geometry": {"type": "Point", "coordinates": [8.3033761, 47.5841112]}}, {"type": "Feature", "properties": {"name": "G5xt-2RzBFLxY8W1is5Zwg", "score": 30}, "geometry": {"type": "Point", "coordinates": [8.3035009, 47.5840187]}}, {"type": "Feature", "properties": {"name": "lJkaz42Q1Gpu5d0osIohvA", "score": 14}, "geometry": {"type": "Point", "coordinates": [8.303673, 47.5838688]}}, {"type": "Feature", "properties": {"name": "n8dXOiP-9zypF2KKSaoQqA", "score": 19}, "geometry": {"type": "Point", "coordinates": [8.30392, 47.583709]}}, {"type": "Feature", "properties": {"name": "AKIq1VBsCDAKhbDk_dbxdw", "score": 17}, "geometry": {"type": "Point", "coordinates": [8.3040315, 47.5836225]}}, {"type": "Feature", "properties": {"name": "Sc-7pps9h6xRe9ICFd9Lug", "score": 33}, "geometry": {"type": "Point", "coordinates": [8.304122, 47.5835271]}}, {"type": "Feature", "properties": {"name": "-admACa6PLSQkWeFvNHPYw", "score": 22}, "geometry": {"type": "Point", "coordinates": [8.3041791, 47.5834451]}}, {"type": "Feature", "properties": {"name": "4dTIQ0b1jBsGnQQbAlKLxA", "score": 33}, "geometry": {"type": "Point", "coordinates": [8.3043205, 47.5833398]}}, {"type": "Feature", "properties": {"name": "zvydjfta8Q8Z2DftgHjZOg", "score": 19}, "geometry": {"type": "Point", "coordinates": [8.3044738, 47.5832465]}}, {"type": "Feature", "properties": {"name": "GvRUJdlaP5EMt0cy09Nieg", "score": 19}, "geometry": {"type": "Point", "coordinates": [8.304585, 47.5831604]}}, {"type": "Feature", "properties": {"name": "uBzUAzMTnOv5VGMzB9S11w", "score": 20}, "geometry": {"type": "Point", "coordinates": [8.3047053, 47.5830761]}}, {"type": "Feature", "properties": {"name": "1ZYeppXpn6jYsmWBDbk8_A", "score": 43}, "geometry": {"type": "Point", "coordinates": [8.304826, 47.582992]}}, {"type": "Feature", "properties": {"name": "NOG-uSZ2fdBNjcE9dQzt5g", "score": 38}, "geometry": {"type": "Point", "coordinates": [8.3049468, 47.5829079]}}, {"type": "Feature", "properties": {"name": "kAIDCEpcmAzHuvY1sTAd7A", "score": 23}, "geometry": {"type": "Point", "coordinates": [8.3051437, 47.5827858]}}, {"type": "Feature", "properties": {"name": "gNIp3YwD3nM24-i69hZDhw", "score": 19}, "geometry": {"type": "Point", "coordinates": [8.3052014, 47.5826698]}}, {"type": "Feature", "properties": {"name": "NwPSAi3Szs-MvIZ8MQlXCg", "score": 4}, "geometry": {"type": "Point", "coordinates": [8.3052928, 47.582563]}}, {"type": "Feature", "properties": {"name": "nvwvuCHnnbW92HQ7zQgZEw", "score": 13}, "geometry": {"type": "Point", "coordinates": [8.3053415, 47.5824652]}}, {"type": "Feature", "properties": {"name": "R-KxqjUIOdGV5bz1-fHjgA", "score": 15}, "geometry": {"type": "Point", "coordinates": [8.3053812, 47.5823466]}}, {"type": "Feature", "properties": {"name": "kOzvN-Wk4LuXAg-8AjRxzQ", "score": 18}, "geometry": {"type": "Point", "coordinates": [8.3053985, 47.5822368]}}, {"type": "Feature", "properties": {"name": "sbXuiUgCQCqW5sICY1_b5g", "score": 15}, "geometry": {"type": "Point", "coordinates": [8.3054263, 47.5821324]}}, {"type": "Feature", "properties": {"name": "cM4SvHtl4ljIRVy6jvvjVw", "score": 8}, "geometry": {"type": "Point", "coordinates": [8.3054272, 47.5820373]}}, {"type": "Feature", "properties": {"name": "VwDj2nN5mEfeK67B4R5-iA", "score": 15}, "geometry": {"type": "Point", "coordinates": [8.3054339, 47.5819602]}}, {"type": "Feature", "properties": {"name": "kn0iCMnluulNtC323rBLyw", "score": 12}, "geometry": {"type": "Point", "coordinates": [8.3054395, 47.5819059]}}, {"type": "Feature", "properties": {"name": "Dkcsu3vCHLVYjGY2cnlMEQ", "score": 22}, "geometry": {"type": "Point", "coordinates": [8.3054726, 47.5818748]}}, {"type": "Feature", "properties": {"name": "tm1Bzbkw0eczsRCeo0JveA", "score": 10}, "geometry": {"type": "Point", "coordinates": [8.3055335, 47.581827]}}, {"type": "Feature", "properties": {"name": "1LqLYw6A90RpIZ4BVpzM4A", "score": 40}, "geometry": {"type": "Point", "coordinates": [8.3055953, 47.5817689]}}, {"type": "Feature", "properties": {"name": "2LcLpfLz0ssOr5_EQtB9Ug", "score": 23}, "geometry": {"type": "Point", "coordinates": [8.3056801, 47.581695]}}, {"type": "Feature", "properties": {"name": "WteXlebpbF6zk1vxGyJ1ug", "score": 19}, "geometry": {"type": "Point", "coordinates": [8.305753, 47.5816321]}}, {"type": "Feature", "properties": {"name": "OtpLuljds95HYl1O3FC2gg", "score": 18}, "geometry": {"type": "Point", "coordinates": [8.305864, 47.5815759]}}, {"type": "Feature", "properties": {"name": "jYOzZUIgUTo_u2WaSfYO0g", "score": 15}, "geometry": {"type": "Point", "coordinates": [8.3060194, 47.5815358]}}, {"type": "Feature", "properties": {"name": "hV1PddtnrV48R5jYENjCjQ", "score": 15}, "geometry": {"type": "Point", "coordinates": [8.3061535, 47.5815317]}}, {"type": "Feature", "properties": {"name": "eEKqRchSIumCXSKM4zCZOQ", "score": 11}, "geometry": {"type": "Point", "coordinates": [8.3062779, 47.5815867]}}, {"type": "Feature", "properties": {"name": "cOGkQejl4s1O8g17kAlUvw", "score": 11}, "geometry": {"type": "Point", "coordinates": [8.3063802, 47.5816492]}}, {"type": "Feature", "properties": {"name": "4soqTBmia5zoOYMBdNz9jQ", "score": 14}, "geometry": {"type": "Point", "coordinates": [8.3064776, 47.581727]}}, {"type": "Feature", "properties": {"name": "a1VF34Uf-CA1h-K-sDrNiA", "score": 12}, "geometry": {"type": "Point", "coordinates": [8.306592, 47.5817983]}}, {"type": "Feature", "properties": {"name": "wrg4Ik8cgaohdH8ruQgmFA", "score": 11}, "geometry": {"type": "Point", "coordinates": [8.306703, 47.5818669]}}, {"type": "Feature", "properties": {"name": "Gs7oFMyGF6fAuvaokvnobA", "score": 11}, "geometry": {"type": "Point", "coordinates": [8.3068187, 47.5819332]}}, {"type": "Feature", "properties": {"name": "WclO4fXG3fgwYpk-x4ZZcQ", "score": 9}, "geometry": {"type": "Point", "coordinates": [8.3069463, 47.5819707]}}, {"type": "Feature", "properties": {"name": "9WOd1G4C2N6mgtjukxtF6Q", "score": 13}, "geometry": {"type": "Point", "coordinates": [8.3070502, 47.5819615]}}, {"type": "Feature", "properties": {"name": "73I45yekPCe2qUQ_CW2ewA", "score": 21}, "geometry": {"type": "Point", "coordinates": [8.3071707, 47.5819259]}}, {"type": "Feature", "properties": {"name": "0fL80zmBJs-yAY3jwHQ4GQ", "score": 24}, "geometry": {"type": "Point", "coordinates": [8.3072785, 47.5818895]}}, {"type": "Feature", "properties": {"name": "Cxw3u4__wsNlciBdcuZCoQ", "score": 31}, "geometry": {"type": "Point", "coordinates": [8.3074064, 47.5818419]}}, {"type": "Feature", "properties": {"name": "jB5_YviZZmVfKHpo0ISPaQ", "score": 20}, "geometry": {"type": "Point", "coordinates": [8.3075151, 47.581776]}}, {"type": "Feature", "properties": {"name": "-sEe858YbmeSOhOxHM_aTg", "score": 19}, "geometry": {"type": "Point", "coordinates": [8.3076176, 47.5817148]}}, {"type": "Feature", "properties": {"name": "ek1tXJXs1vCO0dCAWqipJg", "score": 1}, "geometry": {"type": "Point", "coordinates": [8.3077262, 47.5816525]}}, {"type": "Feature", "properties": {"name": "2zzyXr44Fmy7PUdwr0tBow", "score": 8}, "geometry": {"type": "Point", "coordinates": [8.3078333, 47.5815922]}}, {"type": "Feature", "properties": {"name": "ybJty6IZA0kg4eSF3H83ZA", "score": 12}, "geometry": {"type": "Point", "coordinates": [8.3079428, 47.5815266]}}, {"type": "Feature", "properties": {"name": "r840ArG_vd6iFNotBBJ0gQ", "score": 15}, "geometry": {"type": "Point", "coordinates": [8.3080475, 47.5814886]}}, {"type": "Feature", "properties": {"name": "V9RUHrHsHod-Q9KS3vVQOg", "score": 36}, "geometry": {"type": "Point", "coordinates": [8.3081544, 47.5814623]}}, {"type": "Feature", "properties": {"name": "2H0cRWDekWgoF2ed68o8qQ", "score": 35}, "geometry": {"type": "Point", "coordinates": [8.308266, 47.581434]}}, {"type": "Feature", "properties": {"name": "5bXNDcYVJa8azJ_WvOhpsg", "score": 31}, "geometry": {"type": "Point", "coordinates": [8.3083405, 47.581383]}}, {"type": "Feature", "properties": {"name": "JRGfNNDcFMRiMTOgmv4utQ", "score": 19}, "geometry": {"type": "Point", "coordinates": [8.3083985, 47.5813219]}}, {"type": "Feature", "properties": {"name": "U1pX3P6be4k8hY9FdQt_KQ", "score": 14}, "geometry": {"type": "Point", "coordinates": [8.3084763, 47.5812612]}}, {"type": "Feature", "properties": {"name": "HpeN9DbYc8yKCJDTPirZpw", "score": 29}, "geometry": {"type": "Point", "coordinates": [8.3085565, 47.5811992]}}, {"type": "Feature", "properties": {"name": "tfn6dWUrLsJ8M4RojiWbkA", "score": 19}, "geometry": {"type": "Point", "coordinates": [8.308632, 47.5811411]}}, {"type": "Feature", "properties": {"name": "6_zMsp3AoTi6lP3bsthA0Q", "score": 49}, "geometry": {"type": "Point", "coordinates": [8.3087122, 47.581078]}}, {"type": "Feature", "properties": {"name": "CjfWEwxQw6_7Sx9FEI0sIw", "score": 37}, "geometry": {"type": "Point", "coordinates": [8.3087933, 47.581026]}}, {"type": "Feature", "properties": {"name": "YXupcgV_jSa2qcY3Yp_GPQ", "score": 41}, "geometry": {"type": "Point", "coordinates": [8.3088819, 47.5809638]}}, {"type": "Feature", "properties": {"name": "zEJnmunuvA4yMmjPYtFsxA", "score": 32}, "geometry": {"type": "Point", "coordinates": [8.3089315, 47.5809253]}}, {"type": "Feature", "properties": {"name": "Cn7opnVA3szBY9MUTxg2zQ", "score": 32}, "geometry": {"type": "Point", "coordinates": [8.3089961, 47.5808693]}}, {"type": "Feature", "properties": {"name": "OpCGP6SaDGYYdNNnWXAoqg", "score": 37}, "geometry": {"type": "Point", "coordinates": [8.3090608, 47.5808133]}}, {"type": "Feature", "properties": {"name": "dZFzPWtE2kQcvqIR5cQ3lQ", "score": 34}, "geometry": {"type": "Point", "coordinates": [8.3091254, 47.5807573]}}, {"type": "Feature", "properties": {"name": "ZT4y7YiQX5O_oULx-1mqfQ", "score": 28}, "geometry": {"type": "Point", "coordinates": [8.30919, 47.5807013]}}, {"type": "Feature", "properties": {"name": "g4gNxLfbUjlUizhgLdHMKQ", "score": 42}, "geometry": {"type": "Point", "coordinates": [8.3092951, 47.5806104]}}, {"type": "Feature", "properties": {"name": "tbZFWuHnKAPFhSDuwS5Gmw", "score": 36}, "geometry": {"type": "Point", "coordinates": [8.3093666, 47.580556]}}, {"type": "Feature", "properties": {"name": "5-tX594sXPTlp3k-oxw_Uw", "score": 44}, "geometry": {"type": "Point", "coordinates": [8.3094358, 47.5805063]}}, {"type": "Feature", "properties": {"name": "ZGbGvah55wAZdK8a1Drphw", "score": 43}, "geometry": {"type": "Point", "coordinates": [8.3095066, 47.580458]}}, {"type": "Feature", "properties": {"name": "PS1j4fdwq2XTE6SZXYlKkg", "score": 39}, "geometry": {"type": "Point", "coordinates": [8.3095896, 47.5804022]}}, {"type": "Feature", "properties": {"name": "VKF-IpXpBiirdllShCo3cQ", "score": 41}, "geometry": {"type": "Point", "coordinates": [8.3096734, 47.5803427]}}, {"type": "Feature", "properties": {"name": "9v5eDqD6wB0JzHyxZK7Q4w", "score": 39}, "geometry": {"type": "Point", "coordinates": [8.309763, 47.5802765]}}, {"type": "Feature", "properties": {"name": "zDQVNJVoPJX6aNHNOgomkA", "score": 35}, "geometry": {"type": "Point", "coordinates": [8.3098467, 47.5802173]}}, {"type": "Feature", "properties": {"name": "E3csBx0u7UhChOKpsn-V_g", "score": 34}, "geometry": {"type": "Point", "coordinates": [8.3099265, 47.5801599]}}, {"type": "Feature", "properties": {"name": "RdnrbblCuIo-obof16HHtA", "score": 35}, "geometry": {"type": "Point", "coordinates": [8.3100121, 47.5801042]}}, {"type": "Feature", "properties": {"name": "PQvKPKV2_YIRaLwUbKIrxg", "score": 15}, "geometry": {"type": "Point", "coordinates": [8.3100977, 47.5800415]}}, {"type": "Feature", "properties": {"name": "RGv4VXUT0UvduxiiApQmxg", "score": 28}, "geometry": {"type": "Point", "coordinates": [8.3101802, 47.5799753]}}, {"type": "Feature", "properties": {"name": "rvMsxp0pgwwU0wkl03zoBA", "score": 35}, "geometry": {"type": "Point", "coordinates": [8.3102512, 47.5799026]}}, {"type": "Feature", "properties": {"name": "4-jV0S_Et0d34LSwweciOQ", "score": 39}, "geometry": {"type": "Point", "coordinates": [8.3103355, 47.5798513]}}, {"type": "Feature", "properties": {"name": "UuaQZZYUs--mNlpN4YGGbw", "score": 34}, "geometry": {"type": "Point", "coordinates": [8.3104236, 47.5797958]}}, {"type": "Feature", "properties": {"name": "Ib8PeL5ZkKblyZEMs7aQXQ", "score": 32}, "geometry": {"type": "Point", "coordinates": [8.3105043, 47.5797249]}}, {"type": "Feature", "properties": {"name": "kznjworXMUV0fPNVdiD5Tg", "score": 45}, "geometry": {"type": "Point", "coordinates": [8.3105895, 47.579666]}}, {"type": "Feature", "properties": {"name": "FVoTTTda4nsOdTBUgQTOvg", "score": 36}, "geometry": {"type": "Point", "coordinates": [8.310676, 47.5796121]}}, {"type": "Feature", "properties": {"name": "VS0sZp_Z6APdLzUn_9UaMw", "score": 29}, "geometry": {"type": "Point", "coordinates": [8.3107545, 47.579552]}}, {"type": "Feature", "properties": {"name": "hSaCeM8wQgwdzkDij1TE8g", "score": 38}, "geometry": {"type": "Point", "coordinates": [8.3108408, 47.5794847]}}, {"type": "Feature", "properties": {"name": "YvI6pd2-n410e6lIGO8Iww", "score": 43}, "geometry": {"type": "Point", "coordinates": [8.3109228, 47.5794218]}}, {"type": "Feature", "properties": {"name": "S0j5mlFFINQCElPz0-RCxA", "score": 38}, "geometry": {"type": "Point", "coordinates": [8.3110064, 47.5793581]}}, {"type": "Feature", "properties": {"name": "SDpSq6GHARokcK2T1NjMrw", "score": 36}, "geometry": {"type": "Point", "coordinates": [8.311086, 47.5792969]}}, {"type": "Feature", "properties": {"name": "F8E3mA6UgZH83FX1nZ8A2A", "score": 14}, "geometry": {"type": "Point", "coordinates": [8.3111599, 47.5792357]}}, {"type": "Feature", "properties": {"name": "d2pJK0AWufOp4iqaY3HHng", "score": 15}, "geometry": {"type": "Point", "coordinates": [8.3112399, 47.5791728]}}, {"type": "Feature", "properties": {"name": "h5zYDb_Wg5MgA4Isvlqu6A", "score": 38}, "geometry": {"type": "Point", "coordinates": [8.3113178, 47.5791169]}}, {"type": "Feature", "properties": {"name": "0sqz5kslVVKu15-vbj0QbA", "score": 43}, "geometry": {"type": "Point", "coordinates": [8.3113925, 47.5790604]}}, {"type": "Feature", "properties": {"name": "fccr-JBkqoo0hWLV7aqrOw", "score": 43}, "geometry": {"type": "Point", "coordinates": [8.3114684, 47.5790002]}}, {"type": "Feature", "properties": {"name": "QWPfB28jJQwKWaJFzLFM-g", "score": 35}, "geometry": {"type": "Point", "coordinates": [8.3115389, 47.5789423]}}, {"type": "Feature", "properties": {"name": "wvmpZdglfOYYOUyPuN460w", "score": 31}, "geometry": {"type": "Point", "coordinates": [8.3116075, 47.5788843]}}, {"type": "Feature", "properties": {"name": "l3plPiyyY-ZZkspgjpfrqA", "score": 38}, "geometry": {"type": "Point", "coordinates": [8.3116833, 47.5788251]}}, {"type": "Feature", "properties": {"name": "BkTe7ZuUh-B8ZWLIvJHGkg", "score": 37}, "geometry": {"type": "Point", "coordinates": [8.3117686, 47.5787629]}}, {"type": "Feature", "properties": {"name": "BCUuGARjR81DRZ9LTSJnKg", "score": 33}, "geometry": {"type": "Point", "coordinates": [8.3118461, 47.5787073]}}, {"type": "Feature", "properties": {"name": "Dv1V_fWkaRSenjaPwtBP3w", "score": 32}, "geometry": {"type": "Point", "coordinates": [8.3119238, 47.5786551]}}, {"type": "Feature", "properties": {"name": "nDd3nKWVI_-rJjaYMcQc_Q", "score": 29}, "geometry": {"type": "Point", "coordinates": [8.3120047, 47.5785992]}}, {"type": "Feature", "properties": {"name": "j3t2uN2tHHh9C3QC-Ehmog", "score": 20}, "geometry": {"type": "Point", "coordinates": [8.3120784, 47.5785394]}}, {"type": "Feature", "properties": {"name": "kzdts9qLI-vIQ9tgv3ZC1A", "score": 48}, "geometry": {"type": "Point", "coordinates": [8.3121533, 47.5784826]}}, {"type": "Feature", "properties": {"name": "kprqDwhlXUIAE1GhQwwKyw", "score": 37}, "geometry": {"type": "Point", "coordinates": [8.3122269, 47.5784272]}}, {"type": "Feature", "properties": {"name": "4anXAfs_RUwQplZjWhMhlQ", "score": 34}, "geometry": {"type": "Point", "coordinates": [8.3122986, 47.5783721]}}, {"type": "Feature", "properties": {"name": "evrYdreNyXHCKxMQGcxBdQ", "score": 31}, "geometry": {"type": "Point", "coordinates": [8.3123724, 47.5783118]}}, {"type": "Feature", "properties": {"name": "0WIZk6FGei6q9cVz04-w5Q", "score": 43}, "geometry": {"type": "Point", "coordinates": [8.3124405, 47.5782592]}}, {"type": "Feature", "properties": {"name": "FVSdDFb_SYNCDRlcbDHG3Q", "score": 38}, "geometry": {"type": "Point", "coordinates": [8.3125072, 47.5782128]}}, {"type": "Feature", "properties": {"name": "Hrw1ClA6pnT7zzDJ2FGIag", "score": 31}, "geometry": {"type": "Point", "coordinates": [8.312575, 47.5781641]}}, {"type": "Feature", "properties": {"name": "hCa-vArlfbhOgYpymu9Gow", "score": 32}, "geometry": {"type": "Point", "coordinates": [8.3126412, 47.578122]}}, {"type": "Feature", "properties": {"name": "CfP8uU8f8XCWgrYwCSyEIw", "score": 36}, "geometry": {"type": "Point", "coordinates": [8.3127107, 47.5780772]}}, {"type": "Feature", "properties": {"name": "4K1y5cialxKoUFKAaSJmYg", "score": 40}, "geometry": {"type": "Point", "coordinates": [8.3127821, 47.5780342]}}, {"type": "Feature", "properties": {"name": "0TSNOK3LN0YqhnXMe9gXXw", "score": 18}, "geometry": {"type": "Point", "coordinates": [8.3128498, 47.5779872]}}, {"type": "Feature", "properties": {"name": "HpL8d2lvE4J5FYh0rN-vcA", "score": 40}, "geometry": {"type": "Point", "coordinates": [8.3129187, 47.5779405]}}, {"type": "Feature", "properties": {"name": "SI7KQU_lP8TpnJJFuIXjjQ", "score": 46}, "geometry": {"type": "Point", "coordinates": [8.3129835, 47.5778995]}}, {"type": "Feature", "properties": {"name": "uwz_qp2xw-3W5r1MXgnejg", "score": 40}, "geometry": {"type": "Point", "coordinates": [8.3130514, 47.5778596]}}, {"type": "Feature", "properties": {"name": "d5F55rRxRf_yesbpEyC0DA", "score": 33}, "geometry": {"type": "Point", "coordinates": [8.3130851, 47.5778392]}}, {"type": "Feature", "properties": {"name": "wAVtofyD6YDQN5T8MYBUPQ", "score": 33}, "geometry": {"type": "Point", "coordinates": [8.313177, 47.5777697]}}, {"type": "Feature", "properties": {"name": "nWaDqQpJsDRI6LSfHOX2ag", "score": 17}, "geometry": {"type": "Point", "coordinates": [8.3132381, 47.5777251]}}, {"type": "Feature", "properties": {"name": "IJ1Uj9vMmlL43Ihno9TSxw", "score": 38}, "geometry": {"type": "Point", "coordinates": [8.3133024, 47.5776879]}}, {"type": "Feature", "properties": {"name": "_bvWE2_eG2GKOLYYRaVbVQ", "score": 43}, "geometry": {"type": "Point", "coordinates": [8.3133751, 47.5776355]}}, {"type": "Feature", "properties": {"name": "ge1d_vPfffLoPTWfrfFOjQ", "score": 39}, "geometry": {"type": "Point", "coordinates": [8.3134373, 47.5775846]}}, {"type": "Feature", "properties": {"name": "TFeCOpJzv_NfrpWZRTfvZw", "score": 35}, "geometry": {"type": "Point", "coordinates": [8.313501, 47.577535]}}, {"type": "Feature", "properties": {"name": "IfyBnVu7cqUz5gM-thUG3A", "score": 31}, "geometry": {"type": "Point", "coordinates": [8.3135734, 47.5774777]}}, {"type": "Feature", "properties": {"name": "abJ2EtU3-4oZQR9tP5DkWQ", "score": 19}, "geometry": {"type": "Point", "coordinates": [8.31364, 47.5774218]}}, {"type": "Feature", "properties": {"name": "UPgCmk2kK86Wbv3E55M_Gg", "score": 10}, "geometry": {"type": "Point", "coordinates": [8.3137102, 47.5773651]}}, {"type": "Feature", "properties": {"name": "1wkEpFaEZ0jdheJxyfZEGg", "score": 36}, "geometry": {"type": "Point", "coordinates": [8.3137834, 47.5773151]}}, {"type": "Feature", "properties": {"name": "r0Q7WqkEpCNwA7pyz-VLfA", "score": 18}, "geometry": {"type": "Point", "coordinates": [8.3138632, 47.5772612]}}, {"type": "Feature", "properties": {"name": "_s9MlAsI74QKMc2LJqFOFA", "score": 28}, "geometry": {"type": "Point", "coordinates": [8.3139454, 47.5772031]}}, {"type": "Feature", "properties": {"name": "ClaROwtiOgv_73ewAnmSVQ", "score": 37}, "geometry": {"type": "Point", "coordinates": [8.3140209, 47.5771391]}}, {"type": "Feature", "properties": {"name": "QxoWF3aBeTdJZ7orGmwiPw", "score": 38}, "geometry": {"type": "Point", "coordinates": [8.3140971, 47.5770673]}}, {"type": "Feature", "properties": {"name": "Ou_cobJczMzLPCTOIWRvBw", "score": 33}, "geometry": {"type": "Point", "coordinates": [8.3141784, 47.5770076]}}, {"type": "Feature", "properties": {"name": "9kenLjA3ylD93T5b7W2AJg", "score": 32}, "geometry": {"type": "Point", "coordinates": [8.3142455, 47.5769667]}}, {"type": "Feature", "properties": {"name": "fwyB4WLuTPxwVKugA1s9xg", "score": 37}, "geometry": {"type": "Point", "coordinates": [8.314325, 47.5769575]}}, {"type": "Feature", "properties": {"name": "chPFVVfkkGODQJh8QCOWsA", "score": 41}, "geometry": {"type": "Point", "coordinates": [8.3144013, 47.5770023]}}, {"type": "Feature", "properties": {"name": "f4pIkaMfTga3LDshk7ilsg", "score": 25}, "geometry": {"type": "Point", "coordinates": [8.3144744, 47.577064]}}, {"type": "Feature", "properties": {"name": "hS6h_zPY5VLROMHMky07Rg", "score": 46}, "geometry": {"type": "Point", "coordinates": [8.3145557, 47.5771253]}}, {"type": "Feature", "properties": {"name": "VjXx-9bMX0a_m8DUed7W3g", "score": 35}, "geometry": {"type": "Point", "coordinates": [8.3146374, 47.5771868]}}, {"type": "Feature", "properties": {"name": "3ECkwhBFqOKbimim46oB5w", "score": 17}, "geometry": {"type": "Point", "coordinates": [8.3147187, 47.5772433]}}, {"type": "Feature", "properties": {"name": "a3wsGAu_uToP0DHe6hSDVw", "score": 15}, "geometry": {"type": "Point", "coordinates": [8.314792, 47.5772934]}}, {"type": "Feature", "properties": {"name": "Qf7CXNpMaTDqYBlxKT-gSQ", "score": 30}, "geometry": {"type": "Point", "coordinates": [8.3148653, 47.5773481]}}, {"type": "Feature", "properties": {"name": "nO-L-BlaYfvMAdOG-qErqA", "score": 24}, "geometry": {"type": "Point", "coordinates": [8.3149611, 47.5773762]}}, {"type": "Feature", "properties": {"name": "cITDQz7kLMoiumg1yr5Pcg", "score": 15}, "geometry": {"type": "Point", "coordinates": [8.3150669, 47.5773515]}}, {"type": "Feature", "properties": {"name": "DZbqJnn6Pl7oQ9x3iolcUA", "score": 20}, "geometry": {"type": "Point", "coordinates": [8.3151464, 47.5772946]}}, {"type": "Feature", "properties": {"name": "h4k-RIyw4HuvxXkWd4r2hg", "score": 34}, "geometry": {"type": "Point", "coordinates": [8.3152288, 47.5772693]}}, {"type": "Feature", "properties": {"name": "R1CviPh8pF_iSpe-LoJe6A", "score": 36}, "geometry": {"type": "Point", "coordinates": [8.315317, 47.5772971]}}, {"type": "Feature", "properties": {"name": "Eev96bpfPrreKaOQLSqv0w", "score": 34}, "geometry": {"type": "Point", "coordinates": [8.3153855, 47.5773447]}}, {"type": "Feature", "properties": {"name": "hOBH5fkgciGvcXuzHyC2aQ", "score": 19}, "geometry": {"type": "Point", "coordinates": [8.3154467, 47.5773937]}}, {"type": "Feature", "properties": {"name": "jEpP0k0iUlgjrqhMohvgWw", "score": 31}, "geometry": {"type": "Point", "coordinates": [8.3155052, 47.5774386]}}, {"type": "Feature", "properties": {"name": "lNd209KxhnkDlW0Y29qOVQ", "score": 32}, "geometry": {"type": "Point", "coordinates": [8.3155798, 47.577462]}}, {"type": "Feature", "properties": {"name": "jW98RRoWhp3wgdNus-mc3Q", "score": 50}, "geometry": {"type": "Point", "coordinates": [8.3156557, 47.5774437]}}, {"type": "Feature", "properties": {"name": "9YEb_hGidfSgQus3xbV46A", "score": 27}, "geometry": {"type": "Point", "coordinates": [8.3157236, 47.5773939]}}, {"type": "Feature", "properties": {"name": "i2CskM36_ETobD8JK_xtnQ", "score": 32}, "geometry": {"type": "Point", "coordinates": [8.3158613, 47.5773001]}}, {"type": "Feature", "properties": {"name": "52P_1YftD19BEkzzwW90lg", "score": 24}, "geometry": {"type": "Point", "coordinates": [8.3075, 47.5861528]}}, {"type": "Feature", "properties": {"name": "nhjty49tCsLSzVarEVVKsg", "score": 31}, "geometry": {"type": "Point", "coordinates": [8.3073417, 47.5861306]}}, {"type": "Feature", "properties": {"name": "uzPIVyF2V_v0yOIai4hycw", "score": 39}, "geometry": {"type": "Point", "coordinates": [8.3072417, 47.5860889]}}, {"type": "Feature", "properties": {"name": "wSRthMA9NXlC8EtZm6nkSQ", "score": 12}, "geometry": {"type": "Point", "coordinates": [8.3071889, 47.5860611]}}, {"type": "Feature", "properties": {"name": "gaqADPu-m1YMSKRapUUT0w", "score": 28}, "geometry": {"type": "Point", "coordinates": [8.3071694, 47.5861028]}}, {"type": "Feature", "properties": {"name": "dYVF94OwLm-kLE_s_U5IyA", "score": 30}, "geometry": {"type": "Point", "coordinates": [8.3071417, 47.5861639]}}, {"type": "Feature", "properties": {"name": "iqJLLvt5lSEJ8MWYuaj6Zw", "score": 43}, "geometry": {"type": "Point", "coordinates": [8.3070278, 47.5862083]}}, {"type": "Feature", "properties": {"name": "53YtAsjnVjXTt6aN5Q4avg", "score": 36}, "geometry": {"type": "Point", "coordinates": [8.3068944, 47.5862306]}}, {"type": "Feature", "properties": {"name": "m6Yndb3-0DCCA0aKrQ6sjQ", "score": 13}, "geometry": {"type": "Point", "coordinates": [8.3067417, 47.5862611]}}, {"type": "Feature", "properties": {"name": "1fFs832lJZhUIQjvrRv4UA", "score": 32}, "geometry": {"type": "Point", "coordinates": [8.3064167, 47.5863778]}}, {"type": "Feature", "properties": {"name": "aQ9FLPiA1E7NHHahSPiH7g", "score": 40}, "geometry": {"type": "Point", "coordinates": [8.3062583, 47.5864667]}}, {"type": "Feature", "properties": {"name": "FYCzGFWKpmUZYP0u_51q8A", "score": 7}, "geometry": {"type": "Point", "coordinates": [8.3061278, 47.5865306]}}, {"type": "Feature", "properties": {"name": "mFUEjuV8yDYP7-xcaAkzDA", "score": 26}, "geometry": {"type": "Point", "coordinates": [8.3060056, 47.5865972]}}, {"type": "Feature", "properties": {"name": "moKjr5iKd6v69osJntQwnQ", "score": 33}, "geometry": {"type": "Point", "coordinates": [8.3058833, 47.5866639]}}, {"type": "Feature", "properties": {"name": "8jmTnoja9GnyKwY7u3O2FA", "score": 33}, "geometry": {"type": "Point", "coordinates": [8.3058, 47.5867639]}}, {"type": "Feature", "properties": {"name": "dhKdXMIlGgUayGn44iOptA", "score": 32}, "geometry": {"type": "Point", "coordinates": [8.3057722, 47.5868861]}}, {"type": "Feature", "properties": {"name": "hdcMFclT6QQZyy6Fs7RX6Q", "score": 22}, "geometry": {"type": "Point", "coordinates": [8.3057222, 47.5870194]}}, {"type": "Feature", "properties": {"name": "sWBiGNj-DisGLnC2eO5EAA", "score": 15}, "geometry": {"type": "Point", "coordinates": [8.305625, 47.5871417]}}, {"type": "Feature", "properties": {"name": "XtXYuiB3cf3rM1iEXkYZIw", "score": 27}, "geometry": {"type": "Point", "coordinates": [8.3055167, 47.5872722]}}, {"type": "Feature", "properties": {"name": "Qz3aEc1AuinJD78nMHYzXg", "score": 50}, "geometry": {"type": "Point", "coordinates": [8.3054806, 47.5873694]}}, {"type": "Feature", "properties": {"name": "UOCQnQu2ZXXQFgYIs54i8Q", "score": 36}, "geometry": {"type": "Point", "coordinates": [8.3054722, 47.5874889]}}, {"type": "Feature", "properties": {"name": "XVNh6oD-dKI8fFwH1MaNvw", "score": 32}, "geometry": {"type": "Point", "coordinates": [8.305475, 47.5876194]}}, {"type": "Feature", "properties": {"name": "84sLVQoZF-KIW5w552Rd_g", "score": 31}, "geometry": {"type": "Point", "coordinates": [8.3053306, 47.5878139]}}, {"type": "Feature", "properties": {"name": "SO2KuP1uEQhA8iFcIbVqQQ", "score": 12}, "geometry": {"type": "Point", "coordinates": [8.3052444, 47.5879222]}}, {"type": "Feature", "properties": {"name": "TgldBVZ8mHLsYoV8UzvhDQ", "score": 15}, "geometry": {"type": "Point", "coordinates": [8.3051556, 47.5880028]}}, {"type": "Feature", "properties": {"name": "CxjD-Gn1s9Cr6H68Ndn1tw", "score": 16}, "geometry": {"type": "Point", "coordinates": [8.3051, 47.5880583]}}, {"type": "Feature", "properties": {"name": "oOGfFNdOzCMG6O-v6ydUMA", "score": 33}, "geometry": {"type": "Point", "coordinates": [8.3048111, 47.5879833]}}, {"type": "Feature", "properties": {"name": "ZcEF8HPHYPCUC1q1UMUxRA", "score": 33}, "geometry": {"type": "Point", "coordinates": [8.3046639, 47.5880917]}}, {"type": "Feature", "properties": {"name": "IY7fCgxI3qT1Ep_wbNeg_w", "score": 36}, "geometry": {"type": "Point", "coordinates": [8.3045972, 47.5881611]}}, {"type": "Feature", "properties": {"name": "qmRcGjJHpLykKLaJ67izgA", "score": 39}, "geometry": {"type": "Point", "coordinates": [8.3045361, 47.5882528]}}, {"type": "Feature", "properties": {"name": "9vwDXMGlqZyYY9V6xfAyUQ", "score": 43}, "geometry": {"type": "Point", "coordinates": [8.3044444, 47.5883139]}}, {"type": "Feature", "properties": {"name": "pTjdUFmSJl4qzi95cgjlgg", "score": 11}, "geometry": {"type": "Point", "coordinates": [8.3043639, 47.5883778]}}, {"type": "Feature", "properties": {"name": "qIoNUZtzApkG1ea9RZxnkA", "score": 27}, "geometry": {"type": "Point", "coordinates": [8.3041639, 47.5885222]}}, {"type": "Feature", "properties": {"name": "Ht02tFbi1wxmDNaup--FzA", "score": 28}, "geometry": {"type": "Point", "coordinates": [8.30405, 47.5886056]}}, {"type": "Feature", "properties": {"name": "blhx0Fqk_x4e0NO-uLHLWA", "score": 40}, "geometry": {"type": "Point", "coordinates": [8.3039444, 47.588675]}}, {"type": "Feature", "properties": {"name": "SE-F4f39-1c29Df5gUCe-g", "score": 43}, "geometry": {"type": "Point", "coordinates": [8.3038444, 47.5887333]}}, {"type": "Feature", "properties": {"name": "SqZw70-JWAWSLnw9wfBbsg", "score": 17}, "geometry": {"type": "Point", "coordinates": [8.3037417, 47.5887694]}}, {"type": "Feature", "properties": {"name": "1wizK0YEwUBJUM4g1NRr-g", "score": 27}, "geometry": {"type": "Point", "coordinates": [8.3036694, 47.5888389]}}, {"type": "Feature", "properties": {"name": "roZGbVqnSldmA4OmYYxw1g", "score": 43}, "geometry": {"type": "Point", "coordinates": [8.3035389, 47.5889639]}}, {"type": "Feature", "properties": {"name": "AdcTzjOC_tsxtfml28h_cQ", "score": 35}, "geometry": {"type": "Point", "coordinates": [8.3034639, 47.5890528]}}, {"type": "Feature", "properties": {"name": "yMnfGTRvG9D1pRJ5LYr9oA", "score": 32}, "geometry": {"type": "Point", "coordinates": [8.3034056, 47.5891361]}}, {"type": "Feature", "properties": {"name": "0IqoIFkDLbiaNns6R2yVSg", "score": 39}, "geometry": {"type": "Point", "coordinates": [8.3033028, 47.5892556]}}, {"type": "Feature", "properties": {"name": "lOQbQMwFzyQjKuNjTgzFHw", "score": 37}, "geometry": {"type": "Point", "coordinates": [8.3031944, 47.58935]}}, {"type": "Feature", "properties": {"name": "krS6beNIns0BWcLN0Pgzsg", "score": 18}, "geometry": {"type": "Point", "coordinates": [8.3030972, 47.5894333]}}, {"type": "Feature", "properties": {"name": "JWLHdHFCLrnzqdY0Axw70g", "score": 36}, "geometry": {"type": "Point", "coordinates": [8.303025, 47.5895]}}, {"type": "Feature", "properties": {"name": "HR8SzQlZTylrT3CZuJmawQ", "score": 42}, "geometry": {"type": "Point", "coordinates": [8.3029389, 47.5895639]}}, {"type": "Feature", "properties": {"name": "FIspG2b5tXzeVfs_TnX-uQ", "score": 12}, "geometry": {"type": "Point", "coordinates": [8.3028333, 47.5896583]}}, {"type": "Feature", "properties": {"name": "5-uWcGlubIsGrXazUSxuGQ", "score": 43}, "geometry": {"type": "Point", "coordinates": [8.3027444, 47.5897361]}}, {"type": "Feature", "properties": {"name": "wLIgp1zgNoPrmyr1GQFPKw", "score": 36}, "geometry": {"type": "Point", "coordinates": [8.3026472, 47.5898194]}}, {"type": "Feature", "properties": {"name": "WA9j1m_ZJ3MRnK_ryTSy9g", "score": 27}, "geometry": {"type": "Point", "coordinates": [8.3025667, 47.5898944]}}, {"type": "Feature", "properties": {"name": "-8LzZGwEthQA73DRTBl9JQ", "score": 23}, "geometry": {"type": "Point", "coordinates": [8.3025056, 47.5899917]}}, {"type": "Feature", "properties": {"name": "g-tbgeXdt7doTOcqwYd1nw", "score": 24}, "geometry": {"type": "Point", "coordinates": [8.3024528, 47.5900611]}}, {"type": "Feature", "properties": {"name": "EWku_66Fd9T2eqvT7TUcgw", "score": 36}, "geometry": {"type": "Point", "coordinates": [8.3024083, 47.590125]}}, {"type": "Feature", "properties": {"name": "_4Udqf-NSIB568v1I4ryXQ", "score": 37}, "geometry": {"type": "Point", "coordinates": [8.30235, 47.5902194]}}, {"type": "Feature", "properties": {"name": "1HMryYQvyx6yiO2uMJIa4w", "score": 10}, "geometry": {"type": "Point", "coordinates": [8.3022833, 47.5903111]}}, {"type": "Feature", "properties": {"name": "E6xBAxKKd_kFGjZUf2qCQw", "score": 6}, "geometry": {"type": "Point", "coordinates": [8.30225, 47.5903917]}}, {"type": "Feature", "properties": {"name": "3o4RlYlUBJv2kwtxNe6DIA", "score": 13}, "geometry": {"type": "Point", "coordinates": [8.302225, 47.5904667]}}, {"type": "Feature", "properties": {"name": "IpVoCddeXCv7OUmM5kD9BQ", "score": 15}, "geometry": {"type": "Point", "coordinates": [8.3021611, 47.5905667]}}, {"type": "Feature", "properties": {"name": "j0olgaWzIL7iqY1AdswGrQ", "score": 25}, "geometry": {"type": "Point", "coordinates": [8.3021056, 47.5906583]}}, {"type": "Feature", "properties": {"name": "afErUiJ3WEo3FsR-cmPHXA", "score": 36}, "geometry": {"type": "Point", "coordinates": [8.3020389, 47.5907583]}}, {"type": "Feature", "properties": {"name": "wm5vKOInWIxOPrn_fXL5Mg", "score": 39}, "geometry": {"type": "Point", "coordinates": [8.3019944, 47.5908583]}}, {"type": "Feature", "properties": {"name": "fGUuIidFkecZRUpDDC8oPg", "score": 37}, "geometry": {"type": "Point", "coordinates": [8.3019139, 47.5909528]}}, {"type": "Feature", "properties": {"name": "PaFiIa0xl5NJD0liLWvk3g", "score": 23}, "geometry": {"type": "Point", "coordinates": [8.3018694, 47.5910639]}}, {"type": "Feature", "properties": {"name": "OWxY9QUwayyNAzJbdgWqkg", "score": 26}, "geometry": {"type": "Point", "coordinates": [8.3018111, 47.5911778]}}, {"type": "Feature", "properties": {"name": "bzUEyS_DVduhIys-JgtgAQ", "score": 24}, "geometry": {"type": "Point", "coordinates": [8.30175, 47.5912806]}}, {"type": "Feature", "properties": {"name": "NzvIJsqoWjSh8vMCHAmqLQ", "score": 25}, "geometry": {"type": "Point", "coordinates": [8.3016889, 47.5913861]}}, {"type": "Feature", "properties": {"name": "BJLD1KPJQb_tHgfPN5hG_Q", "score": 34}, "geometry": {"type": "Point", "coordinates": [8.3016306, 47.5914917]}}, {"type": "Feature", "properties": {"name": "7STCy1mV6QrWlkWV0yJKOw", "score": 33}, "geometry": {"type": "Point", "coordinates": [8.3015667, 47.5915889]}}, {"type": "Feature", "properties": {"name": "qfSyxdu_XVRdzVgTsjtWmQ", "score": 36}, "geometry": {"type": "Point", "coordinates": [8.3015028, 47.5917111]}}, {"type": "Feature", "properties": {"name": "WPan38w9EycHFA-ZU4ZuFA", "score": 24}, "geometry": {"type": "Point", "coordinates": [8.3014417, 47.5918528]}}, {"type": "Feature", "properties": {"name": "f22y2_4C41iREXx_7XRyvw", "score": 19}, "geometry": {"type": "Point", "coordinates": [8.3013806, 47.5919556]}}, {"type": "Feature", "properties": {"name": "67BzdoTVQGn82H2imhdRcg", "score": 31}, "geometry": {"type": "Point", "coordinates": [8.3013194, 47.5920444]}}, {"type": "Feature", "properties": {"name": "WDMOKSonqMhEzTB0x6wnBg", "score": 50}, "geometry": {"type": "Point", "coordinates": [8.3012583, 47.5921889]}}, {"type": "Feature", "properties": {"name": "YHcjCF25BpwvcJF_xau-lQ", "score": 16}, "geometry": {"type": "Point", "coordinates": [8.3012056, 47.5922833]}}, {"type": "Feature", "properties": {"name": "onOkGJ22Y9fq2r9w0OqRWw", "score": 35}, "geometry": {"type": "Point", "coordinates": [8.3011528, 47.5923861]}}, {"type": "Feature", "properties": {"name": "N6M7Pn68S1Mxr8ehwbt4cg", "score": 11}, "geometry": {"type": "Point", "coordinates": [8.3011028, 47.5924972]}}, {"type": "Feature", "properties": {"name": "l65kJSNSFrMs-INQskvzeg", "score": 34}, "geometry": {"type": "Point", "coordinates": [8.3010611, 47.5926694]}}, {"type": "Feature", "properties": {"name": "cZrxSvqFdawT9tImCKWMtw", "score": 38}, "geometry": {"type": "Point", "coordinates": [8.3010194, 47.5927611]}}, {"type": "Feature", "properties": {"name": "vCyNLF6d61LNzer5gaTgjg", "score": 37}, "geometry": {"type": "Point", "coordinates": [8.3009667, 47.5929556]}}, {"type": "Feature", "properties": {"name": "CbpQVEBmxVG0JYWEUE65xA", "score": 28}, "geometry": {"type": "Point", "coordinates": [8.3009444, 47.5930778]}}, {"type": "Feature", "properties": {"name": "iszBkiq1Wua7B5cq__JOww", "score": 26}, "geometry": {"type": "Point", "coordinates": [8.3009222, 47.5931694]}}, {"type": "Feature", "properties": {"name": "ZF4eH9vkCbr2UTFzIehCoQ", "score": 31}, "geometry": {"type": "Point", "coordinates": [8.3009028, 47.5932611]}}, {"type": "Feature", "properties": {"name": "UYtFklcVIooFsHNFDpqnAQ", "score": 42}, "geometry": {"type": "Point", "coordinates": [8.3008972, 47.5933556]}}, {"type": "Feature", "properties": {"name": "6edtnHRakELSUMoNoUMhCg", "score": 46}, "geometry": {"type": "Point", "coordinates": [8.3009111, 47.593475]}}, {"type": "Feature", "properties": {"name": "rY9LbbKKeTlSDmXHJX16mg", "score": 50}, "geometry": {"type": "Point", "coordinates": [8.3009083, 47.5935833]}}, {"type": "Feature", "properties": {"name": "0xfeN-_8_4x-1xNa1TSc2w", "score": 35}, "geometry": {"type": "Point", "coordinates": [8.3009083, 47.5936833]}}, {"type": "Feature", "properties": {"name": "JBZOKSihpe_DwGsOhWCTWg", "score": 49}, "geometry": {"type": "Point", "coordinates": [8.3008889, 47.5937861]}}, {"type": "Feature", "properties": {"name": "4IcGR06t9OdOe1T5Lbr2nA", "score": 33}, "geometry": {"type": "Point", "coordinates": [8.3008694, 47.5939778]}}, {"type": "Feature", "properties": {"name": "ow9nUnFWUKMZpqz7iMpAqA", "score": 44}, "geometry": {"type": "Point", "coordinates": [8.3008583, 47.5940806]}}, {"type": "Feature", "properties": {"name": "YT_NNpRxxeuR_3hf0XkXrA", "score": 11}, "geometry": {"type": "Point", "coordinates": [8.300825, 47.5941833]}}, {"type": "Feature", "properties": {"name": "9bWhaIelIlaHSytJ-wi7AA", "score": 18}, "geometry": {"type": "Point", "coordinates": [8.3008056, 47.5942778]}}, {"type": "Feature", "properties": {"name": "ZHRDU3LOSCDtsvTR-wGiVA", "score": 46}, "geometry": {"type": "Point", "coordinates": [8.3007778, 47.5943806]}}, {"type": "Feature", "properties": {"name": "nzIj1NwkLFvOUxcMma7YLA", "score": 34}, "geometry": {"type": "Point", "coordinates": [8.3006861, 47.5945889]}}, {"type": "Feature", "properties": {"name": "UF_LR6Yt-H8s3vNpYw97uA", "score": 32}, "geometry": {"type": "Point", "coordinates": [8.3006389, 47.5947056]}}, {"type": "Feature", "properties": {"name": "XDBgiQSs4Imck909E0o82A", "score": 36}, "geometry": {"type": "Point", "coordinates": [8.3005889, 47.5948139]}}, {"type": "Feature", "properties": {"name": "YQ3Un_h-Zqj2NLmP4bBuvQ", "score": 19}, "geometry": {"type": "Point", "coordinates": [8.3005472, 47.5949194]}}, {"type": "Feature", "properties": {"name": "ZbkscezTsy0YKese85-k1g", "score": 50}, "geometry": {"type": "Point", "coordinates": [8.3004611, 47.5951417]}}, {"type": "Feature", "properties": {"name": "t3ONKop5HNlx7kIBINnLZA", "score": 47}, "geometry": {"type": "Point", "coordinates": [8.3004028, 47.5952667]}}, {"type": "Feature", "properties": {"name": "Gswxf9Su278EW-Xu1zmXiQ", "score": 38}, "geometry": {"type": "Point", "coordinates": [8.30035, 47.5953889]}}, {"type": "Feature", "properties": {"name": "4NH3fDkTGhtBeneU9LY00Q", "score": 47}, "geometry": {"type": "Point", "coordinates": [8.3003, 47.5955139]}}, {"type": "Feature", "properties": {"name": "fTwMwF3eLbm57hhkdfi9IA", "score": 48}, "geometry": {"type": "Point", "coordinates": [8.3002083, 47.5957194]}}, {"type": "Feature", "properties": {"name": "VZIj8qFWA1Hpe6-ehJGSfQ", "score": 38}, "geometry": {"type": "Point", "coordinates": [8.3001472, 47.5958361]}}, {"type": "Feature", "properties": {"name": "Auj2_rmsVOev0koGINt4gQ", "score": 41}, "geometry": {"type": "Point", "coordinates": [8.300075, 47.5959389]}}, {"type": "Feature", "properties": {"name": "9kBlRhIJhjOPYSOf-oNPCg", "score": 40}, "geometry": {"type": "Point", "coordinates": [8.2999972, 47.5960417]}}, {"type": "Feature", "properties": {"name": "uZNCG7othV1zh-8p8JzgDQ", "score": 36}, "geometry": {"type": "Point", "coordinates": [8.2999028, 47.5961528]}}, {"type": "Feature", "properties": {"name": "AdIG4kBDwMwSXhwssCytBw", "score": 44}, "geometry": {"type": "Point", "coordinates": [8.2997611, 47.5962917]}}, {"type": "Feature", "properties": {"name": "VmIU0mCS5Hk3EciiS_rlTA", "score": 33}, "geometry": {"type": "Point", "coordinates": [8.2996472, 47.5963889]}}, {"type": "Feature", "properties": {"name": "HXoCD6ry_klNoTk4lGHoFQ", "score": 39}, "geometry": {"type": "Point", "coordinates": [8.299525, 47.5964917]}}, {"type": "Feature", "properties": {"name": "qZsGBHJYXou-IrJ7hYiMjQ", "score": 39}, "geometry": {"type": "Point", "coordinates": [8.2993917, 47.5966028]}}, {"type": "Feature", "properties": {"name": "Wmsa8SnKI6GvtDpIHMbZZA", "score": 36}, "geometry": {"type": "Point", "coordinates": [8.2992361, 47.5967139]}}, {"type": "Feature", "properties": {"name": "Ww3ledipqY2_i78BKAPj1g", "score": 22}, "geometry": {"type": "Point", "coordinates": [8.2991139, 47.5968083]}}, {"type": "Feature", "properties": {"name": "RrmJx_maPCb2iaPpRhAzWw", "score": 43}, "geometry": {"type": "Point", "coordinates": [8.2989972, 47.5969]}}, {"type": "Feature", "properties": {"name": "21Vso1vWiJDtvQwj7laUNQ", "score": 39}, "geometry": {"type": "Point", "coordinates": [8.2988722, 47.5970028]}}, {"type": "Feature", "properties": {"name": "sHfpwCucTrLTmuU-8F-xEw", "score": 48}, "geometry": {"type": "Point", "coordinates": [8.2986278, 47.5971778]}}, {"type": "Feature", "properties": {"name": "eGUiJsiqMYcHh2D3e5vQyg", "score": 30}, "geometry": {"type": "Point", "coordinates": [8.2985111, 47.5972667]}}, {"type": "Feature", "properties": {"name": "-e6RakAHOd2MCHW2ftcwUA", "score": 35}, "geometry": {"type": "Point", "coordinates": [8.2984056, 47.5973417]}}, {"type": "Feature", "properties": {"name": "dh4lHqIT1SDlUbwJulxACg", "score": 32}, "geometry": {"type": "Point", "coordinates": [8.29835, 47.5974222]}}, {"type": "Feature", "properties": {"name": "Y4zeX2ZLl1hF1SXiJDOU8A", "score": 2}, "geometry": {"type": "Point", "coordinates": [8.2984278, 47.5974861]}}, {"type": "Feature", "properties": {"name": "r-SiDiVJiSG-9_XvFuRc1g", "score": 28}, "geometry": {"type": "Point", "coordinates": [8.2985861, 47.5976028]}}, {"type": "Feature", "properties": {"name": "N35LOD1Psl1lUAlQgBNYZQ", "score": 41}, "geometry": {"type": "Point", "coordinates": [8.2987056, 47.5976806]}}, {"type": "Feature", "properties": {"name": "pwhLp3kQeTlpidkrddY9rQ", "score": 40}, "geometry": {"type": "Point", "coordinates": [8.2988083, 47.5977611]}}, {"type": "Feature", "properties": {"name": "PumUiOGv0mIPR-BH1YoI7w", "score": 38}, "geometry": {"type": "Point", "coordinates": [8.2989611, 47.5978694]}}, {"type": "Feature", "properties": {"name": "Q_4LWScqWwBpCjx55CAR5A", "score": 42}, "geometry": {"type": "Point", "coordinates": [8.2990333, 47.5979667]}}, {"type": "Feature", "properties": {"name": "y9ZmrdetAclZYxZT0ZKMGw", "score": 43}, "geometry": {"type": "Point", "coordinates": [8.2990861, 47.5980833]}}, {"type": "Feature", "properties": {"name": "-3Xta9QHWKSTzyOLEP0SRQ", "score": 47}, "geometry": {"type": "Point", "coordinates": [8.2991389, 47.598175]}}, {"type": "Feature", "properties": {"name": "Xf2ibjnGAL9qIE5Ct_zPyA", "score": 34}, "geometry": {"type": "Point", "coordinates": [8.2992194, 47.5982694]}}, {"type": "Feature", "properties": {"name": "29dcy9SoDhL8Otr2yew4ig", "score": 48}, "geometry": {"type": "Point", "coordinates": [8.2992778, 47.5984]}}, {"type": "Feature", "properties": {"name": "eDDxwax_i8Y3KJ_YYI83ag", "score": 39}, "geometry": {"type": "Point", "coordinates": [8.2993389, 47.5985194]}}, {"type": "Feature", "properties": {"name": "bnI9vM5i1oiBRi7FCHu6NQ", "score": 32}, "geometry": {"type": "Point", "coordinates": [8.2993944, 47.5986194]}}, {"type": "Feature", "properties": {"name": "gPepx6qTcWji8Tt2n4le-w", "score": 15}, "geometry": {"type": "Point", "coordinates": [8.2994417, 47.5987167]}}, {"type": "Feature", "properties": {"name": "qSRh4cqULgcuukIA27wNkA", "score": 15}, "geometry": {"type": "Point", "coordinates": [8.2994944, 47.5988139]}}, {"type": "Feature", "properties": {"name": "m9v3ZB3j7hZEwwbKa-mZQQ", "score": 15}, "geometry": {"type": "Point", "coordinates": [8.2995417, 47.5989278]}}, {"type": "Feature", "properties": {"name": "t8Fa2HGGHyy07kGBbNQ4bw", "score": 47}, "geometry": {"type": "Point", "coordinates": [8.2996083, 47.5990611]}}, {"type": "Feature", "properties": {"name": "wP2JXhHt3QDFwmZcrsA1qg", "score": 19}, "geometry": {"type": "Point", "coordinates": [8.2996583, 47.5991667]}}, {"type": "Feature", "properties": {"name": "5137Ax7hBcJoD2SXme7Iyg", "score": 9}, "geometry": {"type": "Point", "coordinates": [8.2997083, 47.5992889]}}, {"type": "Feature", "properties": {"name": "ZAft5M1H3x0kQigCI53f9Q", "score": 28}, "geometry": {"type": "Point", "coordinates": [8.2997556, 47.599425]}}, {"type": "Feature", "properties": {"name": "hIlZTUf-9MxX8gaTPc3OqQ", "score": 37}, "geometry": {"type": "Point", "coordinates": [8.2998472, 47.5996778]}}, {"type": "Feature", "properties": {"name": "JUwhcMD2jPNiyqaAF0eb-A", "score": 40}, "geometry": {"type": "Point", "coordinates": [8.2998833, 47.5997833]}}, {"type": "Feature", "properties": {"name": "7KsP6ZFz-f6tSKf_4JbaDw", "score": 38}, "geometry": {"type": "Point", "coordinates": [8.2999194, 47.5998972]}}, {"type": "Feature", "properties": {"name": "vIwH9M8E4u70gguqe7iuDA", "score": 42}, "geometry": {"type": "Point", "coordinates": [8.2999667, 47.6000111]}}, {"type": "Feature", "properties": {"name": "gZLFSHXmlRNivwt5AviAmA", "score": 41}, "geometry": {"type": "Point", "coordinates": [8.3000083, 47.6001194]}}, {"type": "Feature", "properties": {"name": "VSsF-9Oo4fbAn3Xis8Yfzg", "score": 49}, "geometry": {"type": "Point", "coordinates": [8.3001222, 47.6003417]}}, {"type": "Feature", "properties": {"name": "UbfaHipkGZijKNzy4_XYfA", "score": 38}, "geometry": {"type": "Point", "coordinates": [8.3001861, 47.60045]}}, {"type": "Feature", "properties": {"name": "qmwVCfLNKR7QqzqLVBRf5A", "score": 44}, "geometry": {"type": "Point", "coordinates": [8.3002583, 47.6005472]}}, {"type": "Feature", "properties": {"name": "WI23NOe99UJ_wTvZoax_zA", "score": 7}, "geometry": {"type": "Point", "coordinates": [8.3003083, 47.6006389]}}, {"type": "Feature", "properties": {"name": "wJYGT1MLDYeZjsGDKdyxIA", "score": 14}, "geometry": {"type": "Point", "coordinates": [8.3003333, 47.6008389]}}, {"type": "Feature", "properties": {"name": "N1q3h0rXjlO_dx_pO6PAVA", "score": 47}, "geometry": {"type": "Point", "coordinates": [8.3003444, 47.6009667]}}, {"type": "Feature", "properties": {"name": "W1k_la5USshkSZozLhzOog", "score": 35}, "geometry": {"type": "Point", "coordinates": [8.3003528, 47.6010778]}}, {"type": "Feature", "properties": {"name": "Esvds514xNn4g7I44GVFXA", "score": 36}, "geometry": {"type": "Point", "coordinates": [8.300375, 47.6011944]}}, {"type": "Feature", "properties": {"name": "5qV8HFB4zQ4pPngqHNdC4w", "score": 32}, "geometry": {"type": "Point", "coordinates": [8.3004194, 47.6013556]}}, {"type": "Feature", "properties": {"name": "WjIXMlq2Xpm8sCM-J8IskA", "score": 43}, "geometry": {"type": "Point", "coordinates": [8.3004556, 47.6014611]}}, {"type": "Feature", "properties": {"name": "RmNO2R1nSYlQivJLqysMuw", "score": 30}, "geometry": {"type": "Point", "coordinates": [8.3004833, 47.6015528]}}, {"type": "Feature", "properties": {"name": "LGf1o6huFx7bxyS1tT_nWA", "score": 50}, "geometry": {"type": "Point", "coordinates": [8.3005139, 47.60165]}}, {"type": "Feature", "properties": {"name": "TiczLZROFZyRqTpHrZUwMA", "score": 50}, "geometry": {"type": "Point", "coordinates": [8.3005694, 47.6018444]}}, {"type": "Feature", "properties": {"name": "QH_ZSM4PLkAOq1OgEyQFuw", "score": 44}, "geometry": {"type": "Point", "coordinates": [8.3006111, 47.6019583]}}, {"type": "Feature", "properties": {"name": "IRZxX6Ri0kuaD9_V5xf1pA", "score": 38}, "geometry": {"type": "Point", "coordinates": [8.3006333, 47.6020694]}}, {"type": "Feature", "properties": {"name": "yOe_fSlGkTgHyMupMUHrQg", "score": 43}, "geometry": {"type": "Point", "coordinates": [8.3006639, 47.602175]}}, {"type": "Feature", "properties": {"name": "6FTTIdK5rFfZjm57ZQnqlg", "score": 33}, "geometry": {"type": "Point", "coordinates": [8.3006889, 47.6022861]}}, {"type": "Feature", "properties": {"name": "FPceJ0xTZDvC0GdURdU22w", "score": 41}, "geometry": {"type": "Point", "coordinates": [8.3006972, 47.6025306]}}, {"type": "Feature", "properties": {"name": "rg_B_Q9oI1RK6plvvO3PyQ", "score": 41}, "geometry": {"type": "Point", "coordinates": [8.3006917, 47.6026556]}}, {"type": "Feature", "properties": {"name": "Mi-SJjaWPnFs8nb_X4xCaw", "score": 26}, "geometry": {"type": "Point", "coordinates": [8.3006167, 47.602775]}}, {"type": "Feature", "properties": {"name": "kLIKx01IJr9dMYDOYDaq5w", "score": 34}, "geometry": {"type": "Point", "coordinates": [8.3005056, 47.6028889]}}, {"type": "Feature", "properties": {"name": "Sc2XpzJRkmW5QwUgVKCjsQ", "score": 35}, "geometry": {"type": "Point", "coordinates": [8.3004833, 47.6029694]}}, {"type": "Feature", "properties": {"name": "cOvi4WGFFNkGZVY6wNEKzQ", "score": 42}, "geometry": {"type": "Point", "coordinates": [8.3004667, 47.6030806]}}, {"type": "Feature", "properties": {"name": "w7x8Ej-RO9M8_Lt3c5mPuw", "score": 44}, "geometry": {"type": "Point", "coordinates": [8.3004889, 47.6031639]}}, {"type": "Feature", "properties": {"name": "rNGGX4GqaQ_ff_8YPd78zA", "score": 33}, "geometry": {"type": "Point", "coordinates": [8.3004944, 47.6031861]}}, {"type": "Feature", "properties": {"name": "BOXKYfJAimjEJ9A0nVvmNQ", "score": 50}, "geometry": {"type": "Point", "coordinates": [8.3006139, 47.6036778]}}, {"type": "Feature", "properties": {"name": "6muDSDHPYgNDYjmdmWNsDQ", "score": 32}, "geometry": {"type": "Point", "coordinates": [8.3006944, 47.6038472]}}, {"type": "Feature", "properties": {"name": "x1Etz-zaB3-M5MrL6fZVBg", "score": 39}, "geometry": {"type": "Point", "coordinates": [8.3007417, 47.6039389]}}, {"type": "Feature", "properties": {"name": "H87-98sdwTwzHy-2e0ksFg", "score": 37}, "geometry": {"type": "Point", "coordinates": [8.3007556, 47.6040111]}}, {"type": "Feature", "properties": {"name": "iLMCSN5ppmYGQ9GReG5e1Q", "score": 49}, "geometry": {"type": "Point", "coordinates": [8.3007972, 47.604075]}}, {"type": "Feature", "properties": {"name": "sycSlC465VC-bsqP_nnuLg", "score": 43}, "geometry": {"type": "Point", "coordinates": [8.3008167, 47.6041444]}}, {"type": "Feature", "properties": {"name": "k2wZLvqvv-N3MT6l7G_OXQ", "score": 29}, "geometry": {"type": "Point", "coordinates": [8.3008694, 47.6042722]}}, {"type": "Feature", "properties": {"name": "bqADueKJzW9FCpAWjYXWKg", "score": 26}, "geometry": {"type": "Point", "coordinates": [8.3004361, 47.6030056]}}, {"type": "Feature", "properties": {"name": "La07TiHYKnO8UbfNMr_MMA", "score": 50}, "geometry": {"type": "Point", "coordinates": [8.3003944, 47.6030111]}}, {"type": "Feature", "properties": {"name": "20Pfkf4kEd7qNYpOr_7ebw", "score": 43}, "geometry": {"type": "Point", "coordinates": [8.3003278, 47.6030361]}}, {"type": "Feature", "properties": {"name": "T7Q2NNV4QmV6R_SYLb5BPA", "score": 44}, "geometry": {"type": "Point", "coordinates": [8.3001889, 47.6030667]}}, {"type": "Feature", "properties": {"name": "fx2-h8f_lYBPgzbz9XgMog", "score": 33}, "geometry": {"type": "Point", "coordinates": [8.3001, 47.6030972]}}, {"type": "Feature", "properties": {"name": "Qvs13eBV7Wc1m7Kvipr8ug", "score": 35}, "geometry": {"type": "Point", "coordinates": [8.3000139, 47.6031417]}}, {"type": "Feature", "properties": {"name": "fbARVNCTmjEMVsp6-Cq5MQ", "score": 32}, "geometry": {"type": "Point", "coordinates": [8.2998944, 47.6031833]}}, {"type": "Feature", "properties": {"name": "AEaw6GBRdedypnKc7y3knQ", "score": 49}, "geometry": {"type": "Point", "coordinates": [8.2996833, 47.6032556]}}, {"type": "Feature", "properties": {"name": "5UGCc5lBhMnTdZiGwTythQ", "score": 38}, "geometry": {"type": "Point", "coordinates": [8.2995556, 47.6032889]}}, {"type": "Feature", "properties": {"name": "TZWljzSCUHhB0sIwyXungw", "score": 44}, "geometry": {"type": "Point", "coordinates": [8.2994472, 47.6033222]}}, {"type": "Feature", "properties": {"name": "nP6_TCKEf30Rr9Ja56DyVA", "score": 45}, "geometry": {"type": "Point", "coordinates": [8.2993278, 47.6033667]}},