{"type": "FeatureCollection", "features": [{"type": "Feature", "properties": {"name": "asnAVz8sHsQGFbUCkk0Hn8", "score": 15.397927179978224}, "geometry": {"type": "Point", "coordinates": [7.4697179, 46.9308894]}}, {"type": "Feature", "properties": {"name": "W49DqzJNqP6vmQ0tEac34Q", "score": 41.142695746006865}, "geometry": {"type": "Point", "coordinates": [7.4697043, 46.9309022]}}, {"type": "Feature", "properties": {"name": "sYxfcYXCDu8n3XVGW89EGD", "score": 37.62952889533246}, "geometry": {"type": "Point", "coordinates": [7.4697043, 46.9309022]}}, {"type": "Feature", "properties": {"name": "Zqr2esQyZ6HfnkHDjqn51q", "score": 12.688401941057764}, "geometry": {"type": "Point", "coordinates": [7.4697043, 46.9309022]}}, {"type": "Feature", "properties": {"name": "CsaTHMPgB1PgKEYV5Mr39a", "score": 13.91453163365083}, "geometry": {"type": "Point", "coordinates": [7.4697043, 46.9309022]}}, {"type": "Feature", "properties": {"name": "KTVR3jYwZMrnPL1tXOpaXQ", "score": 38.38567641706421}, "geometry": {"type": "Point", "coordinates": [7.4696525, 46.9309393]}}, {"type": "Feature", "properties": {"name": "OWBNDEgdJ4Ej9aLCwBVaDE", "score": 37.443953171648936}, "geometry": {"type": "Point", "coordinates": [7.4695898, 46.9309704]}}, {"type": "Feature", "properties": {"name": "TdG5FtiSBsrVIuGefMX0MX", "score": 13.019364227477327}, "geometry": {"type": "Point", "coordinates": [7.4695898, 46.9309704]}}, {"type": "Feature", "properties": {"name": "I4Q4uOimjxxADt3m7Mf1Zw", "score": 37.372840562652186}, "geometry": {"type": "Point", "coordinates": [7.4695364, 46.9310038]}}, {"type": "Feature", "properties": {"name": "JJyuDRHT8Nrf1G8V2lLLms", "score": 36.80362496735754}, "geometry": {"type": "Point", "coordinates": [7.4695364, 46.9310038]}}, {"type": "Feature", "properties": {"name": "2GCWN3L0NQCeDcJOSSuNMY", "score": 36.32089450047664}, "geometry": {"type": "Point", "coordinates": [7.4695364, 46.9310038]}}, {"type": "Feature", "properties": {"name": "pWHdKK8k8BZLcldxWAxYhx", "score": 35.901988517692416}, "geometry": {"type": "Point", "coordinates": [7.4695364, 46.9310038]}}, {"type": "Feature", "properties": {"name": "VM5NFHbgdcZUG8MRzRMVT0", "score": 35.53183601363784}, "geometry": {"type": "Point", "coordinates": [7.4694582, 46.9310418]}}, {"type": "Feature", "properties": {"name": "RX8rcDaEKXmDACDGI3pG6h", "score": 35.199968704136175}, "geometry": {"type": "Point", "coordinates": [7.4694582, 46.9310418]}}, {"type": "Feature", "properties": {"name": "YTwsbFcvsERdjah4WBGDFU", "score": 34.89885755345254}, "geometry": {"type": "Point", "coordinates": [7.4693841, 46.9310745]}}, {"type": "Feature", "properties": {"name": "nVWvKgedp5BAeRowzWsF3w", "score": 34.62293103266853}, "geometry": {"type": "Point", "coordinates": [7.4693841, 46.9310745]}}, {"type": "Feature", "properties": {"name": "olcIBHCBHCDTSXI9FAf4fK", "score": 10.278034368403533}, "geometry": {"type": "Point", "coordinates": [7.469301, 46.9310944]}}, {"type": "Feature", "properties": {"name": "nVIDOpoFTXudozPrZ1Jy14", "score": 34.797015780992595}, "geometry": {"type": "Point", "coordinates": [7.4692196, 46.9311157]}}, {"type": "Feature", "properties": {"name": "AJ3T3nCsvgFBkKQtOZtVCX", "score": 10.478722021109213}, "geometry": {"type": "Point", "coordinates": [7.4690745, 46.9311589]}}, {"type": "Feature", "properties": {"name": "AdqWDkOn8XiarGxMtyG8KV", "score": 10.921462849542229}, "geometry": {"type": "Point", "coordinates": [7.468992, 46.9311783]}}, {"type": "Feature", "properties": {"name": "TCvXvZhUHwA1Wd1UbmHWkD", "score": 34.602072820021775}, "geometry": {"type": "Point", "coordinates": [7.468992, 46.9311783]}}, {"type": "Feature", "properties": {"name": "kj7COSYzyL2kRtick5yIyr", "score": 31.367311666535375}, "geometry": {"type": "Point", "coordinates": [7.468992, 46.9311783]}}, {"type": "Feature", "properties": {"name": "cFTwGqU1lid4MqFEbeCkaq", "score": 30.18704038481116}, "geometry": {"type": "Point", "coordinates": [7.468934, 46.9312121]}}, {"type": "Feature", "properties": {"name": "Gs2FXP6hka7ppBC294G16H", "score": 29.53529314744165}, "geometry": {"type": "Point", "coordinates": [7.468934, 46.9312121]}}, {"type": "Feature", "properties": {"name": "go4V8t8wh3Av4fzLf26LBS", "score": 29.104379383708746}, "geometry": {"type": "Point", "coordinates": [7.468934, 46.9312121]}}, {"type": "Feature", "properties": {"name": "RbDUq3QjKhizXyJGW6TJGU", "score": 28.79027958017317}, "geometry": {"type": "Point", "coordinates": [7.4688708, 46.9312274]}}, {"type": "Feature", "properties": {"name": "zEo857BmdhHZ1RumMfUKO9", "score": 28.546917555525187}, "geometry": {"type": "Point", "coordinates": [7.4688708, 46.9312274]}}, {"type": "Feature", "properties": {"name": "KS2XezFtFgLi86BehtnE7H", "score": 28.350317411984467}, "geometry": {"type": "Point", "coordinates": [7.4688708, 46.9312274]}}, {"type": "Feature", "properties": {"name": "uelYd4mtwN7Kvaprlx73lO", "score": 28.186591496416195}, "geometry": {"type": "Point", "coordinates": [7.4687966, 46.9312508]}}, {"type": "Feature", "properties": {"name": "wrZdOZgTvCqd1K1C0b6RkE", "score": 28.047054484366996}, "geometry": {"type": "Point", "coordinates": [7.4687966, 46.9312508]}}, {"type": "Feature", "properties": {"name": "4iepol0bjJbTTaNQp2WwpO", "score": 43.80477417589167}, "geometry": {"type": "Point", "coordinates": [7.4687296, 46.9312793]}}, {"type": "Feature", "properties": {"name": "gcDT4mW7obUGCiJvlD5Dm5", "score": 27.819297162561664}, "geometry": {"type": "Point", "coordinates": [7.4687296, 46.9312793]}}, {"type": "Feature", "properties": {"name": "weHxKCyLDd0QnGokr7JUtQ", "score": 27.724224616437706}, "geometry": {"type": "Point", "coordinates": [7.4687296, 46.9312793]}}, {"type": "Feature", "properties": {"name": "69mZQE4ZnFAavcfw3ffLqq", "score": 27.63861476993814}, "geometry": {"type": "Point", "coordinates": [7.4686631, 46.9312959]}}, {"type": "Feature", "properties": {"name": "0ubauU1nJMv4GRVz5F3HVS", "score": 27.560859844736097}, "geometry": {"type": "Point", "coordinates": [7.4686631, 46.9312959]}}, {"type": "Feature", "properties": {"name": "vqS6XTurGL7RK70j9MRidc", "score": 27.48971465067471}, "geometry": {"type": "Point", "coordinates": [7.4686631, 46.9312959]}}, {"type": "Feature", "properties": {"name": "2dj6EInJQjgNJCwigqbpoZ", "score": 8.126301858454745}, "geometry": {"type": "Point", "coordinates": [7.4686631, 46.9312959]}}, {"type": "Feature", "properties": {"name": "6jl57Gj9VPJbuClKHkszlE", "score": 27.363521657964444}, "geometry": {"type": "Point", "coordinates": [7.4686631, 46.9312959]}}, {"type": "Feature", "properties": {"name": "88mAJq5DePdaoQWjqMBqUg", "score": 27.307049184691994}, "geometry": {"type": "Point", "coordinates": [7.4685994, 46.931311]}}, {"type": "Feature", "properties": {"name": "PnGIuiWmDvTEFjDpukHEf8", "score": 27.254255413353214}, "geometry": {"type": "Point", "coordinates": [7.4684836, 46.9313451]}}, {"type": "Feature", "properties": {"name": "d7zuJUaoZvDjQ8Bnpqr7bc", "score": 15.397927179978224}, "geometry": {"type": "Point", "coordinates": [7.4684836, 46.9313451]}}, {"type": "Feature", "properties": {"name": "ZKJt3JUZqFxSnwAKG8H4Nh", "score": 18.632688333464632}, "geometry": {"type": "Point", "coordinates": [7.4684222, 46.9313659]}}, {"type": "Feature", "properties": {"name": "VFjWteUmulIyEYW8O3MLZH", "score": 19.812959615188852}, "geometry": {"type": "Point", "coordinates": [7.4683669, 46.9313959]}}, {"type": "Feature", "properties": {"name": "uUBVdwe9dgRCq8VvHo3Ogl", "score": 20.464706852558336}, "geometry": {"type": "Point", "coordinates": [7.4683062, 46.9314337]}}, {"type": "Feature", "properties": {"name": "940Lcnuu83JF83rA720hNh", "score": 20.895620616291243}, "geometry": {"type": "Point", "coordinates": [7.4682536, 46.9314759]}}, {"type": "Feature", "properties": {"name": "sDmu7SH5x1h57lAqQlMvMD", "score": 21.209720419826805}, "geometry": {"type": "Point", "coordinates": [7.4682055, 46.9315129]}}, {"type": "Feature", "properties": {"name": "bGeJOzfKk1eAVRxaX5OymU", "score": 21.453082444474795}, "geometry": {"type": "Point", "coordinates": [7.4679549, 46.9316887]}}, {"type": "Feature", "properties": {"name": "AgbxaaXz7yQ6ZmekE8toq2", "score": 21.64968258801554}, "geometry": {"type": "Point", "coordinates": [7.4678852, 46.9317372]}}, {"type": "Feature", "properties": {"name": "MRNvTwNNOAmb44SsQckZSe", "score": 21.813408503583794}, "geometry": {"type": "Point", "coordinates": [7.4678109, 46.9317898]}}, {"type": "Feature", "properties": {"name": "xNsFCzVGEES0HrrSDqZHvb", "score": 21.952945515632972}, "geometry": {"type": "Point", "coordinates": [7.4677343, 46.9318188]}}, {"type": "Feature", "properties": {"name": "5aG2zLgbp3lBFZhmbPT9mU", "score": 22.074047786138056}, "geometry": {"type": "Point", "coordinates": [7.4676434, 46.9318666]}}, {"type": "Feature", "properties": {"name": "LfrsRjm4HLvSYDfmLLW71K", "score": 35.77182896657713}, "geometry": {"type": "Point", "coordinates": [7.4675894, 46.9319063]}}, {"type": "Feature", "properties": {"name": "zHKbquB8YGpXeVaSpiD5U4", "score": 22.275775383562284}, "geometry": {"type": "Point", "coordinates": [7.4675894, 46.9319063]}}, {"type": "Feature", "properties": {"name": "K6TERdTbrmOAfRYsj5COHa", "score": 22.36138523006184}, "geometry": {"type": "Point", "coordinates": [7.4675894, 46.9319063]}}, {"type": "Feature", "properties": {"name": "77DfXWSiiXUpisb5yMzD1C", "score": 22.43914015526392}, "geometry": {"type": "Point", "coordinates": [7.4675894, 46.9319063]}}, {"type": "Feature", "properties": {"name": "V1qA5oZusYFKo2YmbZgxfL", "score": 22.510285349325297}, "geometry": {"type": "Point", "coordinates": [7.4675037, 46.9319525]}}, {"type": "Feature", "properties": {"name": "f7SrJFoLx6MnO4JredpmnI", "score": 22.57580264149863}, "geometry": {"type": "Point", "coordinates": [7.4675037, 46.9319525]}}, {"type": "Feature", "properties": {"name": "Tv255cw1CaRkNXMqM3e5zX", "score": 22.636478342035577}, "geometry": {"type": "Point", "coordinates": [7.4675037, 46.9319525]}}, {"type": "Feature", "properties": {"name": "dJRDQe8nwtJfQT0hxbPM8v", "score": 22.692950815308027}, "geometry": {"type": "Point", "coordinates": [7.4674282, 46.9319952]}}, {"type": "Feature", "properties": {"name": "jUGIMbgEQXQLCK94jikObp", "score": 15.660722001488981}, "geometry": {"type": "Point", "coordinates": [7.4673417, 46.9320357]}}, {"type": "Feature", "properties": {"name": "VUV16BAuwRC3SWj6EUpTLI", "score": 15.397927179978224}, "geometry": {"type": "Point", "coordinates": [7.4672681, 46.9320794]}}, {"type": "Feature", "properties": {"name": "aZP0CP6GLfJJXVciGqKPsW", "score": 22.809150592923217}, "geometry": {"type": "Point", "coordinates": [7.4671916, 46.9321262]}}, {"type": "Feature", "properties": {"name": "bUxxBTEQyEODe8jODXgVsG", "score": 19.812959615188852}, "geometry": {"type": "Point", "coordinates": [7.4671059, 46.9321537]}}, {"type": "Feature", "properties": {"name": "eL7P7a67ZwNX1yuqLeqBsR", "score": 20.464706852558336}, "geometry": {"type": "Point", "coordinates": [7.4671059, 46.9321537]}}, {"type": "Feature", "properties": {"name": "IRo2q25WWmJI2YZWSd5dge", "score": 20.895620616291243}, "geometry": {"type": "Point", "coordinates": [7.4670199, 46.9321969]}}, {"type": "Feature", "properties": {"name": "ZUfTAyQ9jpbs9VXk3jn7vE", "score": 21.209720419826805}, "geometry": {"type": "Point", "coordinates": [7.4669454, 46.9322152]}}, {"type": "Feature", "properties": {"name": "DQSQ9sEgDPs2V7yy9DaDuA", "score": 21.453082444474795}, "geometry": {"type": "Point", "coordinates": [7.4668877, 46.9322449]}}, {"type": "Feature", "properties": {"name": "fDbdLllUFwAngMIwibZHfw", "score": 21.64968258801554}, "geometry": {"type": "Point", "coordinates": [7.4668877, 46.9322449]}}, {"type": "Feature", "properties": {"name": "McZ5RUQXPHdDkAN2Va63Dg", "score": 17.570167034824447}, "geometry": {"type": "Point", "coordinates": [7.4668314, 46.932282]}}, {"type": "Feature", "properties": {"name": "hzpCCrwFpOscn440hYeOZ8", "score": 21.952945515632972}, "geometry": {"type": "Point", "coordinates": [7.4667381, 46.9323217]}}, {"type": "Feature", "properties": {"name": "vpdRCECX1iKWm1meXIgDbL", "score": 22.074047786138056}, "geometry": {"type": "Point", "coordinates": [7.466695, 46.9323372]}}, {"type": "Feature", "properties": {"name": "EKkchfWN0rvv9zdEts77q2", "score": 22.180702837438318}, "geometry": {"type": "Point", "coordinates": [7.4666335, 46.9323448]}}, {"type": "Feature", "properties": {"name": "pp34APgvuRYx5oGK8nm4Le", "score": 22.275775383562284}, "geometry": {"type": "Point", "coordinates": [7.4665206, 46.9323881]}}, {"type": "Feature", "properties": {"name": "RcDsfns6mU8cglNIq2uIel", "score": 22.36138523006184}, "geometry": {"type": "Point", "coordinates": [7.4664482, 46.9324202]}}, {"type": "Feature", "properties": {"name": "174D8iRPaAM8Rzwoylgl3U", "score": 22.43914015526392}, "geometry": {"type": "Point", "coordinates": [7.4663584, 46.9324571]}}, {"type": "Feature", "properties": {"name": "rMhJaIvyT9hkgzudbdWkol", "score": 22.510285349325297}, "geometry": {"type": "Point", "coordinates": [7.4663177, 46.9324809]}}, {"type": "Feature", "properties": {"name": "kgvSpTsqnsucjoLceQTnzf", "score": 22.57580264149863}, "geometry": {"type": "Point", "coordinates": [7.4662313, 46.9325293]}}, {"type": "Feature", "properties": {"name": "ojqCsDJDeK9WzSRJQ9I4B4", "score": 22.636478342035577}, "geometry": {"type": "Point", "coordinates": [7.4662313, 46.9325293]}}, {"type": "Feature", "properties": {"name": "MhoaYn4cqgTqjfcLy5QzWV", "score": 22.692950815308027}, "geometry": {"type": "Point", "coordinates": [7.4662313, 46.9325293]}}, {"type": "Feature", "properties": {"name": "m4TUAyWYHmbTQ8W9oh6Y3e", "score": 22.745744586646797}, "geometry": {"type": "Point", "coordinates": [7.4661835, 46.9325549]}}, {"type": "Feature", "properties": {"name": "GqBJJ438dxYOwYAo9fsCQA", "score": 34.602072820021775}, "geometry": {"type": "Point", "coordinates": [7.4661326, 46.9325797]}}, {"type": "Feature", "properties": {"name": "ROLD7mKtggGnfDfxaUmxjd", "score": 29.4046179315168}, "geometry": {"type": "Point", "coordinates": [7.4661326, 46.9325797]}}, {"type": "Feature", "properties": {"name": "rxPhYbeMVIUwSx3flv7ffO", "score": 30.18704038481116}, "geometry": {"type": "Point", "coordinates": [7.4660544, 46.9326014]}}, {"type": "Feature", "properties": {"name": "YR9EhvQxKIkccDvfKzkxdg", "score": 4.826874970186858}, "geometry": {"type": "Point", "coordinates": [7.4660544, 46.9326014]}}, {"type": "Feature", "properties": {"name": "WROROSfB6IR0NjF13A30XY", "score": 31.982105438076758}, "geometry": {"type": "Point", "coordinates": [7.4660544, 46.9326014]}}, {"type": "Feature", "properties": {"name": "nTtXAgZ5TSWEe0Npew8QfP", "score": 31.47607567156637}, "geometry": {"type": "Point", "coordinates": [7.4660544, 46.9326014]}}, {"type": "Feature", "properties": {"name": "BP1FUCbyWN3FHKC9ZX1PBK", "score": 31.08589785185443}, "geometry": {"type": "Point", "coordinates": [7.4660544, 46.9326014]}}, {"type": "Feature", "properties": {"name": "lgjr68SwnonptTVLz1E7ug", "score": 30.771081828373806}, "geometry": {"type": "Point", "coordinates": [7.4659912, 46.9326358]}}, {"type": "Feature", "properties": {"name": "boz4zv3fPombvJNc20XcRo", "score": 30.508652674339583}, "geometry": {"type": "Point", "coordinates": [7.4659912, 46.9326358]}}, {"type": "Feature", "properties": {"name": "WLQ0sUHS2B47oxZttrVV8A", "score": 30.284453949799612}, "geometry": {"type": "Point", "coordinates": [7.4659155, 46.932665]}}, {"type": "Feature", "properties": {"name": "g8kWcN5Z5yPNvw3JQ5ndnE", "score": 30.08921103321449}, "geometry": {"type": "Point", "coordinates": [7.4659155, 46.932665]}}, {"type": "Feature", "properties": {"name": "XP0WlTX6wNoTmHLhXtzFx4", "score": 29.91655244939683}, "geometry": {"type": "Point", "coordinates": [7.4659155, 46.932665]}}, {"type": "Feature", "properties": {"name": "1w7CMq0aMVYhi4o9kz3y6W", "score": 3.989934789819269}, "geometry": {"type": "Point", "coordinates": [7.4659155, 46.932665]}}, {"type": "Feature", "properties": {"name": "adR6GxIiK59qzSwhLQ0xMq", "score": 5.345457080196122}, "geometry": {"type": "Point", "coordinates": [7.4657587, 46.9327349]}}, {"type": "Feature", "properties": {"name": "SJB5lXa2LjlQsjfwYCFlkc", "score": 6.404007079266968}, "geometry": {"type": "Point", "coordinates": [7.4656752, 46.9327667]}}, {"type": "Feature", "properties": {"name": "XIHWgcxeEUFyOHpevcOEoy", "score": 7.269683587769547}, "geometry": {"type": "Point", "coordinates": [7.4656003, 46.9328051]}}, {"type": "Feature", "properties": {"name": "vRrXMCZh19QFubvN4Ne7B7", "score": 8.001647277110001}, "geometry": {"type": "Point", "coordinates": [7.4656003, 46.9328051]}}, {"type": "Feature", "properties": {"name": "fsKlwSEy4s4uhcJaqPZAsP", "score": 33.03918591036742}, "geometry": {"type": "Point", "coordinates": [7.4655421, 46.9328525]}}, {"type": "Feature", "properties": {"name": "ailHYUFw4ZdwnCuMebPZvL", "score": 8.395523217924511}, "geometry": {"type": "Point", "coordinates": [7.4652025, 46.9331954]}}, {"type": "Feature", "properties": {"name": "Hfm9DSXsvWqUEPOFPn20E5", "score": 8.961266058182982}, "geometry": {"type": "Point", "coordinates": [7.4651002, 46.9332496]}}, {"type": "Feature", "properties": {"name": "v0AgCGILH57ERc9vRSqklp", "score": 34.602072820021775}, "geometry": {"type": "Point", "coordinates": [7.4651002, 46.9332496]}}, {"type": "Feature", "properties": {"name": "FMOnux7s3ckXklg3YP4z90", "score": 8.857304253993142}, "geometry": {"type": "Point", "coordinates": [7.4650086, 46.9332829]}}, {"type": "Feature", "properties": {"name": "9k3slaTQk6XQa37HkswqUd", "score": 12.370471104667526}, "geometry": {"type": "Point", "coordinates": [7.4649188, 46.9333382]}}, {"type": "Feature", "properties": {"name": "EuASlCTpjg11Y9APdRMb3A", "score": 37.31159805894224}, "geometry": {"type": "Point", "coordinates": [7.4649188, 46.9333382]}}, {"type": "Feature", "properties": {"name": "61s9ef2ApNsYh91To7b8Hu", "score": 7.918546067941205}, "geometry": {"type": "Point", "coordinates": [7.4649188, 46.9333382]}}, {"type": "Feature", "properties": {"name": "86sGic9PybxyXpuHTJQacX", "score": 13.626447425329642}, "geometry": {"type": "Point", "coordinates": [7.4649188, 46.9333382]}}, {"type": "Feature", "properties": {"name": "QfLMJmIAlVmzRxPht2E36V", "score": 14.35954591576951}, "geometry": {"type": "Point", "coordinates": [7.4648163, 46.9334055]}}, {"type": "Feature", "properties": {"name": "c8nyPN2noAvT9dipkNI4Iv", "score": 38.72653018526162}, "geometry": {"type": "Point", "coordinates": [7.4646911, 46.933477]}}, {"type": "Feature", "properties": {"name": "qIg7aTTkgpSNwl5rYFI1eQ", "score": 14.196010376526132}, "geometry": {"type": "Point", "coordinates": [7.4645929, 46.9335315]}}, {"type": "Feature", "properties": {"name": "elOaz57svP4YEA4kfWoUrt", "score": 14.661570102643466}, "geometry": {"type": "Point", "coordinates": [7.4644877, 46.9335901]}}, {"type": "Feature", "properties": {"name": "ImMS9T5xTYRLAc8gDng7Op", "score": 38.97837995097172}, "geometry": {"type": "Point", "coordinates": [7.4643811, 46.9336497]}}, {"type": "Feature", "properties": {"name": "ygQBl5AOIQnQTeVA5kVJ2l", "score": 38.38494135209688}, "geometry": {"type": "Point", "coordinates": [7.4642928, 46.9337015]}}, {"type": "Feature", "properties": {"name": "5Whh1n0riTYzY9Hc9zHbAM", "score": 37.8734775654364}, "geometry": {"type": "Point", "coordinates": [7.4642028, 46.9337473]}}, {"type": "Feature", "properties": {"name": "UNaMhtptzTjdymJNHDqTFT", "score": 37.423760899879284}, "geometry": {"type": "Point", "coordinates": [7.464129, 46.933796]}}, {"type": "Feature", "properties": {"name": "nth4yzHXUU7scXC79eHvFq", "score": 37.021985483868}, "geometry": {"type": "Point", "coordinates": [7.4640642, 46.93384]}}, {"type": "Feature", "properties": {"name": "SRVEiMB84M1DYuRxD6iKds", "score": 36.658364663036544}, "geometry": {"type": "Point", "coordinates": [7.4640077, 46.933881]}}, {"type": "Feature", "properties": {"name": "5iLCiYsceE5FRMXFnkvKNe", "score": 36.325744120983956}, "geometry": {"type": "Point", "coordinates": [7.4640077, 46.933881]}}, {"type": "Feature", "properties": {"name": "0jPsnMYGtSrJMHfpPvfkQh", "score": 12.100070168937156}, "geometry": {"type": "Point", "coordinates": [7.4640077, 46.933881]}}, {"type": "Feature", "properties": {"name": "nuvnVCUpBKjxyYYnsU0GaV", "score": 36.375862927050655}, "geometry": {"type": "Point", "coordinates": [7.4640034, 46.9352602]}}, {"type": "Feature", "properties": {"name": "mgAWNNhIvgyjEPpevEfLR7", "score": 36.08522063093732}, "geometry": {"type": "Point", "coordinates": [7.46406, 46.9353135]}}, {"type": "Feature", "properties": {"name": "60Uj4BqVofZ8UT3aKvG1NX", "score": 34.602072820021775}, "geometry": {"type": "Point", "coordinates": [7.4641267, 46.9353888]}}, {"type": "Feature", "properties": {"name": "bEe0uXj8vtQAqPITyj2z6H", "score": 31.367311666535375}, "geometry": {"type": "Point", "coordinates": [7.4641612, 46.9354344]}}, {"type": "Feature", "properties": {"name": "eDuiCc2rlpsBvnIJ6Hqpdi", "score": 30.18704038481116}, "geometry": {"type": "Point", "coordinates": [7.4642067, 46.9354806]}}, {"type": "Feature", "properties": {"name": "gQ1zTWApgfywejvAhSdM32", "score": 29.53529314744165}, "geometry": {"type": "Point", "coordinates": [7.4642456, 46.9355192]}}, {"type": "Feature", "properties": {"name": "kj61ViQ2d8nXQmLubrMP6c", "score": 29.104379383708746}, "geometry": {"type": "Point", "coordinates": [7.4642915, 46.9355655]}}, {"type": "Feature", "properties": {"name": "jGeEipid8svi53a3DvEWB2", "score": 28.79027958017317}, "geometry": {"type": "Point", "coordinates": [7.464343, 46.935597]}}, {"type": "Feature", "properties": {"name": "1C7UjWljs6rMqolFErupfa", "score": 28.546917555525187}, "geometry": {"type": "Point", "coordinates": [7.4643931, 46.9356459]}}, {"type": "Feature", "properties": {"name": "ztvlYqPzwysqhMOmUEa3Fb", "score": 28.350317411984467}, "geometry": {"type": "Point", "coordinates": [7.4644527, 46.9356918]}}, {"type": "Feature", "properties": {"name": "WyM0cZqzyw1PTKpUboJHIh", "score": 28.186591496416195}, "geometry": {"type": "Point", "coordinates": [7.4644527, 46.9356918]}}, {"type": "Feature", "properties": {"name": "IDPu0zr86r5SVD2yxJ8BoR", "score": 28.047054484366996}, "geometry": {"type": "Point", "coordinates": [7.4645019, 46.9357359]}}, {"type": "Feature", "properties": {"name": "WHrdLGSkNuk9dhAMTWFFb9", "score": 27.925952213861944}, "geometry": {"type": "Point", "coordinates": [7.4645418, 46.9357794]}}, {"type": "Feature", "properties": {"name": "MfiXSYfFaw95MSGuM7j2WF", "score": 27.819297162561664}, "geometry": {"type": "Point", "coordinates": [7.464592, 46.9358224]}}, {"type": "Feature", "properties": {"name": "TV7pr8V9GKKirUYIWLFk56", "score": 27.724224616437706}, "geometry": {"type": "Point", "coordinates": [7.46463, 46.93587]}}, {"type": "Feature", "properties": {"name": "k4sdjoBiAgeQrOOK9QBmwt", "score": 27.63861476993814}, "geometry": {"type": "Point", "coordinates": [7.4646768, 46.9359199]}}, {"type": "Feature", "properties": {"name": "VAl7Ssi3C4swSbQmVBta50", "score": 27.560859844736097}, "geometry": {"type": "Point", "coordinates": [7.4647372, 46.9359571]}}, {"type": "Feature", "properties": {"name": "vcs5YaYsFNtMCY9Rr6Epmo", "score": 27.48971465067471}, "geometry": {"type": "Point", "coordinates": [7.4648013, 46.9359955]}}, {"type": "Feature", "properties": {"name": "--elOEJMqXpYRHTA8qYiFA", "score": 27.424197358501388}, "geometry": {"type": "Point", "coordinates": [7.4583321, 46.9403393]}}, {"type": "Feature", "properties": {"name": "1H4ui_LSiRdzBnxEASF4Cw", "score": 27.363521657964444}, "geometry": {"type": "Point", "coordinates": [7.4583607, 46.9403274]}}, {"type": "Feature", "properties": {"name": "uJQiTN7w1qwht7UDfJjqeQ", "score": 27.307049184691994}, "geometry": {"type": "Point", "coordinates": [7.4584605, 46.9402674]}}, {"type": "Feature", "properties": {"name": "Qnn8AjCQgBLYdZc9OG3yvA", "score": 27.254255413353214}, "geometry": {"type": "Point", "coordinates": [7.4584605, 46.9402674]}}, {"type": "Feature", "properties": {"name": "9UFGIZUJcXdUSW6BOTnJhQ", "score": 15.397927179978224}, "geometry": {"type": "Point", "coordinates": [7.4585407, 46.9402085]}}, {"type": "Feature", "properties": {"name": "sa2FI6GNs79zn0HWuGZcGA", "score": 18.632688333464632}, "geometry": {"type": "Point", "coordinates": [7.4585785, 46.9401785]}}, {"type": "Feature", "properties": {"name": "e5JYxnJvTwzZ-EweAxdjaQ", "score": 19.812959615188852}, "geometry": {"type": "Point", "coordinates": [7.4586147, 46.9401466]}}, {"type": "Feature", "properties": {"name": "AeCmypgaZWnfitZ_c5_Otg", "score": 20.464706852558336}, "geometry": {"type": "Point", "coordinates": [7.4586147, 46.9401466]}}, {"type": "Feature", "properties": {"name": "sQ2dlImjrx0rOSkNrnuGng", "score": 20.895620616291243}, "geometry": {"type": "Point", "coordinates": [7.4587062, 46.9400208]}}, {"type": "Feature", "properties": {"name": "Q0yHBkUDiucbuTGv7IU6lA", "score": 40.36834738191264}, "geometry": {"type": "Point", "coordinates": [7.4587062, 46.9400208]}}, {"type": "Feature", "properties": {"name": "n6-T-d46IZQ7IyVCdPE9Jg", "score": 21.453082444474795}, "geometry": {"type": "Point", "coordinates": [7.458762, 46.9399701]}}, {"type": "Feature", "properties": {"name": "nvIkujDk5stUl8_xe3ZfUQ", "score": 21.64968258801554}, "geometry": {"type": "Point", "coordinates": [7.4588004, 46.9399191]}}, {"type": "Feature", "properties": {"name": "ZxD6oqU_nv2pSvlPUcA-qQ", "score": 21.813408503583794}, "geometry": {"type": "Point", "coordinates": [7.4588298, 46.9398657]}}, {"type": "Feature", "properties": {"name": "pg3Ko6spzejCUookftLjWQ", "score": 21.952945515632972}, "geometry": {"type": "Point", "coordinates": [7.4588815, 46.9398143]}}, {"type": "Feature", "properties": {"name": "O9uLxq8OsPGzi5r-uMlplw", "score": 22.074047786138056}, "geometry": {"type": "Point", "coordinates": [7.4588815, 46.9398143]}}, {"type": "Feature", "properties": {"name": "0oWoQzUDce259JH-PVIwng", "score": 22.180702837438318}, "geometry": {"type": "Point", "coordinates": [7.4589297, 46.9397662]}}, {"type": "Feature", "properties": {"name": "RN737r1IYn6LZBY3DB7LxA", "score": 22.275775383562284}, "geometry": {"type": "Point", "coordinates": [7.4589579, 46.9397179]}}, {"type": "Feature", "properties": {"name": "KPveCPM5wVjDaEym4aRPjw", "score": 22.36138523006184}, "geometry": {"type": "Point", "coordinates": [7.4589579, 46.9397179]}}, {"type": "Feature", "properties": {"name": "qMoQ-inRv5VrYnEizBoGMg", "score": 22.43914015526392}, "geometry": {"type": "Point", "coordinates": [7.4590115, 46.9396633]}}, {"type": "Feature", "properties": {"name": "0cfKaNZ60a1DKF2f_VJdpA", "score": 22.510285349325297}, "geometry": {"type": "Point", "coordinates": [7.4590115, 46.9396633]}}, {"type": "Feature", "properties": {"name": "tP4fykCJNzRvgwfgYAmXSQ", "score": 29.858219863399945}, "geometry": {"type": "Point", "coordinates": [7.459057, 46.9396149]}}, {"type": "Feature", "properties": {"name": "5MWsLGe9-ufwXgAyS7m2Pw", "score": 22.636478342035577}, "geometry": {"type": "Point", "coordinates": [7.459057, 46.9396149]}}, {"type": "Feature", "properties": {"name": "k0oNfu82qge1vZwIzj0dug", "score": 22.692950815308027}, "geometry": {"type": "Point", "coordinates": [7.4591105, 46.9395167]}}, {"type": "Feature", "properties": {"name": "V0s-riQ9CNYypVBY0LfyjA", "score": 22.745744586646797}, "geometry": {"type": "Point", "coordinates": [7.459166, 46.9394781]}}, {"type": "Feature", "properties": {"name": "uIlcNH54mxm0lvn5GM7i9g", "score": 34.602072820021775}, "geometry": {"type": "Point", "coordinates": [7.459166, 46.9394781]}}, {"type": "Feature", "properties": {"name": "3GKZ1CL964S7gDqjFee2Ig", "score": 31.367311666535375}, "geometry": {"type": "Point", "coordinates": [7.4592472, 46.9394307]}}, {"type": "Feature", "properties": {"name": "fF0Z74w8IzmStijSP-dtfA", "score": 30.18704038481116}, "geometry": {"type": "Point", "coordinates": [7.4592886, 46.9393769]}}, {"type": "Feature", "properties": {"name": "KhEbonsfnftvvMqpChkvSA", "score": 43.70167613920057}, "geometry": {"type": "Point", "coordinates": [7.4593461, 46.9393201]}}, {"type": "Feature", "properties": {"name": "csiODNaaxc7QUAliWKuNtQ", "score": 29.104379383708746}, "geometry": {"type": "Point", "coordinates": [7.4594109, 46.9392833]}}, {"type": "Feature", "properties": {"name": "O0Q-PQsY5NQEpXxLKMfWjg", "score": 28.79027958017317}, "geometry": {"type": "Point", "coordinates": [7.4594709, 46.9392377]}}, {"type": "Feature", "properties": {"name": "IuzIzcf9jHLHA7YFA3kCUA", "score": 28.546917555525187}, "geometry": {"type": "Point", "coordinates": [7.4596088, 46.9391553]}}, {"type": "Feature", "properties": {"name": "Y5nnpLNuNnlqs4qKjNhPiQ", "score": 28.350317411984467}, "geometry": {"type": "Point", "coordinates": [7.4596691, 46.9391083]}}, {"type": "Feature", "properties": {"name": "5e60tqWjY3jmqhVego0SRw", "score": 28.186591496416195}, "geometry": {"type": "Point", "coordinates": [7.4597415, 46.9390739]}}, {"type": "Feature", "properties": {"name": "jB_gOmdhPYYdWMAd2mq9Bg", "score": 28.047054484366996}, "geometry": {"type": "Point", "coordinates": [7.4598317, 46.9390442]}}, {"type": "Feature", "properties": {"name": "GZRmT6s0U65iMJgC6jdj3g", "score": 27.925952213861944}, "geometry": {"type": "Point", "coordinates": [7.4599034, 46.9390111]}}, {"type": "Feature", "properties": {"name": "r8crCJ88SFluZnARJBbT_w", "score": 27.819297162561664}, "geometry": {"type": "Point", "coordinates": [7.4599822, 46.9389802]}}, {"type": "Feature", "properties": {"name": "OjoF8lvRJO8yOc2ju4MsuQ", "score": 27.724224616437706}, "geometry": {"type": "Point", "coordinates": [7.4600472, 46.9389363]}}, {"type": "Feature", "properties": {"name": "31CTJtE-4supDKvIPcDkYw", "score": 27.63861476993814}, "geometry": {"type": "Point", "coordinates": [7.4600472, 46.9389363]}}, {"type": "Feature", "properties": {"name": "POWVaIlyA1KqCU-1b4_SFA", "score": 40.33978504365539}, "geometry": {"type": "Point", "coordinates": [7.4601147, 46.9388951]}}, {"type": "Feature", "properties": {"name": "pQhZKWWKWaf_-rjJMgkoZQ", "score": 27.48971465067471}, "geometry": {"type": "Point", "coordinates": [7.4601689, 46.9388533]}}, {"type": "Feature", "properties": {"name": "4PfUE2q1evYHc5dqgIYldA", "score": 27.424197358501388}, "geometry": {"type": "Point", "coordinates": [7.4602509, 46.9388145]}}, {"type": "Feature", "properties": {"name": "-XQX8OD0yK0XK04EufpWew", "score": 27.363521657964444}, "geometry": {"type": "Point", "coordinates": [7.4603258, 46.9387734]}}, {"type": "Feature", "properties": {"name": "2k7OrPwYRwPO35Ck1uTOGw", "score": 27.307049184691994}, "geometry": {"type": "Point", "coordinates": [7.4603258, 46.9387734]}}, {"type": "Feature", "properties": {"name": "tNLUwj4RBqA2jTfd9VvWEg", "score": 27.254255413353214}, "geometry": {"type": "Point", "coordinates": [7.4604109, 46.9387226]}}, {"type": "Feature", "properties": {"name": "5BeFPclEaoYaXeqNbUJ5Rg", "score": 34.602072820021775}, "geometry": {"type": "Point", "coordinates": [7.4604898, 46.9386646]}}, {"type": "Feature", "properties": {"name": "jmpDeggX-oCc0_XnNi90mQ", "score": 43.89038927249649}, "geometry": {"type": "Point", "coordinates": [7.4605639, 46.9386208]}}, {"type": "Feature", "properties": {"name": "WZeEUsBtAmTPsaQIglMCvQ", "score": 30.18704038481116}, "geometry": {"type": "Point", "coordinates": [7.4606377, 46.9385797]}}, {"type": "Feature", "properties": {"name": "uQ47DuOHYLK_HZKMYj3O7A", "score": 29.53529314744165}, "geometry": {"type": "Point", "coordinates": [7.4607177, 46.938519]}}, {"type": "Feature", "properties": {"name": "GNj_MaKE42Nus9SkwI1oig", "score": 29.104379383708746}, "geometry": {"type": "Point", "coordinates": [7.4607914, 46.9384676]}}, {"type": "Feature", "properties": {"name": "w-KbcxjhQ69SqYCN-OCCyQ", "score": 28.79027958017317}, "geometry": {"type": "Point", "coordinates": [7.4608737, 46.9384099]}}, {"type": "Feature", "properties": {"name": "Z6wAgrctTjQOd1CTkcYeig", "score": 28.546917555525187}, "geometry": {"type": "Point", "coordinates": [7.4609699, 46.938343]}}, {"type": "Feature", "properties": {"name": "h4XQuDerfqWg2fiSNsXrCw", "score": 28.350317411984467}, "geometry": {"type": "Point", "coordinates": [7.4610608, 46.9382854]}}, {"type": "Feature", "properties": {"name": "TnfE0t1XvWYxOtIrTbwUUA", "score": 28.186591496416195}, "geometry": {"type": "Point", "coordinates": [7.461144, 46.9382352]}}, {"type": "Feature", "properties": {"name": "0rxrTYBvUzPZ1ffWY6GjDw", "score": 28.047054484366996}, "geometry": {"type": "Point", "coordinates": [7.461144, 46.9382352]}}, {"type": "Feature", "properties": {"name": "cn0OdBSL2KFJpeYQtNTpCg", "score": 27.925952213861944}, "geometry": {"type": "Point", "coordinates": [7.4613011, 46.9381318]}}, {"type": "Feature", "properties": {"name": "AFnGEpDStQGWJw271rwq4g", "score": 27.819297162561664}, "geometry": {"type": "Point", "coordinates": [7.4613011, 46.9381318]}}, {"type": "Feature", "properties": {"name": "ZSOu0B5yjo_fk6GQIlQQWw", "score": 27.724224616437706}, "geometry": {"type": "Point", "coordinates": [7.461382, 46.9380769]}}, {"type": "Feature", "properties": {"name": "T2B5BN3onTmF0pLggA0kqQ", "score": 27.63861476993814}, "geometry": {"type": "Point", "coordinates": [7.4614495, 46.9380286]}}, {"type": "Feature", "properties": {"name": "hCTxB6VpvHcANZCL7lSArQ", "score": 36.1521348076663}, "geometry": {"type": "Point", "coordinates": [7.4615253, 46.9379779]}}, {"type": "Feature", "properties": {"name": "A3NM8cDZJhSBPm3c6uKaUg", "score": 27.48971465067471}, "geometry": {"type": "Point", "coordinates": [7.4615253, 46.9379779]}}, {"type": "Feature", "properties": {"name": "lOJPsMATGsIbDms6DZl2HQ", "score": 27.424197358501388}, "geometry": {"type": "Point", "coordinates": [7.461594, 46.9379343]}}, {"type": "Feature", "properties": {"name": "iZBCFYkIcaCPbz_zh79fKw", "score": 27.363521657964444}, "geometry": {"type": "Point", "coordinates": [7.4616642, 46.9378942]}}, {"type": "Feature", "properties": {"name": "K94BTTmhLuJSGmoUmLhLnw", "score": 27.307049184691994}, "geometry": {"type": "Point", "coordinates": [7.4617319, 46.9378558]}}, {"type": "Feature", "properties": {"name": "FV5muqPU3-QrcuosP_qI7Q", "score": 27.254255413353214}, "geometry": {"type": "Point", "coordinates": [7.4618088, 46.9378077]}}, {"type": "Feature", "properties": {"name": "XZsmd3ocqrgX3tvca9X0Kg", "score": 34.602072820021775}, "geometry": {"type": "Point", "coordinates": [7.4618088, 46.9378077]}}, {"type": "Feature", "properties": {"name": "PjfSeD0ZJH_AuZF4gfGJzw", "score": 31.367311666535375}, "geometry": {"type": "Point", "coordinates": [7.4618088, 46.9378077]}}, {"type": "Feature", "properties": {"name": "r18_XZUsRSrr7YSVq3YNvg", "score": 30.18704038481116}, "geometry": {"type": "Point", "coordinates": [7.4619465, 46.9377225]}}, {"type": "Feature", "properties": {"name": "Y1cEaS82B2DrFmYj1-an7g", "score": 29.53529314744165}, "geometry": {"type": "Point", "coordinates": [7.4619901, 46.9376862]}}, {"type": "Feature", "properties": {"name": "BFzFB9oumfvwtx3bKgeIVQ", "score": 3.8063911470302667}, "geometry": {"type": "Point", "coordinates": [7.462041, 46.9376464]}}, {"type": "Feature", "properties": {"name": "bN203J56uCN4QgTCBpDROA", "score": 6.728338152006275}, "geometry": {"type": "Point", "coordinates": [7.462041, 46.9376464]}}, {"type": "Feature", "properties": {"name": "o86Mq2o-fSnXgbT4thYXRQ", "score": 8.486120629863692}, "geometry": {"type": "Point", "coordinates": [7.4620999, 46.9376094]}}, {"type": "Feature", "properties": {"name": "OkZFWdio3HYW9nUgOf1_nw", "score": 9.70556289778758}, "geometry": {"type": "Point", "coordinates": [7.4620999, 46.9376094]}}, {"type": "Feature", "properties": {"name": "38z8JiK8sjMGYQQVZWVXEA", "score": 10.626023930107817}, "geometry": {"type": "Point", "coordinates": [7.462163, 46.9375865]}}, {"type": "Feature", "properties": {"name": "AaIc97E7zW2JdZ0Y-grncA", "score": 11.36021292716931}, "geometry": {"type": "Point", "coordinates": [7.462163, 46.9375865]}}, {"type": "Feature", "properties": {"name": "uQwmkEJUd9M1x2Q-C94EvQ", "score": 11.968966775072854}, "geometry": {"type": "Point", "coordinates": [7.4622154, 46.9376094]}}, {"type": "Feature", "properties": {"name": "iJ4UB74X7u7V5Uum_WTubA", "score": 12.488392853847914}, "geometry": {"type": "Point", "coordinates": [7.4622775, 46.93763]}}, {"type": "Feature", "properties": {"name": "gyDg-HM1ldvfwN3ejtkF7g", "score": 12.941462006257575}, "geometry": {"type": "Point", "coordinates": [7.4623329, 46.9376793]}}, {"type": "Feature", "properties": {"name": "Z1s8lXZXEgj3JdpUDHivHQ", "score": 13.34358077477664}, "geometry": {"type": "Point", "coordinates": [7.4623329, 46.9376793]}}, {"type": "Feature", "properties": {"name": "O4geVIckctzwKGjsLtAKJQ", "score": 13.705520204536306}, "geometry": {"type": "Point", "coordinates": [7.462392, 46.9377225]}}, {"type": "Feature", "properties": {"name": "bf_Qtecxm46XMIihbzuzpw", "score": 14.035066534291296}, "geometry": {"type": "Point", "coordinates": [7.4624453, 46.9377613]}}, {"type": "Feature", "properties": {"name": "0gTldF6WWlq5cL3bpTlz5g", "score": 38.27330709810081}, "geometry": {"type": "Point", "coordinates": [7.4625228, 46.9378127]}}, {"type": "Feature", "properties": {"name": "_TNHfTaqbQDCJ1qorOVoQg", "score": 37.87624949108262}, "geometry": {"type": "Point", "coordinates": [7.4625805, 46.9378612]}}, {"type": "Feature", "properties": {"name": "14Fes5i7pW98QlqcAvtijg", "score": 33.10549640252648}, "geometry": {"type": "Point", "coordinates": [7.4626278, 46.9379147]}}, {"type": "Feature", "properties": {"name": "o4XWcys6H3H3q2UEqlKtfA", "score": 25.153223664247047}, "geometry": {"type": "Point", "coordinates": [7.4626692, 46.9379559]}}, {"type": "Feature", "properties": {"name": "a-_hfkSZeMZSuTXVLZkmLQ", "score": 34.602072820021775}, "geometry": {"type": "Point", "coordinates": [7.4627141, 46.9379978]}}, {"type": "Feature", "properties": {"name": "iLXj_VNc1ApZvp3gf7odTg", "score": 8.857304253993142}, "geometry": {"type": "Point", "coordinates": [7.4627557, 46.9380339]}}, {"type": "Feature", "properties": {"name": "BHHWjkho5T9Emrcqa8lCHQ", "score": 12.370471104667526}, "geometry": {"type": "Point", "coordinates": [7.4627557, 46.9380339]}}, {"type": "Feature", "properties": {"name": "HdMRxbNinJEnusm6Xq0OKg", "score": 14.058799327482097}, "geometry": {"type": "Point", "coordinates": [7.4627982, 46.9380696]}}, {"type": "Feature", "properties": {"name": "5GHobEePbnjBllj49Zs_uw", "score": 15.101525864444197}, "geometry": {"type": "Point", "coordinates": [7.4627982, 46.9380696]}}, {"type": "Feature", "properties": {"name": "D1czaFO5DBvtWalYRLQcaQ", "score": 15.835140566022496}, "geometry": {"type": "Point", "coordinates": [7.4627982, 46.9380696]}}, {"type": "Feature", "properties": {"name": "aw3_6EqPoju36TjLOkbeaA", "score": 16.392801908861358}, "geometry": {"type": "Point", "coordinates": [7.4628662, 46.938075]}}, {"type": "Feature", "properties": {"name": "Ru0HoWS1lkONVyqYrmwcTQ", "score": 16.83887689222492}, "geometry": {"type": "Point", "coordinates": [7.4628662, 46.938075]}}, {"type": "Feature", "properties": {"name": "-oG5lQfTpfprVtOFBhoRuQ", "score": 17.208792970671098}, "geometry": {"type": "Point", "coordinates": [7.4629381, 46.938084]}}, {"type": "Feature", "properties": {"name": "leR2vaqggUsMvjZZXoLXBQ", "score": 17.52389557504459}, "geometry": {"type": "Point", "coordinates": [7.4629381, 46.938084]}}, {"type": "Feature", "properties": {"name": "ZpACRudvU8ZsPJk-ggsCeQ", "score": 17.79793028934645}, "geometry": {"type": "Point", "coordinates": [7.4630639, 46.938061]}}, {"type": "Feature", "properties": {"name": "S20iKimzbIdS7RdhSeMmyw", "score": 18.040211259835022}, "geometry": {"type": "Point", "coordinates": [7.4630639, 46.938061]}}, {"type": "Feature", "properties": {"name": "jTYWcNYnh_U4d_p_6KMvxA", "score": 18.257308877412108}, "geometry": {"type": "Point", "coordinates": [7.4631331, 46.9379626]}}, {"type": "Feature", "properties": {"name": "Mx2yrXPIC_qwPmukKL-MJg", "score": 18.454011360553988}, "geometry": {"type": "Point", "coordinates": [7.4632061, 46.937909]}}, {"type": "Feature", "properties": {"name": "_5En_3XOfr3RzjL1ANB-Ww", "score": 18.633903158638706}, "geometry": {"type": "Point", "coordinates": [7.4632061, 46.937909]}}, {"type": "Feature", "properties": {"name": "RjESu5Rcxgf-XnYthnJOOA", "score": 18.799728742223937}, "geometry": {"type": "Point", "coordinates": [7.4632354, 46.9378184]}}, {"type": "Feature", "properties": {"name": "opaEnQLoIAHh5SGh1GrVsw", "score": 18.953630122541952}, "geometry": {"type": "Point", "coordinates": [7.4632979, 46.9377464]}}, {"type": "Feature", "properties": {"name": "-QoK44IIlKfOwNZnV7HBDg", "score": 19.097306932149937}, "geometry": {"type": "Point", "coordinates": [7.4633651, 46.9376813]}}, {"type": "Feature", "properties": {"name": "GtW4vdTg1226mULeOoa-DQ", "score": 19.23212730262935}, "geometry": {"type": "Point", "coordinates": [7.4633651, 46.9376813]}}, {"type": "Feature", "properties": {"name": "uAV-kfoiufCiVcJ9e0N3YA", "score": 19.359206508649386}, "geometry": {"type": "Point", "coordinates": [7.4633651, 46.9376813]}}, {"type": "Feature", "properties": {"name": "1qEHQxhHqvWCWy0IBceRVQ", "score": 15.397927179978224}, "geometry": {"type": "Point", "coordinates": [7.4634342, 46.9376142]}}, {"type": "Feature", "properties": {"name": "0I05zQ_pIR0TiPxP9XKcDQ", "score": 41.142695746006865}, "geometry": {"type": "Point", "coordinates": [7.4635187, 46.9375415]}}, {"type": "Feature", "properties": {"name": "yTivtw3OzxqilEgi3nfxOQ", "score": 37.62952889533246}, "geometry": {"type": "Point", "coordinates": [7.4636004, 46.9374794]}}, {"type": "Feature", "properties": {"name": "b44RgNuh1NuI8ymPy1XyrA", "score": 12.688401941057764}, "geometry": {"type": "Point", "coordinates": [7.4636004, 46.9374794]}}, {"type": "Feature", "properties": {"name": "egz5neCoKX_LLNoXj3a9_w", "score": 13.91453163365083}, "geometry": {"type": "Point", "coordinates": [7.4636859, 46.9374149]}}, {"type": "Feature", "properties": {"name": "bmPGUO9s30jqGFVyKOXu8Q", "score": 14.762048923134786}, "geometry": {"type": "Point", "coordinates": [7.4636859, 46.9374149]}}, {"type": "Feature", "properties": {"name": "yHikoo31zcFyIbcdRYaUiA", "score": 39.17898389642863}, "geometry": {"type": "Point", "coordinates": [7.4636859, 46.9374149]}}, {"type": "Feature", "properties": {"name": "2wWOGweT8s9amWwYbX9ORA", "score": 14.523026425406837}, "geometry": {"type": "Point", "coordinates": [7.4637665, 46.9373458]}}, {"type": "Feature", "properties": {"name": "tFFtb9B0EmIHKLYvel306w", "score": 38.8673568695078}, "geometry": {"type": "Point", "coordinates": [7.4637665, 46.9373458]}}, {"type": "Feature", "properties": {"name": "0h1e1hnNN7i395uhgVenGw", "score": 38.17632652981165}, "geometry": {"type": "Point", "coordinates": [7.4638597, 46.9372784]}}, {"type": "Feature", "properties": {"name": "1zwqd8Yg6uvz1OC0dW8MUw", "score": 37.60017804104254}, "geometry": {"type": "Point", "coordinates": [7.4638597, 46.9372784]}}, {"type": "Feature", "properties": {"name": "zvxdpUmUucgGw4NtApLapQ", "score": 37.106555289112315}, "geometry": {"type": "Point", "coordinates": [7.4639601, 46.9372048]}}, {"type": "Feature", "properties": {"name": "ssTAD-JpcjaxotpdDfTqsQ", "score": 12.829933351858006}, "geometry": {"type": "Point", "coordinates": [7.4640593, 46.9371351]}}, {"type": "Feature", "properties": {"name": "aQGqecKqs8WDuD4WBtRPSA", "score": 37.09772429937157}, "geometry": {"type": "Point", "coordinates": [7.4640593, 46.9371351]}}, {"type": "Feature", "properties": {"name": "-Z0COiMrONkBPpwaaJh3wA", "score": 12.842592978365769}, "geometry": {"type": "Point", "coordinates": [7.4641595, 46.9370642]}}, {"type": "Feature", "properties": {"name": "9YP7tzSi3YAmRq7n4vNp5w", "score": 37.09208885416214}, "geometry": {"type": "Point", "coordinates": [7.4641595, 46.9370642]}}, {"type": "Feature", "properties": {"name": "PB24z0BltgwB3PWJtXtX7Q", "score": 12.851845140619956}, "geometry": {"type": "Point", "coordinates": [7.4642685, 46.9369898]}}, {"type": "Feature", "properties": {"name": "0_gQ5vZ_qfR1EY6pUfDxEw", "score": 37.08844229325351}, "geometry": {"type": "Point", "coordinates": [7.4642685, 46.9369898]}}, {"type": "Feature", "properties": {"name": "EYVBd2uUDXTofLjYRtwTJw", "score": 36.75945260459253}, "geometry": {"type": "Point", "coordinates": [7.4643531, 46.9369229]}}, {"type": "Feature", "properties": {"name": "j6qGb5aruinyJijLEogm2g", "score": 41.26181993185726}, "geometry": {"type": "Point", "coordinates": [7.4643531, 46.9369229]}}, {"type": "Feature", "properties": {"name": "gbTykoQmfc74z17-dqlmow", "score": 15.397927179978224}, "geometry": {"type": "Point", "coordinates": [7.4643531, 46.9369229]}}, {"type": "Feature", "properties": {"name": "OjpXPcT7Z_SrZcfcQNJeeQ", "score": 18.632688333464632}, "geometry": {"type": "Point", "coordinates": [7.4644647, 46.9368416]}}, {"type": "Feature", "properties": {"name": "sImXh1dLsaeAc6KHJT-ydQ", "score": 19.812959615188852}, "geometry": {"type": "Point", "coordinates": [7.4644647, 46.9368416]}}, {"type": "Feature", "properties": {"name": "OgBfJsxbpfqYgzTmIuPo1Q", "score": 20.464706852558336}, "geometry": {"type": "Point", "coordinates": [7.4645636, 46.9367599]}}, {"type": "Feature", "properties": {"name": "En33vkyZfN9L3as_vANyYA", "score": 20.895620616291243}, "geometry": {"type": "Point", "coordinates": [7.4645636, 46.9367599]}}, {"type": "Feature", "properties": {"name": "ZkGpGTk0q9Jtn522ft4thg", "score": 21.209720419826805}, "geometry": {"type": "Point", "coordinates": [7.4646656, 46.9366821]}}, {"type": "Feature", "properties": {"name": "lheLdmkDKn1N6zfV_ayvIQ", "score": 21.453082444474795}, "geometry": {"type": "Point", "coordinates": [7.4647722, 46.9366061]}}, {"type": "Feature", "properties": {"name": "Pk-9vpB2Ou3R06xShj7FHA", "score": 21.64968258801554}, "geometry": {"type": "Point", "coordinates": [7.4647722, 46.9366061]}}, {"type": "Feature", "properties": {"name": "i-78Yvrz4N4NyedtYurhAQ", "score": 21.813408503583794}, "geometry": {"type": "Point", "coordinates": [7.4648712, 46.9365251]}}, {"type": "Feature", "properties": {"name": "jbMe4XTDCcfIz3WS8BG7sg", "score": 21.952945515632972}, "geometry": {"type": "Point", "coordinates": [7.4649683, 46.9364582]}}, {"type": "Feature", "properties": {"name": "q032rsLocVNejnsGJHW2HQ", "score": 22.074047786138056}, "geometry": {"type": "Point", "coordinates": [7.4649683, 46.9364582]}}, {"type": "Feature", "properties": {"name": "Ov131kEvACxLWAMoq6adpA", "score": 22.180702837438318}, "geometry": {"type": "Point", "coordinates": [7.4651914, 46.9363061]}}, {"type": "Feature", "properties": {"name": "z4DOOZGCcwhbiRQU9LxRnw", "score": 22.275775383562284}, "geometry": {"type": "Point", "coordinates": [7.4651914, 46.9363061]}}, {"type": "Feature", "properties": {"name": "ugLedgbX9qOjgUwquBrF-Q", "score": 22.36138523006184}, "geometry": {"type": "Point", "coordinates": [7.4653217, 46.9362338]}}, {"type": "Feature", "properties": {"name": "F3PtgE10-xLDPkoutHVDcA", "score": 22.43914015526392}, "geometry": {"type": "Point", "coordinates": [7.4654277, 46.9361663]}}, {"type": "Feature", "properties": {"name": "n1igHoGhYOhyQzC-_j2jhA", "score": 22.510285349325297}, "geometry": {"type": "Point", "coordinates": [7.4655133, 46.9360829]}}, {"type": "Feature", "properties": {"name": "CXI9r5T228HNDswCxBwXrw", "score": 22.57580264149863}, "geometry": {"type": "Point", "coordinates": [7.4655812, 46.9360118]}}, {"type": "Feature", "properties": {"name": "Xijg66VA4UYh8YNCSk5EYw", "score": 22.636478342035577}, "geometry": {"type": "Point", "coordinates": [7.4656617, 46.9359499]}}, {"type": "Feature", "properties": {"name": "pAjuqSjpKZQwp5MkCpJcNQ", "score": 22.692950815308027}, "geometry": {"type": "Point", "coordinates": [7.4657615, 46.9358688]}}, {"type": "Feature", "properties": {"name": "P4YGx4KC_WnfVDHDoVpxKA", "score": 22.745744586646797}, "geometry": {"type": "Point", "coordinates": [7.4658611, 46.935791]}}, {"type": "Feature", "properties": {"name": "baC6iJcXJfkJQEn0i4jLZQ", "score": 34.602072820021775}, "geometry": {"type": "Point", "coordinates": [7.4659558, 46.9357191]}}, {"type": "Feature", "properties": {"name": "HwMSbEu4zz_rtjl6UIlUcA", "score": 31.367311666535375}, "geometry": {"type": "Point", "coordinates": [7.466047, 46.9356475]}}, {"type": "Feature", "properties": {"name": "bwGahMb09k1zBI8qJUbVGg", "score": 30.18704038481116}, "geometry": {"type": "Point", "coordinates": [7.4661492, 46.9355724]}}, {"type": "Feature", "properties": {"name": "RnnYqdfgl-7i2BUd8z_6YA", "score": 29.53529314744165}, "geometry": {"type": "Point", "coordinates": [7.4662336, 46.9355023]}}, {"type": "Feature", "properties": {"name": "t7qDViaMeJ4hsMYSTGvbDQ", "score": 29.104379383708746}, "geometry": {"type": "Point", "coordinates": [7.4663218, 46.9354341]}}, {"type": "Feature", "properties": {"name": "BFoEbsxbSfYuygy-M90IIg", "score": 28.79027958017317}, "geometry": {"type": "Point", "coordinates": [7.466407, 46.935371]}}, {"type": "Feature", "properties": {"name": "4eBub6xGlWlbwrdqWhsuJw", "score": 28.546917555525187}, "geometry": {"type": "Point", "coordinates": [7.4664888, 46.9353027]}}, {"type": "Feature", "properties": {"name": "rZ7muY5XM6T0HHpSUsD3MQ", "score": 28.350317411984467}, "geometry": {"type": "Point", "coordinates": [7.4665708, 46.9352374]}}, {"type": "Feature", "properties": {"name": "rPYKOEK94zYROLqgaCMT6Q", "score": 28.186591496416195}, "geometry": {"type": "Point", "coordinates": [7.4666543, 46.935171]}}, {"type": "Feature", "properties": {"name": "v1DugxE1C3QdxBi1BLHEig", "score": 28.047054484366996}, "geometry": {"type": "Point", "coordinates": [7.466737, 46.9351069]}}, {"type": "Feature", "properties": {"name": "zWv5mhsMrlCTdsAA13wioA", "score": 27.925952213861944}, "geometry": {"type": "Point", "coordinates": [7.4668202, 46.9350455]}}, {"type": "Feature", "properties": {"name": "oFLcCNMndTT83ABObO56Dw", "score": 27.819297162561664}, "geometry": {"type": "Point", "coordinates": [7.4669055, 46.93499]}}, {"type": "Feature", "properties": {"name": "URFHU0ilfwDP_fhzbKrK3Q", "score": 27.724224616437706}, "geometry": {"type": "Point", "coordinates": [7.4669055, 46.93499]}}, {"type": "Feature", "properties": {"name": "L_u3UMuugXNaUZfH0RoLaQ", "score": 27.63861476993814}, "geometry": {"type": "Point", "coordinates": [7.4669848, 46.9349301]}}, {"type": "Feature", "properties": {"name": "2up_W9-3tcxjrDjFYBUkZA", "score": 27.560859844736097}, "geometry": {"type": "Point", "coordinates": [7.4669848, 46.9349301]}}, {"type": "Feature", "properties": {"name": "ZQKfiUazRiO7zjL62p1MkA", "score": 27.48971465067471}, "geometry": {"type": "Point", "coordinates": [7.4670553, 46.9348711]}}, {"type": "Feature", "properties": {"name": "DLJS_RCBOIa5HVckhHwHuA", "score": 27.424197358501388}, "geometry": {"type": "Point", "coordinates": [7.4671287, 46.9348101]}}, {"type": "Feature", "properties": {"name": "BaCtL5y4TCYeluwtRdNkEw", "score": 27.363521657964444}, "geometry": {"type": "Point", "coordinates": [7.467202, 46.9347541]}}, {"type": "Feature", "properties": {"name": "mHszBD92WHdaEQNuE4reWg", "score": 27.307049184691994}, "geometry": {"type": "Point", "coordinates": [7.4672681, 46.9346981]}}, {"type": "Feature", "properties": {"name": "-_c1rGzeMh5wDH17Diq63g", "score": 27.254255413353214}, "geometry": {"type": "Point", "coordinates": [7.4673417, 46.9346378]}}, {"type": "Feature", "properties": {"name": "BRavA6wRNG3RNCRbHSYKaQ", "score": 34.602072820021775}, "geometry": {"type": "Point", "coordinates": [7.4674156, 46.9345826]}}, {"type": "Feature", "properties": {"name": "L3iRUA4HXS59AZiVrYDl6g", "score": 31.367311666535375}, "geometry": {"type": "Point", "coordinates": [7.4674806, 46.9345189]}}, {"type": "Feature", "properties": {"name": "YWmk_f60IRVToX4PSd4b6Q", "score": 30.18704038481116}, "geometry": {"type": "Point", "coordinates": [7.4675508, 46.9344592]}}, {"type": "Feature", "properties": {"name": "OS6HWqCo-e-HK8d0h_-uWw", "score": 29.53529314744165}, "geometry": {"type": "Point", "coordinates": [7.467627, 46.9344079]}}, {"type": "Feature", "properties": {"name": "ZqeC3bG8DsGSRBaVgsZg5w", "score": 29.104379383708746}, "geometry": {"type": "Point", "coordinates": [7.467627, 46.9344079]}}, {"type": "Feature", "properties": {"name": "Ma1fIN79iX8kYXua3XFtng", "score": 28.79027958017317}, "geometry": {"type": "Point", "coordinates": [7.4677027, 46.9343556]}}, {"type": "Feature", "properties": {"name": "w7Ngy3aP4gSqKI-7iFXh0Q", "score": 28.546917555525187}, "geometry": {"type": "Point", "coordinates": [7.4677716, 46.9342955]}}, {"type": "Feature", "properties": {"name": "MdrQDDrLjQNRguk6ismMDw", "score": 28.350317411984467}, "geometry": {"type": "Point", "coordinates": [7.4678431, 46.9342406]}}, {"type": "Feature", "properties": {"name": "eQDHdoH93d4YbhCABO_3Jw", "score": 28.186591496416195}, "geometry": {"type": "Point", "coordinates": [7.4678431, 46.9342406]}}, {"type": "Feature", "properties": {"name": "dH69cbsizRTpEQqDpL_aMg", "score": 28.047054484366996}, "geometry": {"type": "Point", "coordinates": [7.4679171, 46.9341849]}}, {"type": "Feature", "properties": {"name": "7aJR-kHBzvxV9sMLpP5kJg", "score": 27.925952213861944}, "geometry": {"type": "Point", "coordinates": [7.4679912, 46.9341326]}}, {"type": "Feature", "properties": {"name": "eucG8DiDxS7ocn5Iw4SXmw", "score": 27.819297162561664}, "geometry": {"type": "Point", "coordinates": [7.4680679, 46.9340806]}}, {"type": "Feature", "properties": {"name": "z0Ork5vfAZQDzeRPtEijAw", "score": 27.724224616437706}, "geometry": {"type": "Point", "coordinates": [7.4681401, 46.9340234]}}, {"type": "Feature", "properties": {"name": "BE3eYkeVdds92N_Eu5LfWw", "score": 27.63861476993814}, "geometry": {"type": "Point", "coordinates": [7.4682176, 46.9339686]}}, {"type": "Feature", "properties": {"name": "JF5IN1A3mi3w553sHrWeNg", "score": 27.560859844736097}, "geometry": {"type": "Point", "coordinates": [7.4682176, 46.9339686]}}, {"type": "Feature", "properties": {"name": "4UqoZQa9z7448fknn7-fNQ", "score": 27.48971465067471}, "geometry": {"type": "Point", "coordinates": [7.4682176, 46.9339686]}}, {"type": "Feature", "properties": {"name": "nNfGAipsFnGHPv8PktDdcA", "score": 27.424197358501388}, "geometry": {"type": "Point", "coordinates": [7.4682854, 46.9339158]}}, {"type": "Feature", "properties": {"name": "N8JAbTS1A86C5syxGt6dIg", "score": 27.363521657964444}, "geometry": {"type": "Point", "coordinates": [7.4682854, 46.9339158]}}, {"type": "Feature", "properties": {"name": "jPKxJFsQw8ijoQQsUUopng", "score": 27.307049184691994}, "geometry": {"type": "Point", "coordinates": [7.4683542, 46.9338616]}}, {"type": "Feature", "properties": {"name": "knLTqy50pb8MqqEehXjQtA", "score": 27.254255413353214}, "geometry": {"type": "Point", "coordinates": [7.4684197, 46.9338105]}}, {"type": "Feature", "properties": {"name": "l1LQYGU6q70aeBhVqbbZjw", "score": 15.397927179978224}, "geometry": {"type": "Point", "coordinates": [7.4684884, 46.9337566]}}, {"type": "Feature", "properties": {"name": "KxXKd1XXOsn3KfbebUxtMQ", "score": 18.632688333464632}, "geometry": {"type": "Point", "coordinates": [7.4685586, 46.9337042]}}, {"type": "Feature", "properties": {"name": "c46kLfdMKbopS15ibn8b1Q", "score": 19.812959615188852}, "geometry": {"type": "Point", "coordinates": [7.4685586, 46.9337042]}}, {"type": "Feature", "properties": {"name": "lWd9w6KL1h4DvzbSF1vYaQ", "score": 20.464706852558336}, "geometry": {"type": "Point", "coordinates": [7.4685586, 46.9337042]}}, {"type": "Feature", "properties": {"name": "XnuZS2jvZWPc19ccCX-zAQ", "score": 20.895620616291243}, "geometry": {"type": "Point", "coordinates": [7.4686341, 46.9336551]}}, {"type": "Feature", "properties": {"name": "2roGgCN3ZJD2PF-xYxZ0aQ", "score": 21.209720419826805}, "geometry": {"type": "Point", "coordinates": [7.4687221, 46.9336202]}}, {"type": "Feature", "properties": {"name": "a_e3mHokJC6uAnMJ4zlwww", "score": 21.453082444474795}, "geometry": {"type": "Point", "coordinates": [7.4688287, 46.9335999]}}, {"type": "Feature", "properties": {"name": "dd2o-cWWzfWCyhWWiyOyLA", "score": 21.64968258801554}, "geometry": {"type": "Point", "coordinates": [7.4688287, 46.9335999]}}, {"type": "Feature", "properties": {"name": "ELjto9bf_h4AuNuStP8Glw", "score": 21.813408503583794}, "geometry": {"type": "Point", "coordinates": [7.4689307, 46.9335864]}}, {"type": "Feature", "properties": {"name": "OGFmMF0JFV9dmkNkctRPVg", "score": 21.952945515632972}, "geometry": {"type": "Point", "coordinates": [7.4689307, 46.9335864]}}, {"type": "Feature", "properties": {"name": "eSt02Q70VNt_8gEj9v-S-A", "score": 22.074047786138056}, "geometry": {"type": "Point", "coordinates": [7.4690242, 46.9336139]}}, {"type": "Feature", "properties": {"name": "JzaK5K-g93NF1nbjt_t3fg", "score": 49.526464257041056}, "geometry": {"type": "Point", "coordinates": [7.4691303, 46.9336419]}}, {"type": "Feature", "properties": {"name": "gMPLd2lJjc6r18bx4h0ZEg", "score": 20.930521601845253}, "geometry": {"type": "Point", "coordinates": [7.4692087, 46.9336791]}}, {"type": "Feature", "properties": {"name": "w7yWtuXAIiXRQQxkKOc7oQ", "score": 47.45356714079828}, "geometry": {"type": "Point", "coordinates": [7.4692925, 46.9337193]}}, {"type": "Feature", "properties": {"name": "BVvPZX4ouQaicMPzJD1zNA", "score": 45.8644323051945}, "geometry": {"type": "Point", "coordinates": [7.4693749, 46.9337571]}}, {"type": "Feature", "properties": {"name": "xcNTWHYMNMEwS6LN_hBEOA", "score": 19.338090726559063}, "geometry": {"type": "Point", "coordinates": [7.4693749, 46.9337571]}}, {"type": "Feature", "properties": {"name": "nGzTFAEbL9N-M36LmVAs5w", "score": 19.477026673294365}, "geometry": {"type": "Point", "coordinates": [7.469463, 46.9337879]}}, {"type": "Feature", "properties": {"name": "1tn3tew2twfqQRZnLypJIQ", "score": 19.6068101705865}, "geometry": {"type": "Point", "coordinates": [7.4695441, 46.9338188]}}, {"type": "Feature", "properties": {"name": "-LGtOba0Py7w9uWMqnZUmw", "score": 19.728646080891796}, "geometry": {"type": "Point", "coordinates": [7.4696178, 46.9338512]}}, {"type": "Feature", "properties": {"name": "Zrm4-BhUQAnIbT9AigIzJg", "score": 19.843520414088555}, "geometry": {"type": "Point", "coordinates": [7.4696915, 46.9338809]}}, {"type": "Feature", "properties": {"name": "608XI_vcSt9e4fZRx_ZuVg", "score": 15.397927179978224}, "geometry": {"type": "Point", "coordinates": [7.4697513, 46.933901]}}, {"type": "Feature", "properties": {"name": "XdK2vzrCVrhvqDiE6h6xUA", "score": 41.142695746006865}, "geometry": {"type": "Point", "coordinates": [7.4698242, 46.9339307]}}, {"type": "Feature", "properties": {"name": "vmKyUIcdH8BYnk4DbB1TZg", "score": 37.62952889533246}, "geometry": {"type": "Point", "coordinates": [7.4698897, 46.9339574]}}, {"type": "Feature", "properties": {"name": "_cYIR5ujCrpmFJ80fbVNIQ", "score": 35.94120067251793}, "geometry": {"type": "Point", "coordinates": [7.4699516, 46.9339856]}}, {"type": "Feature", "properties": {"name": "gRkoPj5g3v0FdF1jRuN4_A", "score": 34.89847413555584}, "geometry": {"type": "Point", "coordinates": [7.4700154, 46.9340135]}}, {"type": "Feature", "properties": {"name": "LtJuVR327U2JEG6I-7Bf9w", "score": 10.417081323294955}, "geometry": {"type": "Point", "coordinates": [7.470078, 46.9340458]}}, {"type": "Feature", "properties": {"name": "TTm-NeK1dIcxkJlAf41XAw", "score": 35.22514028248108}, "geometry": {"type": "Point", "coordinates": [7.4701428, 46.9340837]}}, {"type": "Feature", "properties": {"name": "7TzzZIt2QGJAEp94XXeGMQ", "score": 34.67871476582643}, "geometry": {"type": "Point", "coordinates": [7.4701972, 46.9341165]}}, {"type": "Feature", "properties": {"name": "-UsRLEYrJdE5wy5_9NMhKA", "score": 34.22924803536966}, "geometry": {"type": "Point", "coordinates": [7.4702542, 46.93415]}}, {"type": "Feature", "properties": {"name": "ITho_wHd2ZJKYRfcRuZjkA", "score": 33.848527259296674}, "geometry": {"type": "Point", "coordinates": [7.4703082, 46.9341772]}}, {"type": "Feature", "properties": {"name": "qJ-qinHBzpjdqQglr_dQxQ", "score": 9.362853250416237}, "geometry": {"type": "Point", "coordinates": [7.4704042, 46.9342321]}}, {"type": "Feature", "properties": {"name": "EfIrPjdhhLv3Jtl2Kn37QA", "score": 34.15948048609946}, "geometry": {"type": "Point", "coordinates": [7.4704544, 46.9342658]}}, {"type": "Feature", "properties": {"name": "DxWrP1_1t6wuBzxlVlZKjw", "score": 33.86595814773565}, "geometry": {"type": "Point", "coordinates": [7.4705511, 46.9343363]}}, {"type": "Feature", "properties": {"name": "xhQP3eQOflFH4RtL4cibFw", "score": 9.39679873554894}, "geometry": {"type": "Point", "coordinates": [7.4706078, 46.9343721]}}, {"type": "Feature", "properties": {"name": "poYPt8EVf-mmZVblJr0U8g", "score": 10.011725405174527}, "geometry": {"type": "Point", "coordinates": [7.470661, 46.9344003]}}, {"type": "Feature", "properties": {"name": "7lfe5-iZpzdgVcVHMydEqQ", "score": 34.59709855818799}, "geometry": {"type": "Point", "coordinates": [7.4707284, 46.9344336]}}, {"type": "Feature", "properties": {"name": "eshxfA3GmdMxf_FnIXSDwQ", "score": 10.24978880873696}, "geometry": {"type": "Point", "coordinates": [7.4708008, 46.9344739]}}, {"type": "Feature", "properties": {"name": "XR0rm9ocrILdOERRAkt0dw", "score": 10.731375331942042}, "geometry": {"type": "Point", "coordinates": [7.4708619, 46.9345064]}}, {"type": "Feature", "properties": {"name": "nMnFMBxoUfVGG9wShC2dLQ", "score": 11.167319094794873}, "geometry": {"type": "Point", "coordinates": [7.4709232, 46.9345399]}}, {"type": "Feature", "properties": {"name": "3cgs8XDr7DwjUyslGXwDhQ", "score": 11.566327356345004}, "geometry": {"type": "Point", "coordinates": [7.4709825, 46.9345798]}}, {"type": "Feature", "properties": {"name": "4KFEuFwkhwEsV2Nq9NMk9g", "score": 15.397927179978224}, "geometry": {"type": "Point", "coordinates": [7.4710373, 46.9346087]}}, {"type": "Feature", "properties": {"name": "YRsu7eZFjWngMQeyGhVlQw", "score": 38.42050904530042}, "geometry": {"type": "Point", "coordinates": [7.471094, 46.9346439]}}, {"type": "Feature", "properties": {"name": "KB2bd1-cyw-bGPNlCNIJZg", "score": 37.62952889533246}, "geometry": {"type": "Point", "coordinates": [7.4711495, 46.9346856]}}, {"type": "Feature", "properties": {"name": "77LWGYPA_nKPInxxkLQ4Dw", "score": 35.94120067251793}, "geometry": {"type": "Point", "coordinates": [7.4712149, 46.9347246]}}, {"type": "Feature", "properties": {"name": "tkmgX_MYJ_ufuazeh5-1yw", "score": 34.89847413555584}, "geometry": {"type": "Point", "coordinates": [7.4712747, 46.9347585]}}, {"type": "Feature", "properties": {"name": "ha3n5omMUMudT2yMHpDtTg", "score": 34.16485943397752}, "geometry": {"type": "Point", "coordinates": [7.4713253, 46.934807]}}, {"type": "Feature", "properties": {"name": "qdtTtIXgo7GvawAN4sV-DQ", "score": 33.60719809113867}, "geometry": {"type": "Point", "coordinates": [7.4713819, 46.9348478]}}, {"type": "Feature", "properties": {"name": "yd-Dw2uW4NikRUzpDEv6wg", "score": 33.161123107775104}, "geometry": {"type": "Point", "coordinates": [7.4714325, 46.9348914]}}, {"type": "Feature", "properties": {"name": "AjwC1zwIzmZCwwADXo3AyQ", "score": 32.79120702932891}, "geometry": {"type": "Point", "coordinates": [7.4714939, 46.9349271]}}, {"type": "Feature", "properties": {"name": "WetkLgXWVoF44Il79RFqxw", "score": 32.47610442495542}, "geometry": {"type": "Point", "coordinates": [7.4715577, 46.9349636]}}, {"type": "Feature", "properties": {"name": "n7QNwdUdcAbtaBuWsxkqQg", "score": 32.20206971065357}, "geometry": {"type": "Point", "coordinates": [7.4716254, 46.9349961]}}, {"type": "Feature", "properties": {"name": "ja6AhcJJDazIMo568oJjmA", "score": 31.959788740164978}, "geometry": {"type": "Point", "coordinates": [7.4716905, 46.9350299]}}, {"type": "Feature", "properties": {"name": "pI1R7zOrq0s5bauRNf9Bcw", "score": 31.742691122587907}, "geometry": {"type": "Point", "coordinates": [7.4716905, 46.9350299]}}, {"type": "Feature", "properties": {"name": "yUkN8ozwLX1hqYH-hpw7gQ", "score": 31.545988639446005}, "geometry": {"type": "Point", "coordinates": [7.4717605, 46.9350639]}}, {"type": "Feature", "properties": {"name": "ckiPZ-7VTRXSz41Ke3-rLQ", "score": 31.366096841361298}, "geometry": {"type": "Point", "coordinates": [7.4718372, 46.9350907]}}, {"type": "Feature", "properties": {"name": "JQYvTRSIBZWaQi5ATPurPQ", "score": 31.200271257776084}, "geometry": {"type": "Point", "coordinates": [7.4719257, 46.9351212]}}, {"type": "Feature", "properties": {"name": "9BATdC-BGvK2LApk96bxkg", "score": 31.04636987745806}, "geometry": {"type": "Point", "coordinates": [7.4720281, 46.93516]}}, {"type": "Feature", "properties": {"name": "LLv0kWehX4MFe6-ACajXoQ", "score": 30.902693067850084}, "geometry": {"type": "Point", "coordinates": [7.4720544, 46.9352068]}}, {"type": "Feature", "properties": {"name": "linEpD0Xe0HlOeBtunnoWw", "score": 30.767872697370652}, "geometry": {"type": "Point", "coordinates": [7.4721518, 46.9352288]}}, {"type": "Feature", "properties": {"name": "8ny9cBapHXL1Gl_eYYJa9A", "score": 30.64079349135061}, "geometry": {"type": "Point", "coordinates": [7.4722218, 46.935269]}}, {"type": "Feature", "properties": {"name": "8Rk83ysrU0DrBGZTJGhPBw", "score": 15.397927179978224}, "geometry": {"type": "Point", "coordinates": [7.472286, 46.93532]}}, {"type": "Feature", "properties": {"name": "FrEQjBjXcBXcrC6u2aDNrA", "score": 18.632688333464632}, "geometry": {"type": "Point", "coordinates": [7.4723518, 46.9353727]}}, {"type": "Feature", "properties": {"name": "VGoMaoxm5TkOV5CezBVweg", "score": 19.812959615188852}, "geometry": {"type": "Point", "coordinates": [7.4724221, 46.935409]}}, {"type": "Feature", "properties": {"name": "Q5cYVJhKjQMYv-7T-W9EyQ", "score": 20.464706852558336}, "geometry": {"type": "Point", "coordinates": [7.4724865, 46.9354442]}}, {"type": "Feature", "properties": {"name": "FQPaMeyp-d-GJhbyT22tdg", "score": 20.895620616291243}, "geometry": {"type": "Point", "coordinates": [7.4725589, 46.9354767]}}, {"type": "Feature", "properties": {"name": "CvON9kXD1GPEzdKVDcwSPQ", "score": 21.209720419826805}, "geometry": {"type": "Point", "coordinates": [7.4726287, 46.9355164]}}, {"type": "Feature", "properties": {"name": "e5UaOqKtzfaiMRdADP7jgA", "score": 21.453082444474795}, "geometry": {"type": "Point", "coordinates": [7.4726945, 46.9355441]}}, {"type": "Feature", "properties": {"name": "5lrvXXz7c7t_xiicbJZG2w", "score": 21.64968258801554}, "geometry": {"type": "Point", "coordinates": [7.4727694, 46.9355775]}}, {"type": "Feature", "properties": {"name": "6QrpV0a1_16o5-GBsgP-aQ", "score": 48.520302170955304}, "geometry": {"type": "Point", "coordinates": [7.472835, 46.9356075]}}, {"type": "Feature", "properties": {"name": "bnMvIppwzLmGrbQw4asv3Q", "score": 20.33514391494465}, "geometry": {"type": "Point", "coordinates": [7.4728948, 46.9356381]}}, {"type": "Feature", "properties": {"name": "WVtL9djwfjz1A1f2EuuExg", "score": 20.512138577382718}, "geometry": {"type": "Point", "coordinates": [7.4729589, 46.9356654]}}, {"type": "Feature", "properties": {"name": "v4JSdBJG82kY_zFfTrMsbw", "score": 20.668211700752256}, "geometry": {"type": "Point", "coordinates": [7.4729589, 46.9356654]}}, {"type": "Feature", "properties": {"name": "OfHEbGy083EGDHS1WwoatQ", "score": 20.80760751877667}, "geometry": {"type": "Point", "coordinates": [7.4730223, 46.9356912]}}, {"type": "Feature", "properties": {"name": "NSt4A5yu6xbXkMgVaGWr9g", "score": 20.933440959521874}, "geometry": {"type": "Point", "coordinates": [7.4730891, 46.9357191]}}, {"type": "Feature", "properties": {"name": "pz6HdRbIfSfj5FIwQGMs4A", "score": 47.484668277655224}, "geometry": {"type": "Point", "coordinates": [7.4731497, 46.9357448]}}, {"type": "Feature", "properties": {"name": "rznmmj-4_RlktQwyX-lVsQ", "score": 20.16116666823921}, "geometry": {"type": "Point", "coordinates": [7.4732148, 46.9357707]}}, {"type": "Feature", "properties": {"name": "qlgv9EOgZ9hJkep651OyDw", "score": 20.2807489548023}, "geometry": {"type": "Point", "coordinates": [7.4733389, 46.9358199]}}, {"type": "Feature", "properties": {"name": "-Tkw1ITXYrrPjXXQ8prtCg", "score": 20.392244584039823}, "geometry": {"type": "Point", "coordinates": [7.4734018, 46.9358465]}}, {"type": "Feature", "properties": {"name": "WwRbfg7Y8y3CV8At5vlflA", "score": 46.602486583471084}, "geometry": {"type": "Point", "coordinates": [7.4734821, 46.9358761]}}, {"type": "Feature", "properties": {"name": "VlC3jNCr4IqMC3GLpVDnfw", "score": 19.804524581196144}, "geometry": {"type": "Point", "coordinates": [7.4735765, 46.9359115]}}, {"type": "Feature", "properties": {"name": "UoPOU-DV8yIiZfUOZpOqbg", "score": 34.602072820021775}, "geometry": {"type": "Point", "coordinates": [7.4736609, 46.9359459]}}, {"type": "Feature", "properties": {"name": "1xjwCqakm12H6E8Jdg3UzQ", "score": 31.367311666535375}, "geometry": {"type": "Point", "coordinates": [7.473751, 46.9359859]}}, {"type": "Feature", "properties": {"name": "0CgTeqo0p_9MI-sxR0krlQ", "score": 30.18704038481116}, "geometry": {"type": "Point", "coordinates": [7.4738331, 46.9360233]}}, {"type": "Feature", "properties": {"name": "4PpUPLw6nRL615llnP0rDA", "score": 29.53529314744165}, "geometry": {"type": "Point", "coordinates": [7.4739159, 46.936065]}}, {"type": "Feature", "properties": {"name": "CPJUSIDkeir7OUqlTjKo3w", "score": 29.104379383708746}, "geometry": {"type": "Point", "coordinates": [7.4740044, 46.9361064]}}, {"type": "Feature", "properties": {"name": "2juougqTddXOLmbq8Q1q1w", "score": 28.79027958017317}, "geometry": {"type": "Point", "coordinates": [7.4740761, 46.9361423]}}, {"type": "Feature", "properties": {"name": "2S3RDcyU08zBHnizl6B2XA", "score": 28.546917555525187}, "geometry": {"type": "Point", "coordinates": [7.4741628, 46.9361752]}}, {"type": "Feature", "properties": {"name": "1pg18S8X5sdSiKf4Jl0r7Q", "score": 28.350317411984467}, "geometry": {"type": "Point", "coordinates": [7.4742461, 46.9362167]}}, {"type": "Feature", "properties": {"name": "d4jR15i1OdT9F4Y3xG0bxg", "score": 28.186591496416195}, "geometry": {"type": "Point", "coordinates": [7.4743369, 46.9362522]}}, {"type": "Feature", "properties": {"name": "2ShwMiz1E79dthzY6OTb1w", "score": 43.62120785568282}, "geometry": {"type": "Point", "coordinates": [7.4744361, 46.9362863]}}, {"type": "Feature", "properties": {"name": "Jzb0eq73n6SNOw3MID3HGQ", "score": 27.925952213861944}, "geometry": {"type": "Point", "coordinates": [7.4745429, 46.9363055]}}, {"type": "Feature", "properties": {"name": "sozcfx21q6edvQwapK4y6w", "score": 27.819297162561664}, "geometry": {"type": "Point", "coordinates": [7.4746388, 46.9363324]}}, {"type": "Feature", "properties": {"name": "G3--pnn7pkFWSQBNTwgn5w", "score": 27.724224616437706}, "geometry": {"type": "Point", "coordinates": [7.4747481, 46.9363782]}}, {"type": "Feature", "properties": {"name": "p3Buq_8dYV7lpmLgmOAf7g", "score": 27.63861476993814}, "geometry": {"type": "Point", "coordinates": [7.4748323, 46.936415]}}, {"type": "Feature", "properties": {"name": "FKgomS4Y0pJwLza9EsCGsg", "score": 27.560859844736097}, "geometry": {"type": "Point", "coordinates": [7.4749205, 46.9364443]}}, {"type": "Feature", "properties": {"name": "M4FvKDOqc3muFsZ88CYiNA", "score": 27.48971465067471}, "geometry": {"type": "Point", "coordinates": [7.4750013, 46.9364808]}}, {"type": "Feature", "properties": {"name": "ZcX4wKJsU2znMhLB6cUKkg", "score": 27.424197358501388}, "geometry": {"type": "Point", "coordinates": [7.4750663, 46.9365229]}}, {"type": "Feature", "properties": {"name": "HqQtNZ_oEEnjEsKFS8vFxA", "score": 27.363521657964444}, "geometry": {"type": "Point", "coordinates": [7.4751377, 46.9365634]}}, {"type": "Feature", "properties": {"name": "Kv1PifR-mI4-kjVBkixSiQ", "score": 27.307049184691994}, "geometry": {"type": "Point", "coordinates": [7.4751983, 46.9365975]}}, {"type": "Feature", "properties": {"name": "rFRoZ6eD_QnE_eI6imUFCw", "score": 27.254255413353214}, "geometry": {"type": "Point", "coordinates": [7.4752675, 46.9366286]}}, {"type": "Feature", "properties": {"name": "-e41sz7z9XrItObkqYJ82A", "score": 34.602072820021775}, "geometry": {"type": "Point", "coordinates": [7.4753428, 46.9366573]}}, {"type": "Feature", "properties": {"name": "3bET42vMxzeS5A0AdM5UIg", "score": 31.367311666535375}, "geometry": {"type": "Point", "coordinates": [7.4754045, 46.9366832]}}, {"type": "Feature", "properties": {"name": "EzRrDGVWiGNCp-D0aNXY7g", "score": 30.18704038481116}, "geometry": {"type": "Point", "coordinates": [7.4754045, 46.9366832]}}, {"type": "Feature", "properties": {"name": "hm-iwfhkQURXD7Prox9mSg", "score": 29.53529314744165}, "geometry": {"type": "Point", "coordinates": [7.4754795, 46.9367042]}}, {"type": "Feature", "properties": {"name": "_MppmGDIqINc3nXifSPY5Q", "score": 29.104379383708746}, "geometry": {"type": "Point", "coordinates": [7.4755388, 46.9367295]}}, {"type": "Feature", "properties": {"name": "L3nuFzp4G1tP-NpgsCiQ9w", "score": 28.79027958017317}, "geometry": {"type": "Point", "coordinates": [7.4756837, 46.9367592]}}, {"type": "Feature", "properties": {"name": "xn7FNP6rTG9l_QlufxGsow", "score": 28.546917555525187}, "geometry": {"type": "Point", "coordinates": [7.4757474, 46.9367813]}}, {"type": "Feature", "properties": {"name": "kMFfOaVu4_v4U1f4UcNhAQ", "score": 43.736354299712836}, "geometry": {"type": "Point", "coordinates": [7.4758087, 46.9368117]}}, {"type": "Feature", "properties": {"name": "0wRTRSxTbdA_Sr2yhxPe1A", "score": 28.186591496416195}, "geometry": {"type": "Point", "coordinates": [7.475909, 46.9368568]}}, {"type": "Feature", "properties": {"name": "TlWsIncyvmRYfZMwu3lQYQ", "score": 28.047054484366996}, "geometry": {"type": "Point", "coordinates": [7.475909, 46.9368568]}}, {"type": "Feature", "properties": {"name": "qHXm_t0AqwUaKsY5QMYheQ", "score": 27.925952213861944}, "geometry": {"type": "Point", "coordinates": [7.4759671, 46.9368825]}}, {"type": "Feature", "properties": {"name": "_zO7-Ik8uUwT8rHg01bwpg", "score": 27.819297162561664}, "geometry": {"type": "Point", "coordinates": [7.4760248, 46.9369061]}}, {"type": "Feature", "properties": {"name": "Nb7Ha2BYnWr4PnBkqvJ1wA", "score": 27.724224616437706}, "geometry": {"type": "Point", "coordinates": [7.4760248, 46.9369061]}}, {"type": "Feature", "properties": {"name": "OLc8tOKkB9GtzCAprj0Ceg", "score": 27.63861476993814}, "geometry": {"type": "Point", "coordinates": [7.4760999, 46.9369227]}}, {"type": "Feature", "properties": {"name": "h-XmN5LEurGso-hmwqXhyQ", "score": 27.560859844736097}, "geometry": {"type": "Point", "coordinates": [7.4761835, 46.936929]}}, {"type": "Feature", "properties": {"name": "tprRkv-A4Ir6E2fMTXJWeA", "score": 27.48971465067471}, "geometry": {"type": "Point", "coordinates": [7.4761835, 46.936929]}}, {"type": "Feature", "properties": {"name": "ESja5Ot9jeskItu34VYLoA", "score": 27.424197358501388}, "geometry": {"type": "Point", "coordinates": [7.4761835, 46.936929]}}, {"type": "Feature", "properties": {"name": "vIdEHv4BtWHV_2VdMSpZTw", "score": 27.363521657964444}, "geometry": {"type": "Point", "coordinates": [7.4763004, 46.9369037]}}, {"type": "Feature", "properties": {"name": "h0I4DoBf--zZTPTPIXq9Kg", "score": 27.307049184691994}, "geometry": {"type": "Point", "coordinates": [7.4763818, 46.9368915]}}, {"type": "Feature", "properties": {"name": "R2cp0lsRaNYqOj9knTonQg", "score": 27.254255413353214}, "geometry": {"type": "Point", "coordinates": [7.4764391, 46.9368437]}}, {"type": "Feature", "properties": {"name": "ygdajC6OzbCGMoO-e9gOWw", "score": 34.602072820021775}, "geometry": {"type": "Point", "coordinates": [7.4764391, 46.9368437]}}, {"type": "Feature", "properties": {"name": "25BVJjZG0m0Vyk63h0_jAQ", "score": 31.367311666535375}, "geometry": {"type": "Point", "coordinates": [7.4765068, 46.9368125]}}, {"type": "Feature", "properties": {"name": "MUSeAcIZceHHaLBagLneyw", "score": 30.18704038481116}, "geometry": {"type": "Point", "coordinates": [7.4765942, 46.9367652]}}, {"type": "Feature", "properties": {"name": "pwMbgTJDFhqf8NBE7b2mig", "score": 29.53529314744165}, "geometry": {"type": "Point", "coordinates": [7.4765942, 46.9367652]}}, {"type": "Feature", "properties": {"name": "EBTjN-8HW9gxlzIz_WzYqA", "score": 29.104379383708746}, "geometry": {"type": "Point", "coordinates": [7.4766861, 46.9367389]}}, {"type": "Feature", "properties": {"name": "78F1Lmp9T069tScUfCK22Q", "score": 28.79027958017317}, "geometry": {"type": "Point", "coordinates": [7.4767563, 46.9367051]}}, {"type": "Feature", "properties": {"name": "pCd9QTqP99SmQsxCNgecpQ", "score": 28.546917555525187}, "geometry": {"type": "Point", "coordinates": [7.4768343, 46.9366621]}}, {"type": "Feature", "properties": {"name": "BvOAvWRD-U3-BlWJz5a8IA", "score": 28.350317411984467}, "geometry": {"type": "Point", "coordinates": [7.4769142, 46.9366237]}}, {"type": "Feature", "properties": {"name": "eSrNEBgQtkPfvrNv--bb6Q", "score": 28.186591496416195}, "geometry": {"type": "Point", "coordinates": [7.4770033, 46.9365876]}}, {"type": "Feature", "properties": {"name": "IjUgphbZvQATH98IYrwMcg", "score": 28.047054484366996}, "geometry": {"type": "Point", "coordinates": [7.4770958, 46.9365484]}}, {"type": "Feature", "properties": {"name": "Z9dXeXYYBkx2DMItYhldVA", "score": 27.925952213861944}, "geometry": {"type": "Point", "coordinates": [7.4771818, 46.9365086]}}, {"type": "Feature", "properties": {"name": "QOWTApBJ46zX2ydhQnPc4A", "score": 27.819297162561664}, "geometry": {"type": "Point", "coordinates": [7.4772785, 46.9364694]}}, {"type": "Feature", "properties": {"name": "dtzzfexOgQot3ed9JQcnQA", "score": 27.724224616437706}, "geometry": {"type": "Point", "coordinates": [7.4773708, 46.9364316]}}, {"type": "Feature", "properties": {"name": "Vc1SU_vb2xoehZbqLjl4Bw", "score": 27.63861476993814}, "geometry": {"type": "Point", "coordinates": [7.4774592, 46.9363948]}}, {"type": "Feature", "properties": {"name": "cPDcqgldxOwxGAbCDQhrow", "score": 47.00219930387582}, "geometry": {"type": "Point", "coordinates": [7.4775428, 46.9363598]}}, {"type": "Feature", "properties": {"name": "5EdgmJicVs2raUQw2S5S0Q", "score": 27.48971465067471}, "geometry": {"type": "Point", "coordinates": [7.4776354, 46.9363274]}}, {"type": "Feature", "properties": {"name": "CYOvQwpedVxFlHXAq0IH2A", "score": 27.424197358501388}, "geometry": {"type": "Point", "coordinates": [7.4776354, 46.9363274]}}, {"type": "Feature", "properties": {"name": "KO_nddSdgOJCXNFSmCrdpA", "score": 27.363521657964444}, "geometry": {"type": "Point", "coordinates": [7.4777263, 46.9362927]}}, {"type": "Feature", "properties": {"name": "JgKEq03y88y7amkKcBwWrw", "score": 27.307049184691994}, "geometry": {"type": "Point", "coordinates": [7.4778193, 46.9362545]}}, {"type": "Feature", "properties": {"name": "rW59bT_THOimStfQh-UonA", "score": 27.254255413353214}, "geometry": {"type": "Point", "coordinates": [7.4779053, 46.93622]}}, {"type": "Feature", "properties": {"name": "Xzdw-nGF5LCsyJnj40Hjqw", "score": 34.602072820021775}, "geometry": {"type": "Point", "coordinates": [7.4779956, 46.9361794]}}, {"type": "Feature", "properties": {"name": "RFqKsecZMPJTp_GPN-Q59w", "score": 31.367311666535375}, "geometry": {"type": "Point", "coordinates": [7.4780885, 46.9361385]}}, {"type": "Feature", "properties": {"name": "fiJ8s4hnavU0Lt_4rOswRA", "score": 20.16897879794584}, "geometry": {"type": "Point", "coordinates": [7.4781823, 46.936097]}}, {"type": "Feature", "properties": {"name": "3QpHcVKaDbN-sgXGzvdT-A", "score": 29.53529314744165}, "geometry": {"type": "Point", "coordinates": [7.4781823, 46.936097]}}, {"type": "Feature", "properties": {"name": "iF9KdrTM7GuaZFzr7yE2Eg", "score": 29.104379383708746}, "geometry": {"type": "Point", "coordinates": [7.4782716, 46.936057]}}, {"type": "Feature", "properties": {"name": "_-27CKDFfmVAQ-CtcfRVYQ", "score": 28.79027958017317}, "geometry": {"type": "Point", "coordinates": [7.4783577, 46.9360161]}}, {"type": "Feature", "properties": {"name": "mJE6QidqyHUJ8gxNezmzrA", "score": 28.546917555525187}, "geometry": {"type": "Point", "coordinates": [7.4784497, 46.9359759]}}, {"type": "Feature", "properties": {"name": "26Xo_yByLauZ_dqkoQWM3Q", "score": 1.912971876312839}, "geometry": {"type": "Point", "coordinates": [7.4785466, 46.9359466]}}, {"type": "Feature", "properties": {"name": "7eMqB91a5uO4zgAvp_llhA", "score": 29.936859809951354}, "geometry": {"type": "Point", "coordinates": [7.4786384, 46.9359117]}}, {"type": "Feature", "properties": {"name": "cKxEL4IttqenkPK_5Ad4TA", "score": 29.731231372783043}, "geometry": {"type": "Point", "coordinates": [7.4787296, 46.9358717]}}, {"type": "Feature", "properties": {"name": "KybnHpzrRwYoMlTk9sh5ig", "score": 29.552600425961046}, "geometry": {"type": "Point", "coordinates": [7.478825, 46.9358282]}}, {"type": "Feature", "properties": {"name": "hZjNugOHzUCMNEbiEpfGXw", "score": 29.394991635619167}, "geometry": {"type": "Point", "coordinates": [7.4789257, 46.9357831]}}, {"type": "Feature", "properties": {"name": "f_TIUL5g2SX5inQd6bua-A", "score": 29.25415084558139}, "geometry": {"type": "Point", "coordinates": [7.4790197, 46.9357438]}}, {"type": "Feature", "properties": {"name": "lQJjh_m685XCDigJdubPoA", "score": 29.126953360505524}, "geometry": {"type": "Point", "coordinates": [7.4791183, 46.9357018]}}, {"type": "Feature", "properties": {"name": "mCSkyIo9eYYXGmP3n9cW7A", "score": 29.011043923572675}, "geometry": {"type": "Point", "coordinates": [7.4792112, 46.9356613]}}, {"type": "Feature", "properties": {"name": "ynAejbtv-Z6G5wOq4QqswA", "score": 28.90460810787039}, "geometry": {"type": "Point", "coordinates": [7.4793116, 46.935621]}}, {"type": "Feature", "properties": {"name": "6nh1Q3rT8VhwnkDIK4-t3g", "score": 28.806221848664663}, "geometry": {"type": "Point", "coordinates": [7.4794046, 46.9355822]}}, {"type": "Feature", "properties": {"name": "iQcIqqrtNOIMGayzfqA4_A", "score": 28.714749330066006}, "geometry": {"type": "Point", "coordinates": [7.4794984, 46.9355375]}}, {"type": "Feature", "properties": {"name": "sJthqZHIQIwPHnLPqsejGA", "score": 28.629271833042615}, "geometry": {"type": "Point", "coordinates": [7.4795843, 46.9355007]}}, {"type": "Feature", "properties": {"name": "CGIZS8bqVkXlB-_7FmMQ0w", "score": 28.549037002873632}, "geometry": {"type": "Point", "coordinates": [7.4796778, 46.9354593]}}, {"type": "Feature", "properties": {"name": "mm8pEO3U-6HCplcYHiiA2A", "score": 34.602072820021775}, "geometry": {"type": "Point", "coordinates": [7.4796778, 46.9354593]}}, {"type": "Feature", "properties": {"name": "bQrfHD9BO_YUlxJLcN5yXA", "score": 31.367311666535375}, "geometry": {"type": "Point", "coordinates": [7.4797687, 46.9354188]}}, {"type": "Feature", "properties": {"name": "JkZQwuR-V0t91sqpB4v0oA", "score": 30.18704038481116}, "geometry": {"type": "Point", "coordinates": [7.4798553, 46.9353752]}}, {"type": "Feature", "properties": {"name": "MzLFvHWbXLZrC4w9t5ncNg", "score": 29.53529314744165}, "geometry": {"type": "Point", "coordinates": [7.4799613, 46.9353409]}}, {"type": "Feature", "properties": {"name": "xiRGfnn0SM6CusPS78-xKA", "score": 29.104379383708746}, "geometry": {"type": "Point", "coordinates": [7.4800494, 46.9352987]}}, {"type": "Feature", "properties": {"name": "Dq4hZUD107ENbB0APEUWGA", "score": 28.79027958017317}, "geometry": {"type": "Point", "coordinates": [7.4801366, 46.9352597]}}, {"type": "Feature", "properties": {"name": "C00ofhrp5s26p88eB32-9A", "score": 28.546917555525187}, "geometry": {"type": "Point", "coordinates": [7.4802225, 46.9352278]}}, {"type": "Feature", "properties": {"name": "HRt7S9QfS6AODXtEHSezHQ", "score": 28.350317411984467}, "geometry": {"type": "Point", "coordinates": [7.4803092, 46.9351926]}}, {"type": "Feature", "properties": {"name": "KEFJy7CY4hkYC9xRwB2gCg", "score": 28.186591496416195}, "geometry": {"type": "Point", "coordinates": [7.4804034, 46.9351629]}}, {"type": "Feature", "properties": {"name": "t1JkOxiv1JCD3D2isSczjA", "score": 28.047054484366996}, "geometry": {"type": "Point", "coordinates": [7.4804894, 46.9351227]}}, {"type": "Feature", "properties": {"name": "rgP5PceW_K-IC--36i3efg", "score": 27.925952213861944}, "geometry": {"type": "Point", "coordinates": [7.4805789, 46.9350856]}}, {"type": "Feature", "properties": {"name": "deSro41awrK0-z3O8v16tA", "score": 27.819297162561664}, "geometry": {"type": "Point", "coordinates": [7.4806683, 46.9350465]}}, {"type": "Feature", "properties": {"name": "mIuM9XOn8_EGSCsRek_wRg", "score": 27.724224616437706}, "geometry": {"type": "Point", "coordinates": [7.4806683, 46.9350465]}}, {"type": "Feature", "properties": {"name": "ioNq5y3zv5QfBRm0uUVlLg", "score": 27.63861476993814}, "geometry": {"type": "Point", "coordinates": [7.4807501, 46.9350112]}}, {"type": "Feature", "properties": {"name": "lNG8YV3S9TzB935vhU1bYA", "score": 27.560859844736097}, "geometry": {"type": "Point", "coordinates": [7.4808336, 46.9349787]}}, {"type": "Feature", "properties": {"name": "PPp7KLZKvSQb33MlkZ3A-A", "score": 27.48971465067471}, "geometry": {"type": "Point", "coordinates": [7.4808336, 46.9349787]}}, {"type": "Feature", "properties": {"name": "TnlQUixQ-eYsW8R-xObMhA", "score": 27.424197358501388}, "geometry": {"type": "Point", "coordinates": [7.4809313, 46.9349398]}}, {"type": "Feature", "properties": {"name": "U99ueXhSNbz3CKvaeYlRXA", "score": 27.363521657964444}, "geometry": {"type": "Point", "coordinates": [7.4810049, 46.934901]}}, {"type": "Feature", "properties": {"name": "skovc3C31GuNkcUW9XMpfg", "score": 27.307049184691994}, "geometry": {"type": "Point", "coordinates": [7.48108, 46.9348529]}}, {"type": "Feature", "properties": {"name": "r1api3cDz1EaCNqt4-pqsg", "score": 27.254255413353214}, "geometry": {"type": "Point", "coordinates": [7.4811533, 46.9348054]}}, {"type": "Feature", "properties": {"name": "X9T_bdQRrQUo7cjnzrrU1A", "score": 15.397927179978224}, "geometry": {"type": "Point", "coordinates": [7.4811533, 46.9348054]}}, {"type": "Feature", "properties": {"name": "N5_lbMvLvYeoBIkQZGfl9g", "score": 18.632688333464632}, "geometry": {"type": "Point", "coordinates": [7.4812213, 46.9347643]}}, {"type": "Feature", "properties": {"name": "d9b30cNrhu3Jp7ZZM1zdhw", "score": 43.692422784356005}, "geometry": {"type": "Point", "coordinates": [7.481291, 46.9347229]}}, {"type": "Feature", "properties": {"name": "Bdhosr4IeRH06DsyQ_1_sw", "score": 40.40675592588697}, "geometry": {"type": "Point", "coordinates": [7.481291, 46.9347229]}}, {"type": "Feature", "properties": {"name": "CG_2nR-WSsAChIEaSWwpJw", "score": 38.63818715114653}, "geometry": {"type": "Point", "coordinates": [7.4813691, 46.9346798]}}, {"type": "Feature", "properties": {"name": "3aMZz2E0R8dbX4yz1XZghA", "score": 37.48311189469576}, "geometry": {"type": "Point", "coordinates": [7.4814433, 46.934637]}}, {"type": "Feature", "properties": {"name": "aRB2GdqkukpknsRvJSWFBQ", "score": 12.99884382955927}, "geometry": {"type": "Point", "coordinates": [7.4815125, 46.9345857]}}, {"type": "Feature", "properties": {"name": "OAIqi40R4s7KDTVOXj9Tng", "score": 37.390964380288445}, "geometry": {"type": "Point", "coordinates": [7.4815125, 46.9345857]}}, {"type": "Feature", "properties": {"name": "ON6FNj8KribO3FIjot0FeQ", "score": 13.01163237740714}, "geometry": {"type": "Point", "coordinates": [7.4815787, 46.934541]}}, {"type": "Feature", "properties": {"name": "eMHa2_mMaiF-y_0jtr_Zkg", "score": 37.33693489429021}, "geometry": {"type": "Point", "coordinates": [7.4816335, 46.9344966]}}, {"type": "Feature", "properties": {"name": "gNO4-Jmos5uFL_bXxhO6TQ", "score": 34.261737923049715}, "geometry": {"type": "Point", "coordinates": [7.4816967, 46.9344572]}}, {"type": "Feature", "properties": {"name": "ADzuXfR6w9LrtKPaJQBJQg", "score": 36.373464410878384}, "geometry": {"type": "Point", "coordinates": [7.4817613, 46.9344146]}}, {"type": "Feature", "properties": {"name": "OS09rLSZ8H-fpxrzpQyjWg", "score": 12.112387237528846}, "geometry": {"type": "Point", "coordinates": [7.4818302, 46.9343682]}}, {"type": "Feature", "properties": {"name": "QBOdjIyZj54QLLFu5Vqjrw", "score": 36.427697150948134}, "geometry": {"type": "Point", "coordinates": [7.4818947, 46.9343218]}}, {"type": "Feature", "properties": {"name": "yN1PKnzhJXqWxlDrBB8cEA", "score": 36.074612780323115}, "geometry": {"type": "Point", "coordinates": [7.4818947, 46.9343218]}}, {"type": "Feature", "properties": {"name": "gysC1jibnRyBaKqZ8BKLWA", "score": 35.752945138762854}, "geometry": {"type": "Point", "coordinates": [7.4819561, 46.9342824]}}, {"type": "Feature", "properties": {"name": "qm38EDVKYTthFaz_Qj3c5Q", "score": 35.457119667838256}, "geometry": {"type": "Point", "coordinates": [7.4820204, 46.9342363]}}, {"type": "Feature", "properties": {"name": "ljCRtB7Bme3dNb8TGMqOEQ", "score": 11.196516402550833}, "geometry": {"type": "Point", "coordinates": [7.4820959, 46.9341864]}}, {"type": "Feature", "properties": {"name": "FbflADAFGalBK0k_w1vIZQ", "score": 35.56736043092271}, "geometry": {"type": "Point", "coordinates": [7.4821698, 46.9341374]}}, {"type": "Feature", "properties": {"name": "HiBAKu2Sv0VEHDHg7QXTjg", "score": 35.30622917583254}, "geometry": {"type": "Point", "coordinates": [7.4822322, 46.9340923]}}, {"type": "Feature", "properties": {"name": "RlStt2jJJL_V_Ndl7F1guw", "score": 34.602072820021775}, "geometry": {"type": "Point", "coordinates": [7.482298, 46.9340493]}}, {"type": "Feature", "properties": {"name": "A17sDaWN0GNWarELMdD1Rg", "score": 31.367311666535375}, "geometry": {"type": "Point", "coordinates": [7.4823701, 46.9339992]}}, {"type": "Feature", "properties": {"name": "JUkerLqePzjc29nSHVm4Yw", "score": 30.18704038481116}, "geometry": {"type": "Point", "coordinates": [7.4824242, 46.9339512]}}, {"type": "Feature", "properties": {"name": "9__mVch1eROIWC5CcgeAKQ", "score": 29.53529314744165}, "geometry": {"type": "Point", "coordinates": [7.4824888, 46.9339035]}}, {"type": "Feature", "properties": {"name": "VRcy3xtQftkaIGbAYiohig", "score": 29.104379383708746}, "geometry": {"type": "Point", "coordinates": [7.4824888, 46.9339035]}}, {"type": "Feature", "properties": {"name": "M_-lrGxOXMEVAUzcKve--g", "score": 28.79027958017317}, "geometry": {"type": "Point", "coordinates": [7.4825442, 46.9338694]}}, {"type": "Feature", "properties": {"name": "SnN4BwaeteZLKBzZGG6fBw", "score": 28.546917555525187}, "geometry": {"type": "Point", "coordinates": [7.4825442, 46.9338694]}}, {"type": "Feature", "properties": {"name": "MMX4qB5auaDqJncu79a0ng", "score": 43.736354299712836}, "geometry": {"type": "Point", "coordinates": [7.4826195, 46.9338162]}}, {"type": "Feature", "properties": {"name": "nwKUPHwdiIyJ_sKz7AsvLw", "score": 43.438120020289126}, "geometry": {"type": "Point", "coordinates": [7.4826869, 46.9337698]}}, {"type": "Feature", "properties": {"name": "LUQTXog-NDzYmGkCkGFrPA", "score": 1.1032320983768615}, "geometry": {"type": "Point", "coordinates": [7.4827563, 46.9337096]}}, {"type": "Feature", "properties": {"name": "BDMB38KfrjCLurNYVACG2g", "score": 29.43603218887027}, "geometry": {"type": "Point", "coordinates": [7.4828281, 46.9336629]}}, {"type": "Feature", "properties": {"name": "IW7GF-TKeDcXiWwis8OONA", "score": 29.281098663237966}, "geometry": {"type": "Point", "coordinates": [7.4828281, 46.9336629]}}, {"type": "Feature", "properties": {"name": "ImaGvua0ufRtorZk3pyvOQ", "score": 2.93884188779567}, "geometry": {"type": "Point", "coordinates": [7.4829138, 46.9336093]}}, {"type": "Feature", "properties": {"name": "EWrfWmTZ-mVaDacplhcrAQ", "score": 30.10650445672575}, "geometry": {"type": "Point", "coordinates": [7.4829138, 46.9336093]}}, {"type": "Feature", "properties": {"name": "MAd1kcNo9xQzKILAkBBCcQ", "score": 29.965599295664372}, "geometry": {"type": "Point", "coordinates": [7.4829965, 46.9335526]}}, {"type": "Feature", "properties": {"name": "Ep_8YmJf9y8o1Ww0W6r4JA", "score": 29.835925509530686}, "geometry": {"type": "Point", "coordinates": [7.4830733, 46.9334968]}}, {"type": "Feature", "properties": {"name": "_vvsY71aPKnM2f6UjMg-oA", "score": 29.71579127370846}, "geometry": {"type": "Point", "coordinates": [7.4831519, 46.9334492]}}, {"type": "Feature", "properties": {"name": "0r3wT9oorXdLMCMcQyfQMA", "score": 29.60384898845164}, "geometry": {"type": "Point", "coordinates": [7.483226, 46.9333946]}}, {"type": "Feature", "properties": {"name": "qORTSofiuzQh2MstqRuluQ", "score": 29.499010016375287}, "geometry": {"type": "Point", "coordinates": [7.483226, 46.9333946]}}, {"type": "Feature", "properties": {"name": "VwOD-fP_g37EboXJK0lZvg", "score": 29.400383956970085}, "geometry": {"type": "Point", "coordinates": [7.4833062, 46.9333405]}}, {"type": "Feature", "properties": {"name": "UOs_DMxkCjuvznCB83SABA", "score": 34.602072820021775}, "geometry": {"type": "Point", "coordinates": [7.4833062, 46.9333405]}}, {"type": "Feature", "properties": {"name": "EwsD2kVLIPkLTkbAZMHP-g", "score": 31.367311666535375}, "geometry": {"type": "Point", "coordinates": [7.4833704, 46.9332757]}}, {"type": "Feature", "properties": {"name": "F7T1lxg_uUjopy-URxzaDQ", "score": 30.18704038481116}, "geometry": {"type": "Point", "coordinates": [7.483425, 46.9332203]}}, {"type": "Feature", "properties": {"name": "w55kZyqKW2SHP_lruc8qsg", "score": 29.53529314744165}, "geometry": {"type": "Point", "coordinates": [7.483425, 46.9332203]}}, {"type": "Feature", "properties": {"name": "0sEo0U8vbtgmu5MxHsHSQw", "score": 29.104379383708746}, "geometry": {"type": "Point", "coordinates": [7.483425, 46.9332203]}}, {"type": "Feature", "properties": {"name": "tmdbrKhSUvvjHNSEL_neEQ", "score": 43.69753590474314}, "geometry": {"type": "Point", "coordinates": [7.4834884, 46.9331573]}}, {"type": "Feature", "properties": {"name": "KB12_nCdO_PKqTDMm7qdtQ", "score": 28.546917555525187}, "geometry": {"type": "Point", "coordinates": [7.483549, 46.9330997]}}, {"type": "Feature", "properties": {"name": "IQC-3mRUsGCQMY1sexVNaw", "score": 28.350317411984467}, "geometry": {"type": "Point", "coordinates": [7.4836223, 46.9330347]}}, {"type": "Feature", "properties": {"name": "pJ75lzJcAOqKUVJnYLO3sg", "score": 28.186591496416195}, "geometry": {"type": "Point", "coordinates": [7.4836947, 46.9329702]}}, {"type": "Feature", "properties": {"name": "0_YzKYqyeluHrYOGeilArg", "score": 28.047054484366996}, "geometry": {"type": "Point", "coordinates": [7.4836947, 46.9329702]}}, {"type": "Feature", "properties": {"name": "CH89EG-YwXdh5h2CLbdsTg", "score": 27.925952213861944}, "geometry": {"type": "Point", "coordinates": [7.4837497, 46.9329038]}}, {"type": "Feature", "properties": {"name": "hbkMlqQy_H3p6x9l14vUeg", "score": 27.819297162561664}, "geometry": {"type": "Point", "coordinates": [7.4838181, 46.9328376]}}, {"type": "Feature", "properties": {"name": "Az-Co0D0U2ujaqPgrGbsNQ", "score": 27.724224616437706}, "geometry": {"type": "Point", "coordinates": [7.4838762, 46.9327707]}}, {"type": "Feature", "properties": {"name": "rxQudjLrU8ph5BL7d_e56A", "score": 27.63861476993814}, "geometry": {"type": "Point", "coordinates": [7.4838762, 46.9327707]}}, {"type": "Feature", "properties": {"name": "pZGT_gjpDd8NY1upGNTNiw", "score": 27.560859844736097}, "geometry": {"type": "Point", "coordinates": [7.4839327, 46.9327057]}}, {"type": "Feature", "properties": {"name": "HcqEsYPeFfw1Scj75RHQ-g", "score": 27.48971465067471}, "geometry": {"type": "Point", "coordinates": [7.4839327, 46.9327057]}}, {"type": "Feature", "properties": {"name": "uxVDRfRrxcvmgfYrlgDRtQ", "score": 27.424197358501388}, "geometry": {"type": "Point", "coordinates": [7.4839327, 46.9327057]}}, {"type": "Feature", "properties": {"name": "QOb6GSQ0Bml45fKQgLnzFg", "score": 27.363521657964444}, "geometry": {"type": "Point", "coordinates": [7.4839327, 46.9327057]}}, {"type": "Feature", "properties": {"name": "G7zWhqrDeDFq0t4yooICdg", "score": 27.307049184691994}, "geometry": {"type": "Point", "coordinates": [7.4839327, 46.9327057]}}, {"type": "Feature", "properties": {"name": "zDYHead0p0L1pBh0aJuK-g", "score": 27.254255413353214}, "geometry": {"type": "Point", "coordinates": [7.4840012, 46.9326382]}}, {"type": "Feature", "properties": {"name": "jGn8Bgb8BJvSFdMFBpbxkA", "score": 34.602072820021775}, "geometry": {"type": "Point", "coordinates": [7.4840012, 46.9326382]}}, {"type": "Feature", "properties": {"name": "Jgg7Do9Ldrp_X6B5GHT11w", "score": 31.367311666535375}, "geometry": {"type": "Point", "coordinates": [7.4840012, 46.9326382]}}, {"type": "Feature", "properties": {"name": "gJrdIJgSpa1cL_TV7JLteQ", "score": 30.18704038481116}, "geometry": {"type": "Point", "coordinates": [7.4840604, 46.9325701]}}, {"type": "Feature", "properties": {"name": "s7z96Q-CwucVr5xyaLDdCQ", "score": 29.53529314744165}, "geometry": {"type": "Point", "coordinates": [7.4841275, 46.9325022]}}, {"type": "Feature", "properties": {"name": "rKKIQWafElmCC2-HX4uqPg", "score": 29.104379383708746}, "geometry": {"type": "Point", "coordinates": [7.4841872, 46.9324445]}}, {"type": "Feature", "properties": {"name": "o2eDYjPBwku6Xq5S5v8hag", "score": 28.79027958017317}, "geometry": {"type": "Point", "coordinates": [7.4841872, 46.9324445]}}, {"type": "Feature", "properties": {"name": "gFfmhTfDfyDOXn4Y9MOhOg", "score": 28.546917555525187}, "geometry": {"type": "Point", "coordinates": [7.4842572, 46.9323896]}}, {"type": "Feature", "properties": {"name": "DSFiDp6OEUq5xZmoHoslqA", "score": 28.350317411984467}, "geometry": {"type": "Point", "coordinates": [7.4843151, 46.9323291]}}, {"type": "Feature", "properties": {"name": "dyn9rUOKdLUrbzdYt78FPQ", "score": 45.906982511133165}, "geometry": {"type": "Point", "coordinates": [7.4843151, 46.9323291]}}, {"type": "Feature", "properties": {"name": "-RvpdC1fiiD0NJXyRWaJVA", "score": 28.047054484366996}, "geometry": {"type": "Point", "coordinates": [7.4844478, 46.9322091]}}, {"type": "Feature", "properties": {"name": "uOxHOO7gO4QQTkmLvYifDA", "score": 27.925952213861944}, "geometry": {"type": "Point", "coordinates": [7.4845168, 46.9321557]}}, {"type": "Feature", "properties": {"name": "ClidKW_foPUHeO6pQFkUiA", "score": 27.819297162561664}, "geometry": {"type": "Point", "coordinates": [7.484582, 46.932105]}}, {"type": "Feature", "properties": {"name": "E2chtPSfBObMrIJb6238cg", "score": 27.724224616437706}, "geometry": {"type": "Point", "coordinates": [7.484582, 46.932105]}}, {"type": "Feature", "properties": {"name": "ZT4BuDj-P0-PX7uzQfWy4Q", "score": 27.63861476993814}, "geometry": {"type": "Point", "coordinates": [7.4846561, 46.9320519]}}, {"type": "Feature", "properties": {"name": "oCpESWgvZc4SA0c3Na1nJQ", "score": 27.560859844736097}, "geometry": {"type": "Point", "coordinates": [7.4847324, 46.932007]}}, {"type": "Feature", "properties": {"name": "TDMWFn5hVm3fY8DbOSR4ZQ", "score": 27.48971465067471}, "geometry": {"type": "Point", "coordinates": [7.4847978, 46.9319513]}}, {"type": "Feature", "properties": {"name": "5YmLIgBW-6KsCFoIRkPQLQ", "score": 27.424197358501388}, "geometry": {"type": "Point", "coordinates": [7.4848582, 46.9318962]}}, {"type": "Feature", "properties": {"name": "4nNfDMMbGkzqa9aV-JJ0Eg", "score": 27.363521657964444}, "geometry": {"type": "Point", "coordinates": [7.4848582, 46.9318962]}}, {"type": "Feature", "properties": {"name": "wPn0aT4x_F2Z1xNysnLi0w", "score": 27.307049184691994}, "geometry": {"type": "Point", "coordinates": [7.4848582, 46.9318962]}}, {"type": "Feature", "properties": {"name": "A6ayltz191c7jOeepRYkJA", "score": 27.254255413353214}, "geometry": {"type": "Point", "coordinates": [7.4849186, 46.9318418]}}, {"type": "Feature", "properties": {"name": "pNXCxqmRMwMJhANaxB4hcQ", "score": 15.397927179978224}, "geometry": {"type": "Point", "coordinates": [7.4850666, 46.9317726]}}, {"type": "Feature", "properties": {"name": "gu--n3wt0l7cNk39iaRknQ", "score": 18.632688333464632}, "geometry": {"type": "Point", "coordinates": [7.4850666, 46.9317726]}}, {"type": "Feature", "properties": {"name": "qIAQckcJk5dtEMVqJVRY9Q", "score": 19.812959615188852}, "geometry": {"type": "Point", "coordinates": [7.4851566, 46.9317678]}}, {"type": "Feature", "properties": {"name": "suZvVtJsqBxeUByGrjU6RQ", "score": 20.464706852558336}, "geometry": {"type": "Point", "coordinates": [7.4852506, 46.9317685]}}, {"type": "Feature", "properties": {"name": "8qonP-ffOekfHL7A2_5vVw", "score": 20.895620616291243}, "geometry": {"type": "Point", "coordinates": [7.4853501, 46.9317638]}}, {"type": "Feature", "properties": {"name": "ZFBDfF00kIXfITMj_oLjXA", "score": 21.209720419826805}, "geometry": {"type": "Point", "coordinates": [7.4853501, 46.9317638]}},