{"type": "FeatureCollection", "features": [{"type": "Feature", "properties": {"name": "xYsNHHvqbJN7X01BquUi6w", "score": 35}, "geometry": {"type": "Point", "coordinates": [8.3224005, 47.0852678]}}, {"type": "Feature", "properties": {"name": "kMgmquWYDAUFe5dK1Ew08A", "score": 11}, "geometry": {"type": "Point", "coordinates": [8.3225105, 47.0853957]}}, {"type": "Feature", "properties": {"name": "kycXq5mXBuARkZtWSRZNag", "score": 11}, "geometry": {"type": "Point", "coordinates": [8.3230731, 47.0857855]}}, {"type": "Feature", "properties": {"name": "IrZn-83lZPpEbIc5VAJ4RQ", "score": 35}, "geometry": {"type": "Point", "coordinates": [8.3232009, 47.0859329]}}, {"type": "Feature", "properties": {"name": "5SF91u5eB-XBPCSpizqtMg", "score": 22}, "geometry": {"type": "Point", "coordinates": [8.3233976, 47.086082]}}, {"type": "Feature", "properties": {"name": "3YmBXcCiR7sqKWs_gutaig", "score": 34}, "geometry": {"type": "Point", "coordinates": [8.3235545, 47.0862207]}}, {"type": "Feature", "properties": {"name": "iSsQ9bTBUCW0bW8MBQo_-g", "score": 27}, "geometry": {"type": "Point", "coordinates": [8.3237271, 47.0863688]}}, {"type": "Feature", "properties": {"name": "sn4F0t2zvs7APsifA0DmJQ", "score": 43}, "geometry": {"type": "Point", "coordinates": [8.3238595, 47.0864875]}}, {"type": "Feature", "properties": {"name": "6aPE-JL_mk-f99bp7jkOGQ", "score": 28}, "geometry": {"type": "Point", "coordinates": [8.3240179, 47.0866197]}}, {"type": "Feature", "properties": {"name": "imatz-ieklsahxC5C0n9Qw", "score": 19}, "geometry": {"type": "Point", "coordinates": [8.3241923, 47.0867628]}}, {"type": "Feature", "properties": {"name": "xczu7RgDT0z7i74NxpLt9Q", "score": 10}, "geometry": {"type": "Point", "coordinates": [8.3242978, 47.0868852]}}, {"type": "Feature", "properties": {"name": "pBScPMP2B8KhEiUQ3VhRfQ", "score": 21}, "geometry": {"type": "Point", "coordinates": [8.3244729, 47.0870287]}}, {"type": "Feature", "properties": {"name": "BsBH7wVGPnsi6irbfwczEg", "score": 14}, "geometry": {"type": "Point", "coordinates": [8.3247683, 47.0872618]}}, {"type": "Feature", "properties": {"name": "8PaFBj9QWTEfLI_1qbB2GQ", "score": 19}, "geometry": {"type": "Point", "coordinates": [8.324957, 47.08741]}}, {"type": "Feature", "properties": {"name": "gVGie-vBr8uvzl6RLRnG9Q", "score": 35}, "geometry": {"type": "Point", "coordinates": [8.3251016, 47.0875323]}}, {"type": "Feature", "properties": {"name": "wqVju48k5AAI92GcApicqQ", "score": 38}, "geometry": {"type": "Point", "coordinates": [8.325232, 47.0876587]}}, {"type": "Feature", "properties": {"name": "UaLRWOQgYIvXNri9lEj_xw", "score": 36}, "geometry": {"type": "Point", "coordinates": [8.3253235, 47.0877574]}}, {"type": "Feature", "properties": {"name": "s6-3LjUL46UrZ3jY3NqphA", "score": 36}, "geometry": {"type": "Point", "coordinates": [8.3254379, 47.0878811]}}, {"type": "Feature", "properties": {"name": "dIh9srx2-Noa0ojPZ-rekQ", "score": 35}, "geometry": {"type": "Point", "coordinates": [8.3256185, 47.0880298]}}, {"type": "Feature", "properties": {"name": "zJoPXUprHGdmkJtmA9sBsQ", "score": 32}, "geometry": {"type": "Point", "coordinates": [8.3257678, 47.0881328]}}, {"type": "Feature", "properties": {"name": "WjKniq6k4PIzbj2MFgiosQ", "score": 13}, "geometry": {"type": "Point", "coordinates": [8.3259437, 47.0882495]}}, {"type": "Feature", "properties": {"name": "vZ5NAFkA7HIPh8mmwZJ7LQ", "score": 28}, "geometry": {"type": "Point", "coordinates": [8.3261467, 47.0883739]}}, {"type": "Feature", "properties": {"name": "SeCZ4E-hrRGHKXmx8bJLsQ", "score": 38}, "geometry": {"type": "Point", "coordinates": [8.3262914, 47.088472]}}, {"type": "Feature", "properties": {"name": "o0ahBs8FCukDK1_cuIEqrg", "score": 21}, "geometry": {"type": "Point", "coordinates": [8.3264778, 47.0885931]}}, {"type": "Feature", "properties": {"name": "lMhww0fw_nO-csKlC9G_0g", "score": 35}, "geometry": {"type": "Point", "coordinates": [8.3266413, 47.0887041]}}, {"type": "Feature", "properties": {"name": "pUQndT0j2b3XvQyOkGs7qg", "score": 14}, "geometry": {"type": "Point", "coordinates": [8.3268036, 47.0888196]}}, {"type": "Feature", "properties": {"name": "3NzqnNhvDCrAJ1OohFzlJQ", "score": 14}, "geometry": {"type": "Point", "coordinates": [8.326971, 47.0889285]}}, {"type": "Feature", "properties": {"name": "_NG7VCYYjvPOXG_BTkkD2A", "score": 25}, "geometry": {"type": "Point", "coordinates": [8.3271369, 47.0890392]}}, {"type": "Feature", "properties": {"name": "42m1X5KSrKq_mS76-9gCwQ", "score": 25}, "geometry": {"type": "Point", "coordinates": [8.3273187, 47.0891585]}}, {"type": "Feature", "properties": {"name": "nJRIFcwFgcOrO7UL9fHf8w", "score": 28}, "geometry": {"type": "Point", "coordinates": [8.3274866, 47.0892633]}}, {"type": "Feature", "properties": {"name": "I_Fdml_g-BKUL1_lOrC_0A", "score": 14}, "geometry": {"type": "Point", "coordinates": [8.3276365, 47.0893535]}}, {"type": "Feature", "properties": {"name": "rwxzbZV-WMmSbE9c6D-LJw", "score": 14}, "geometry": {"type": "Point", "coordinates": [8.327823, 47.0894669]}}, {"type": "Feature", "properties": {"name": "wuGbmpjgExT-AO97p_U7DQ", "score": 19}, "geometry": {"type": "Point", "coordinates": [8.3279931, 47.0895675]}}, {"type": "Feature", "properties": {"name": "i1iTzT9GA_bT6o2sMlNQEA", "score": 43}, "geometry": {"type": "Point", "coordinates": [8.3281614, 47.0896683]}}, {"type": "Feature", "properties": {"name": "PtjDrTkn1dwGYtx4AfyzEQ", "score": 21}, "geometry": {"type": "Point", "coordinates": [8.3283305, 47.0897673]}}, {"type": "Feature", "properties": {"name": "qOwzxxKTSPdzZZpSu8If6A", "score": 46}, "geometry": {"type": "Point", "coordinates": [8.3285007, 47.0898633]}}, {"type": "Feature", "properties": {"name": "ieK66tfGd7i4vhGmkx0LuQ", "score": 38}, "geometry": {"type": "Point", "coordinates": [8.3286745, 47.089956]}}, {"type": "Feature", "properties": {"name": "6xyKUofjCR6MCKfC_I9Vlw", "score": 6}, "geometry": {"type": "Point", "coordinates": [8.3288518, 47.0900526]}}, {"type": "Feature", "properties": {"name": "bEgqRlDcQ2sp9QwN1RmE7g", "score": 35}, "geometry": {"type": "Point", "coordinates": [8.3290269, 47.0901485]}}, {"type": "Feature", "properties": {"name": "UifbylCcuKvaajH_MwnFCw", "score": 14}, "geometry": {"type": "Point", "coordinates": [8.3292046, 47.0902429]}}, {"type": "Feature", "properties": {"name": "OqWA0ZW9Hm_l2_XMCdKj_A", "score": 7}, "geometry": {"type": "Point", "coordinates": [8.3293828, 47.0903355]}}, {"type": "Feature", "properties": {"name": "l6MVPoUYvCO5ispUsncDng", "score": 14}, "geometry": {"type": "Point", "coordinates": [8.3295809, 47.090438]}}, {"type": "Feature", "properties": {"name": "nfui21rlL7OnmRXlqV5lHw", "score": 14}, "geometry": {"type": "Point", "coordinates": [8.3297603, 47.0905281]}}, {"type": "Feature", "properties": {"name": "vtMm7TUEQ8HZ5yUnsXw7pA", "score": 35}, "geometry": {"type": "Point", "coordinates": [8.3299158, 47.0906129]}}, {"type": "Feature", "properties": {"name": "VkD3kcoFw9CDTVWZfogstw", "score": 26}, "geometry": {"type": "Point", "coordinates": [8.3301131, 47.0907148]}}, {"type": "Feature", "properties": {"name": "svVSrkfWQZHVMPr_BzSPvg", "score": 35}, "geometry": {"type": "Point", "coordinates": [8.3302919, 47.0908039]}}, {"type": "Feature", "properties": {"name": "N5w_lgKeDIaXmQnO6Yl1MA", "score": 21}, "geometry": {"type": "Point", "coordinates": [8.3304629, 47.0909033]}}, {"type": "Feature", "properties": {"name": "BbzcnCWXjUWS5cLfVF1DQA", "score": 19}, "geometry": {"type": "Point", "coordinates": [8.3306378, 47.0909966]}}, {"type": "Feature", "properties": {"name": "4LrOKDdYcpyMr4r832_bsw", "score": 35}, "geometry": {"type": "Point", "coordinates": [8.3308149, 47.0910878]}}, {"type": "Feature", "properties": {"name": "ORl9r_b3SIVrTa6OXvWQcA", "score": 38}, "geometry": {"type": "Point", "coordinates": [8.3310104, 47.0911893]}}, {"type": "Feature", "properties": {"name": "Tc4Cq2v6qHbAd7vXgFfC_Q", "score": 35}, "geometry": {"type": "Point", "coordinates": [8.3317065, 47.0915265]}}, {"type": "Feature", "properties": {"name": "el411d6wI8rLiQTYTB1qCw", "score": 21}, "geometry": {"type": "Point", "coordinates": [8.3319058, 47.0916255]}}, {"type": "Feature", "properties": {"name": "kVhpC76Kt0LjdI1CTkxeKQ", "score": 38}, "geometry": {"type": "Point", "coordinates": [8.3320821, 47.0917148]}}, {"type": "Feature", "properties": {"name": "54prJ5QDzwrtfkge42SuWg", "score": 20}, "geometry": {"type": "Point", "coordinates": [8.3322616, 47.0918015]}}, {"type": "Feature", "properties": {"name": "CmRfDvHtQeB5o-yHJkVemw", "score": 24}, "geometry": {"type": "Point", "coordinates": [8.3324482, 47.0918799]}}, {"type": "Feature", "properties": {"name": "DwfUXPb3aKJ5OVUQGyal7g", "score": 35}, "geometry": {"type": "Point", "coordinates": [8.3326281, 47.0919642]}}, {"type": "Feature", "properties": {"name": "VQ_aeM0eanzXw85ECLVMaw", "score": 35}, "geometry": {"type": "Point", "coordinates": [8.3328061, 47.0920471]}}, {"type": "Feature", "properties": {"name": "Tzk0dx76nc_l6aFsdZTLig", "score": 24}, "geometry": {"type": "Point", "coordinates": [8.3330034, 47.0921399]}}, {"type": "Feature", "properties": {"name": "ywEf9zm6jD2u0yMiY6yhgw", "score": 14}, "geometry": {"type": "Point", "coordinates": [8.3331622, 47.092213]}}, {"type": "Feature", "properties": {"name": "TxV7YlVP7HyQVzqDeUH3pA", "score": 19}, "geometry": {"type": "Point", "coordinates": [8.33336, 47.0923063]}}, {"type": "Feature", "properties": {"name": "3kw6GwlnJUtcf2fG2SGj1Q", "score": 39}, "geometry": {"type": "Point", "coordinates": [8.3335209, 47.0923786]}}, {"type": "Feature", "properties": {"name": "cavpjmz7uftY-mFwbSzfWw", "score": 32}, "geometry": {"type": "Point", "coordinates": [8.3337177, 47.0924746]}}, {"type": "Feature", "properties": {"name": "NFGUpE4mlA7G3oxRkrk_xA", "score": 11}, "geometry": {"type": "Point", "coordinates": [8.3338926, 47.0925602]}}, {"type": "Feature", "properties": {"name": "VvcUeyXK7KGHHWaaS4vSwQ", "score": 14}, "geometry": {"type": "Point", "coordinates": [8.3342427, 47.0927284]}}, {"type": "Feature", "properties": {"name": "-WlH0imkP1PCg1TmZqU9Fw", "score": 35}, "geometry": {"type": "Point", "coordinates": [8.3344114, 47.0928161]}}, {"type": "Feature", "properties": {"name": "B2FiIlBvHBWMfhLU_gPkYA", "score": 14}, "geometry": {"type": "Point", "coordinates": [8.3346012, 47.09291]}}, {"type": "Feature", "properties": {"name": "irHYMNDY90PpmLvzY2vZ1w", "score": 35}, "geometry": {"type": "Point", "coordinates": [8.3347502, 47.0929887]}}, {"type": "Feature", "properties": {"name": "1EY4-_2ksME6y0baSLxQlg", "score": 38}, "geometry": {"type": "Point", "coordinates": [8.3349182, 47.0930771]}}, {"type": "Feature", "properties": {"name": "yrdX6LqcDFg43vrrj_fV-g", "score": 21}, "geometry": {"type": "Point", "coordinates": [8.3351064, 47.0931745]}}, {"type": "Feature", "properties": {"name": "VGxTbrUKB28pxXAA-EzHJw", "score": 35}, "geometry": {"type": "Point", "coordinates": [8.3352574, 47.0932501]}}, {"type": "Feature", "properties": {"name": "ixh1v635hK0vMLK338Wakw", "score": 11}, "geometry": {"type": "Point", "coordinates": [8.3354441, 47.0933452]}}, {"type": "Feature", "properties": {"name": "uL9xxrPUKRPqOiNb5-miPQ", "score": 12}, "geometry": {"type": "Point", "coordinates": [8.3356102, 47.0934327]}}, {"type": "Feature", "properties": {"name": "nIrVz2ndzqcOPrrvQHsoTg", "score": 21}, "geometry": {"type": "Point", "coordinates": [8.335757, 47.0935112]}}, {"type": "Feature", "properties": {"name": "GlREFGomYyidTWltCzj1WA", "score": 14}, "geometry": {"type": "Point", "coordinates": [8.3359411, 47.0936097]}}, {"type": "Feature", "properties": {"name": "cxm1fGXOb6dw6QrjYvU0CQ", "score": 32}, "geometry": {"type": "Point", "coordinates": [8.3361016, 47.0937013]}}, {"type": "Feature", "properties": {"name": "cmcbqlPX1bZGR169JI-Fvw", "score": 14}, "geometry": {"type": "Point", "coordinates": [8.3362615, 47.0937974]}}, {"type": "Feature", "properties": {"name": "S6xcOHQ4WZTvUugbr8a6VA", "score": 35}, "geometry": {"type": "Point", "coordinates": [8.3364233, 47.0938914]}}, {"type": "Feature", "properties": {"name": "17SFT4ncabUpZsTclBeSCw", "score": 20}, "geometry": {"type": "Point", "coordinates": [8.3365844, 47.0939866]}}, {"type": "Feature", "properties": {"name": "2-OiBnnGQnnBABLiZGocog", "score": 35}, "geometry": {"type": "Point", "coordinates": [8.3367441, 47.0940823]}}, {"type": "Feature", "properties": {"name": "JG-BOrE6cHeDA_awYFCH9g", "score": 39}, "geometry": {"type": "Point", "coordinates": [8.3369029, 47.0941782]}}, {"type": "Feature", "properties": {"name": "DRZZ-TJdA7NuvJVgYlTMYA", "score": 31}, "geometry": {"type": "Point", "coordinates": [8.3370507, 47.0942821]}}, {"type": "Feature", "properties": {"name": "K39spYp65FoHFG9n-vL07w", "score": 14}, "geometry": {"type": "Point", "coordinates": [8.3371969, 47.0944071]}}, {"type": "Feature", "properties": {"name": "WvMhzvGd8LCq4t4cs5r-2A", "score": 35}, "geometry": {"type": "Point", "coordinates": [8.3373219, 47.0945185]}}, {"type": "Feature", "properties": {"name": "PV_MXjLElDJzcymnYd7HkQ", "score": 13}, "geometry": {"type": "Point", "coordinates": [8.3374349, 47.0946144]}}, {"type": "Feature", "properties": {"name": "avS9tybfYYAEkOKDHMoleQ", "score": 14}, "geometry": {"type": "Point", "coordinates": [8.3375681, 47.0947389]}}, {"type": "Feature", "properties": {"name": "mmFzFsnd7_dakFAZoCQf-A", "score": 19}, "geometry": {"type": "Point", "coordinates": [8.3376905, 47.0948525]}}, {"type": "Feature", "properties": {"name": "d075Nyz6EeFWUtug18CS4A", "score": 38}, "geometry": {"type": "Point", "coordinates": [8.3378245, 47.0949596]}}, {"type": "Feature", "properties": {"name": "Ow3-T5AMVr51lkuv7oEGTg", "score": 35}, "geometry": {"type": "Point", "coordinates": [8.3379486, 47.0950728]}}, {"type": "Feature", "properties": {"name": "-FtRhYl0VLUfN45ywGpNiQ", "score": 44}, "geometry": {"type": "Point", "coordinates": [8.3380647, 47.0951885]}}, {"type": "Feature", "properties": {"name": "Gu4cTH-qYn7e2kh6Okv-DQ", "score": 21}, "geometry": {"type": "Point", "coordinates": [8.3381833, 47.0953176]}}, {"type": "Feature", "properties": {"name": "6wBCqMa5Xek3Xc8KMReXnw", "score": 30}, "geometry": {"type": "Point", "coordinates": [8.3382816, 47.0954194]}}, {"type": "Feature", "properties": {"name": "wTyamLNHiV8q06gIMC5Dbg", "score": 21}, "geometry": {"type": "Point", "coordinates": [8.338373, 47.0955508]}}, {"type": "Feature", "properties": {"name": "2Ukr5Pjt8aKIBWDhmP-ALQ", "score": 21}, "geometry": {"type": "Point", "coordinates": [8.3384507, 47.0956916]}}, {"type": "Feature", "properties": {"name": "ggJL1UnNlDt1MV4oQ6BSoQ", "score": 14}, "geometry": {"type": "Point", "coordinates": [8.3385447, 47.0958093]}}, {"type": "Feature", "properties": {"name": "UGW6wPZa29FY04LqEDYWZA", "score": 29}, "geometry": {"type": "Point", "coordinates": [8.3386496, 47.0959337]}}, {"type": "Feature", "properties": {"name": "LnVd-2sJ00L3VKyZcWbAkg", "score": 21}, "geometry": {"type": "Point", "coordinates": [8.3387398, 47.0960559]}}, {"type": "Feature", "properties": {"name": "Sz2udg-YqomlBTm1j7-sDg", "score": 36}, "geometry": {"type": "Point", "coordinates": [8.338836, 47.0961742]}}, {"type": "Feature", "properties": {"name": "1X5LW-9TagxftqVYtPs2iw", "score": 13}, "geometry": {"type": "Point", "coordinates": [8.3389338, 47.0962877]}}, {"type": "Feature", "properties": {"name": "Smrnjj3eEHkih9rbOsx-nA", "score": 36}, "geometry": {"type": "Point", "coordinates": [8.3390292, 47.0963951]}}, {"type": "Feature", "properties": {"name": "Y64KpFcu1BsEwSPT8hNccw", "score": 21}, "geometry": {"type": "Point", "coordinates": [8.3391317, 47.0965282]}}, {"type": "Feature", "properties": {"name": "b7issd58_Szo9fEfq5tg-w", "score": 11}, "geometry": {"type": "Point", "coordinates": [8.3392091, 47.0966329]}}, {"type": "Feature", "properties": {"name": "2MnhwcAJ9PAUo0-vEhyhWA", "score": 35}, "geometry": {"type": "Point", "coordinates": [8.339289, 47.0967522]}}, {"type": "Feature", "properties": {"name": "EJjA8ui8LLRjArBtdHr3Tw", "score": 38}, "geometry": {"type": "Point", "coordinates": [8.339384, 47.0968809]}}, {"type": "Feature", "properties": {"name": "T6nqw5Lzj2JewV7UuqZqkQ", "score": 8}, "geometry": {"type": "Point", "coordinates": [8.3394584, 47.0969841]}}, {"type": "Feature", "properties": {"name": "P18u8V7QxTPP4eiBf9yefQ", "score": 11}, "geometry": {"type": "Point", "coordinates": [8.3395532, 47.0971135]}}, {"type": "Feature", "properties": {"name": "L2mCP-tTA7oA5bXggqP69w", "score": 13}, "geometry": {"type": "Point", "coordinates": [8.3396389, 47.0972325]}}, {"type": "Feature", "properties": {"name": "x-s7bWLdVVg94atqmvSH6w", "score": 24}, "geometry": {"type": "Point", "coordinates": [8.3397289, 47.0973507]}}, {"type": "Feature", "properties": {"name": "o_LgRl7IDjWZRvw8m2hPuA", "score": 14}, "geometry": {"type": "Point", "coordinates": [8.3398168, 47.0974742]}}, {"type": "Feature", "properties": {"name": "Et3X8vv-yu4Rwx0qiB8EHw", "score": 28}, "geometry": {"type": "Point", "coordinates": [8.3399075, 47.097597]}}, {"type": "Feature", "properties": {"name": "GKlDal1PmUZ1ZoDhZ_tQbw", "score": 7}, "geometry": {"type": "Point", "coordinates": [8.3400116, 47.097731]}}, {"type": "Feature", "properties": {"name": "Emz1bWsryVTrEG9Wcp7KHg", "score": 21}, "geometry": {"type": "Point", "coordinates": [8.3400952, 47.0978409]}}, {"type": "Feature", "properties": {"name": "HJKMStCapm3S1AouzyGRXw", "score": 14}, "geometry": {"type": "Point", "coordinates": [8.3401891, 47.097966]}}, {"type": "Feature", "properties": {"name": "iLLz_I6YcOqufqJ35f_ydw", "score": 11}, "geometry": {"type": "Point", "coordinates": [8.3402941, 47.0981019]}}, {"type": "Feature", "properties": {"name": "A4k79VARJKySzwwx_uLEIw", "score": 11}, "geometry": {"type": "Point", "coordinates": [8.3403751, 47.0982167]}}, {"type": "Feature", "properties": {"name": "IDmE03BItnS4oOMghgym8Q", "score": 35}, "geometry": {"type": "Point", "coordinates": [8.3404679, 47.0983403]}}, {"type": "Feature", "properties": {"name": "oQvoW9JU23VZv7jE22bGBw", "score": 21}, "geometry": {"type": "Point", "coordinates": [8.3405715, 47.0984813]}}, {"type": "Feature", "properties": {"name": "vBeJILHJvjUmCRXsJHM-zw", "score": 14}, "geometry": {"type": "Point", "coordinates": [8.3406774, 47.0985609]}}, {"type": "Feature", "properties": {"name": "ZdsATkwCNUySBbmyG49w7w", "score": 21}, "geometry": {"type": "Point", "coordinates": [8.3407858, 47.0986967]}}, {"type": "Feature", "properties": {"name": "UDGub-H98XUB8ud_L06XOw", "score": 11}, "geometry": {"type": "Point", "coordinates": [8.3408784, 47.09882]}}, {"type": "Feature", "properties": {"name": "9x9uYLxYEnPzxruAgWkPZQ", "score": 4}, "geometry": {"type": "Point", "coordinates": [8.3409674, 47.0989491]}}, {"type": "Feature", "properties": {"name": "EgHTGcEJe59fCH2xM4U3Sg", "score": 35}, "geometry": {"type": "Point", "coordinates": [8.3410579, 47.0990755]}}, {"type": "Feature", "properties": {"name": "rNpfiCqyauw5zrdtCZYqCQ", "score": 14}, "geometry": {"type": "Point", "coordinates": [8.3411535, 47.0991995]}}, {"type": "Feature", "properties": {"name": "Bu92izNe8zgJR9HC1ddglw", "score": 14}, "geometry": {"type": "Point", "coordinates": [8.3412466, 47.0993251]}}, {"type": "Feature", "properties": {"name": "ZAB21hbdpLrGCCU_8pJMVA", "score": 19}, "geometry": {"type": "Point", "coordinates": [8.3413417, 47.0994463]}}, {"type": "Feature", "properties": {"name": "wxhbvioufkuvh1mlDuN3Nw", "score": 35}, "geometry": {"type": "Point", "coordinates": [8.3414547, 47.0995791]}}, {"type": "Feature", "properties": {"name": "xHazXNsVONljxB5EgFtgtg", "score": 11}, "geometry": {"type": "Point", "coordinates": [8.3415383, 47.0996849]}}, {"type": "Feature", "properties": {"name": "DPIQccUw7xJ51LRD4qvD_Q", "score": 15}, "geometry": {"type": "Point", "coordinates": [8.3416504, 47.0998218]}}, {"type": "Feature", "properties": {"name": "ulqY4nhgnpP3EYdvxDTDQQ", "score": 11}, "geometry": {"type": "Point", "coordinates": [8.3417461, 47.0999425]}}, {"type": "Feature", "properties": {"name": "-OghdOUiNPGKR_I4oL-rwg", "score": 11}, "geometry": {"type": "Point", "coordinates": [8.3418464, 47.1000634]}}, {"type": "Feature", "properties": {"name": "dvQVl6ZQ2rHqhCUH8O3sqw", "score": 24}, "geometry": {"type": "Point", "coordinates": [8.3419504, 47.1001838]}}, {"type": "Feature", "properties": {"name": "KS3jxikmCruPK2YTcQk_tA", "score": 19}, "geometry": {"type": "Point", "coordinates": [8.3420616, 47.1003092]}}, {"type": "Feature", "properties": {"name": "NbCpRjKDyToE07Io0XBQ-w", "score": 28}, "geometry": {"type": "Point", "coordinates": [8.342183, 47.100444]}}, {"type": "Feature", "properties": {"name": "hPgmkMkVMU7Waevv3XhAPw", "score": 28}, "geometry": {"type": "Point", "coordinates": [8.3422802, 47.1005498]}}, {"type": "Feature", "properties": {"name": "ZDUZzBmgejBLsyOjuve-jw", "score": 14}, "geometry": {"type": "Point", "coordinates": [8.3424106, 47.1006874]}}, {"type": "Feature", "properties": {"name": "1YSuxUxIvFW4Xj-Z6JC7bA", "score": 14}, "geometry": {"type": "Point", "coordinates": [8.3425186, 47.1007972]}}, {"type": "Feature", "properties": {"name": "eFsVQP1M3tadhS5t371T8g", "score": 14}, "geometry": {"type": "Point", "coordinates": [8.3426574, 47.1009351]}}, {"type": "Feature", "properties": {"name": "O7_tDG7-mSa4LH20QHHO6g", "score": 14}, "geometry": {"type": "Point", "coordinates": [8.3427904, 47.1010567]}}, {"type": "Feature", "properties": {"name": "rgkcKRrECEWaN0qY_5jh9Q", "score": 35}, "geometry": {"type": "Point", "coordinates": [8.3429024, 47.1011623]}}, {"type": "Feature", "properties": {"name": "K6lk7dDC0bkcwKhsapa-Lw", "score": 35}, "geometry": {"type": "Point", "coordinates": [8.3430311, 47.1012808]}}, {"type": "Feature", "properties": {"name": "qPeuSp1Q-xGrCc87YeDl4w", "score": 21}, "geometry": {"type": "Point", "coordinates": [8.3431869, 47.1014021]}}, {"type": "Feature", "properties": {"name": "ZySYpro2wezdS3qxzR0r8A", "score": 24}, "geometry": {"type": "Point", "coordinates": [8.3433261, 47.1015161]}}, {"type": "Feature", "properties": {"name": "OSgR0vPrFWKwVbPonlxyZA", "score": 18}, "geometry": {"type": "Point", "coordinates": [8.3434656, 47.101628]}}, {"type": "Feature", "properties": {"name": "w3U5P3B7lsl9gXuFGSvifQ", "score": 35}, "geometry": {"type": "Point", "coordinates": [8.3436028, 47.1017398]}}, {"type": "Feature", "properties": {"name": "OkRdyw7_JUvr4XPu96fVHQ", "score": 14}, "geometry": {"type": "Point", "coordinates": [8.3437589, 47.1018597]}}, {"type": "Feature", "properties": {"name": "Oe2zexrPtB50rM0KFnI7bA", "score": 35}, "geometry": {"type": "Point", "coordinates": [8.3440188, 47.1020637]}}, {"type": "Feature", "properties": {"name": "N9BaFue22IaclbZwMzdwNw", "score": 35}, "geometry": {"type": "Point", "coordinates": [8.344155, 47.1021677]}}, {"type": "Feature", "properties": {"name": "3vOecHKfzzROa_gSvLNsmQ", "score": 38}, "geometry": {"type": "Point", "coordinates": [8.3442933, 47.1022717]}}, {"type": "Feature", "properties": {"name": "VuR8IyvaOTDGJJz350QlgA", "score": 35}, "geometry": {"type": "Point", "coordinates": [8.3444589, 47.1023889]}}, {"type": "Feature", "properties": {"name": "a-I5x78WGCTTlurXG361gQ", "score": 35}, "geometry": {"type": "Point", "coordinates": [8.3445924, 47.1024809]}}, {"type": "Feature", "properties": {"name": "kI7M3OsDhVnQzFVFFyPx0Q", "score": 14}, "geometry": {"type": "Point", "coordinates": [8.3447547, 47.1025956]}}, {"type": "Feature", "properties": {"name": "NNpjIFxM6P0faIonm_OqNg", "score": 22}, "geometry": {"type": "Point", "coordinates": [8.3449019, 47.1026998]}}, {"type": "Feature", "properties": {"name": "1mVzJK34MSmkM0F_PL677A", "score": 14}, "geometry": {"type": "Point", "coordinates": [8.3450494, 47.1028037]}}, {"type": "Feature", "properties": {"name": "8rPbXRPWTqNRZrTt7uJttg", "score": 35}, "geometry": {"type": "Point", "coordinates": [8.3451963, 47.1029058]}}, {"type": "Feature", "properties": {"name": "ihx8FrCEZwfmdC3oHOD_qw", "score": 13}, "geometry": {"type": "Point", "coordinates": [8.3453435, 47.1030105]}}, {"type": "Feature", "properties": {"name": "VkbXoRH45_Z4_QxdBw6MMg", "score": 14}, "geometry": {"type": "Point", "coordinates": [8.3454995, 47.1031158]}}, {"type": "Feature", "properties": {"name": "D-xaw_xSl-2etWBeZYjH8Q", "score": 6}, "geometry": {"type": "Point", "coordinates": [8.3456729, 47.1032332]}}, {"type": "Feature", "properties": {"name": "cxsosSxIZMo8DcNFMpOWwg", "score": 11}, "geometry": {"type": "Point", "coordinates": [8.3457949, 47.103323]}}, {"type": "Feature", "properties": {"name": "cvkFYVhoIqqciKhdJ2pRXw", "score": 11}, "geometry": {"type": "Point", "coordinates": [8.3459508, 47.1034355]}}, {"type": "Feature", "properties": {"name": "3oZ0tzFJXT6aJHPMv-Acww", "score": 19}, "geometry": {"type": "Point", "coordinates": [8.3461013, 47.1035391]}}, {"type": "Feature", "properties": {"name": "qt9eGLXZN0G04bBGLfheNQ", "score": 11}, "geometry": {"type": "Point", "coordinates": [8.3462496, 47.1036429]}}, {"type": "Feature", "properties": {"name": "yj_sumVyw-nFM2WchDSS8g", "score": 14}, "geometry": {"type": "Point", "coordinates": [8.3464128, 47.1037515]}}, {"type": "Feature", "properties": {"name": "-pvoSHjT1zajbw4UQcZ4hg", "score": 13}, "geometry": {"type": "Point", "coordinates": [8.3465595, 47.1038569]}}, {"type": "Feature", "properties": {"name": "CkfkmA0FxjS61c15Hpma6g", "score": 19}, "geometry": {"type": "Point", "coordinates": [8.3467083, 47.1039598]}}, {"type": "Feature", "properties": {"name": "lOi_crevbWZieIf17hEWdw", "score": 6}, "geometry": {"type": "Point", "coordinates": [8.3468556, 47.1040695]}}, {"type": "Feature", "properties": {"name": "uIsoQYKlAW-7xkyBt6n3ng", "score": 14}, "geometry": {"type": "Point", "coordinates": [8.3470127, 47.1041948]}}, {"type": "Feature", "properties": {"name": "1FylLhziRC2Rmg7gpZ_Hmw", "score": 13}, "geometry": {"type": "Point", "coordinates": [8.3471553, 47.1043277]}}, {"type": "Feature", "properties": {"name": "A3cckqXG8SEEhmtgknLOsA", "score": 18}, "geometry": {"type": "Point", "coordinates": [8.3472766, 47.1044474]}}, {"type": "Feature", "properties": {"name": "uj29JqvxY_rQHGW3leoxSQ", "score": 14}, "geometry": {"type": "Point", "coordinates": [8.3474042, 47.104607]}}, {"type": "Feature", "properties": {"name": "8OQytygWncoztCWrz6u3ww", "score": 11}, "geometry": {"type": "Point", "coordinates": [8.3475479, 47.1047321]}}, {"type": "Feature", "properties": {"name": "MOQ0lXl1m4wIyHwi5t7RMQ", "score": 21}, "geometry": {"type": "Point", "coordinates": [8.3476877, 47.1048583]}}, {"type": "Feature", "properties": {"name": "xwfHlN9GbK1U62AoHAQocg", "score": 14}, "geometry": {"type": "Point", "coordinates": [8.3478392, 47.1049843]}}, {"type": "Feature", "properties": {"name": "eF33cdTqS_bmcm-5edaVVQ", "score": 19}, "geometry": {"type": "Point", "coordinates": [8.3479712, 47.1051141]}}, {"type": "Feature", "properties": {"name": "qBMGTLCnCRX5gbxEt3Sw6g", "score": 14}, "geometry": {"type": "Point", "coordinates": [8.3480946, 47.105243]}}, {"type": "Feature", "properties": {"name": "CvU9PscM0armjdFp-sykwQ", "score": 29}, "geometry": {"type": "Point", "coordinates": [8.3482062, 47.1053714]}}, {"type": "Feature", "properties": {"name": "HzlbR2Xlaw9pPWb0wteAOQ", "score": 28}, "geometry": {"type": "Point", "coordinates": [8.3482536, 47.1054839]}}, {"type": "Feature", "properties": {"name": "LX7vqHbWfl1Heo4_Od9qmw", "score": 29}, "geometry": {"type": "Point", "coordinates": [8.3483706, 47.1056095]}}, {"type": "Feature", "properties": {"name": "64d0zhxKM-_JkzQvdDGO1g", "score": 35}, "geometry": {"type": "Point", "coordinates": [8.3484773, 47.1057304]}}, {"type": "Feature", "properties": {"name": "A6-abESqeLWoX0i5fPcc9A", "score": 35}, "geometry": {"type": "Point", "coordinates": [8.3485871, 47.1058541]}}, {"type": "Feature", "properties": {"name": "0Ybl-XOYNPWQMRQJD-SX_A", "score": 18}, "geometry": {"type": "Point", "coordinates": [8.3487095, 47.1059913]}}, {"type": "Feature", "properties": {"name": "OG3dQ60i_7GySzNO_GqUmg", "score": 38}, "geometry": {"type": "Point", "coordinates": [8.3488268, 47.1061161]}}, {"type": "Feature", "properties": {"name": "dIeonZwDDm719WssY69Etg", "score": 14}, "geometry": {"type": "Point", "coordinates": [8.3489183, 47.1062242]}}, {"type": "Feature", "properties": {"name": "LVIVxaNAEdJGJtY8b3mu9g", "score": 38}, "geometry": {"type": "Point", "coordinates": [8.3490153, 47.1063626]}}, {"type": "Feature", "properties": {"name": "r4PVwW0ji64bzl3CJocZrA", "score": 30}, "geometry": {"type": "Point", "coordinates": [8.3491093, 47.1064881]}}, {"type": "Feature", "properties": {"name": "0tWX-Jy89-TKq_seZql8ww", "score": 35}, "geometry": {"type": "Point", "coordinates": [8.3492089, 47.1066137]}}, {"type": "Feature", "properties": {"name": "EWK_8SO0xhddjrmSepo-yA", "score": 19}, "geometry": {"type": "Point", "coordinates": [8.3493105, 47.1067423]}}, {"type": "Feature", "properties": {"name": "CYVK60pmBf0JbTWkdSDZ2A", "score": 14}, "geometry": {"type": "Point", "coordinates": [8.3494137, 47.1068715]}}, {"type": "Feature", "properties": {"name": "KRylz3FvE-09rK7sknmopQ", "score": 35}, "geometry": {"type": "Point", "coordinates": [8.3496354, 47.1071419]}}, {"type": "Feature", "properties": {"name": "zK-lQkXsyfWobLShERcw_g", "score": 44}, "geometry": {"type": "Point", "coordinates": [8.3498211, 47.1073802]}}, {"type": "Feature", "properties": {"name": "BJzMASMamjDPji-LuW4uVw", "score": 21}, "geometry": {"type": "Point", "coordinates": [8.3503454, 47.1080218]}}, {"type": "Feature", "properties": {"name": "-TtTeBofB9t9o7GD0bUoQw", "score": 38}, "geometry": {"type": "Point", "coordinates": [8.350455, 47.1081464]}}, {"type": "Feature", "properties": {"name": "q7OOajB61Q-Rz9jOZzUd-A", "score": 11}, "geometry": {"type": "Point", "coordinates": [8.3505557, 47.1082698]}}, {"type": "Feature", "properties": {"name": "tITEyZVxNzFCfJt583AnWA", "score": 34}, "geometry": {"type": "Point", "coordinates": [8.3506614, 47.1084]}}, {"type": "Feature", "properties": {"name": "GnEre6-mo8L7rz7HeuVucg", "score": 35}, "geometry": {"type": "Point", "coordinates": [8.3507649, 47.1085284]}}, {"type": "Feature", "properties": {"name": "lAtIZNP2VFyNreHXSTKEeQ", "score": 21}, "geometry": {"type": "Point", "coordinates": [8.3508795, 47.1086695]}}, {"type": "Feature", "properties": {"name": "9f1czCgNEmeTDo00Njt9jA", "score": 34}, "geometry": {"type": "Point", "coordinates": [8.3509699, 47.1087813]}}, {"type": "Feature", "properties": {"name": "ZN3kwOcAJMsovXVX1D6lDA", "score": 31}, "geometry": {"type": "Point", "coordinates": [8.3510799, 47.10892]}}, {"type": "Feature", "properties": {"name": "BhHFHGmK_-JSdTgpBkgGGQ", "score": 24}, "geometry": {"type": "Point", "coordinates": [8.35118, 47.109046]}}, {"type": "Feature", "properties": {"name": "7uPlNzSBTL8ibsuFdCgfSA", "score": 15}, "geometry": {"type": "Point", "coordinates": [8.3512674, 47.109159]}}, {"type": "Feature", "properties": {"name": "A0ifOQadSxHLDqOqEfc96A", "score": 14}, "geometry": {"type": "Point", "coordinates": [8.3513838, 47.1093034]}}, {"type": "Feature", "properties": {"name": "Kh8mbD2qvft2PIvPLxMjYQ", "score": 35}, "geometry": {"type": "Point", "coordinates": [8.3514855, 47.1094314]}}, {"type": "Feature", "properties": {"name": "SSUDShlbhB0VHgsYMNQV_w", "score": 13}, "geometry": {"type": "Point", "coordinates": [8.3515872, 47.1095587]}}, {"type": "Feature", "properties": {"name": "jR1qrY69gUL7FJFrfMhp_A", "score": 30}, "geometry": {"type": "Point", "coordinates": [8.3516943, 47.1096856]}}, {"type": "Feature", "properties": {"name": "nKxesG8Oi_IVVpI3_AhU5w", "score": 14}, "geometry": {"type": "Point", "coordinates": [8.3518004, 47.1098122]}}, {"type": "Feature", "properties": {"name": "0IkCc2t5cZ7AqpBdl_30SQ", "score": 14}, "geometry": {"type": "Point", "coordinates": [8.3519063, 47.1099401]}}, {"type": "Feature", "properties": {"name": "epXVc96rK8BDhRuA7b6c_w", "score": 14}, "geometry": {"type": "Point", "coordinates": [8.3520197, 47.110081]}}, {"type": "Feature", "properties": {"name": "rl3mBz2ZOuBIfd2adnfo9Q", "score": 28}, "geometry": {"type": "Point", "coordinates": [8.3521106, 47.1101936]}}, {"type": "Feature", "properties": {"name": "6xMk04qVJ3W-21gaoxBuPw", "score": 28}, "geometry": {"type": "Point", "coordinates": [8.3522111, 47.1103207]}}, {"type": "Feature", "properties": {"name": "nV3wQXV5g6b4dV8nAos1Bw", "score": 32}, "geometry": {"type": "Point", "coordinates": [8.3523265, 47.1104606]}}, {"type": "Feature", "properties": {"name": "7Iv4FeV6rqCZysMUYnRq5Q", "score": 35}, "geometry": {"type": "Point", "coordinates": [8.352432, 47.1105883]}}, {"type": "Feature", "properties": {"name": "G4zP5ajiGGnaDBmfPUBOcw", "score": 30}, "geometry": {"type": "Point", "coordinates": [8.3525364, 47.1107169]}}, {"type": "Feature", "properties": {"name": "ReQPCBGAHBTUeGQ9pGqu5w", "score": 11}, "geometry": {"type": "Point", "coordinates": [8.3526449, 47.1108405]}}, {"type": "Feature", "properties": {"name": "q0V9KmAHdkNCkunF8R9fOg", "score": 14}, "geometry": {"type": "Point", "coordinates": [8.3527508, 47.1109674]}}, {"type": "Feature", "properties": {"name": "IluizcKQ1gjJuWC6GvmRFQ", "score": 45}, "geometry": {"type": "Point", "coordinates": [8.352859, 47.1110933]}}, {"type": "Feature", "properties": {"name": "U8G1zUQ-XWG8_9rWwXd5Pg", "score": 38}, "geometry": {"type": "Point", "coordinates": [8.3529662, 47.1112194]}}, {"type": "Feature", "properties": {"name": "F3HkJFWFX1H2LgGdqYeRxA", "score": 39}, "geometry": {"type": "Point", "coordinates": [8.3530802, 47.1113567]}}, {"type": "Feature", "properties": {"name": "rSOUgE6cHNYRELMzz1SmVw", "score": 14}, "geometry": {"type": "Point", "coordinates": [8.3531802, 47.1114664]}}, {"type": "Feature", "properties": {"name": "T4voCwvr2mKEOyzGcU449Q", "score": 21}, "geometry": {"type": "Point", "coordinates": [8.3532967, 47.1115894]}}, {"type": "Feature", "properties": {"name": "RSgyvS2YJxPEr7yiBX6rvw", "score": 11}, "geometry": {"type": "Point", "coordinates": [8.3534224, 47.1117275]}}, {"type": "Feature", "properties": {"name": "XzWrvqYb7xDMftiIW2F40g", "score": 14}, "geometry": {"type": "Point", "coordinates": [8.3535408, 47.1118477]}}, {"type": "Feature", "properties": {"name": "oEqrCAcKWcCXTVmjmFVUUw", "score": 35}, "geometry": {"type": "Point", "coordinates": [8.3536584, 47.11197]}}, {"type": "Feature", "properties": {"name": "pPlxiMHqHs1rBSJmwZurpg", "score": 11}, "geometry": {"type": "Point", "coordinates": [8.3537739, 47.1120931]}}, {"type": "Feature", "properties": {"name": "ivYPtH_5Xq3FIer9pBtneA", "score": 21}, "geometry": {"type": "Point", "coordinates": [8.3538923, 47.1122141]}}, {"type": "Feature", "properties": {"name": "XRecImAAy3b8q0hjSDJh6Q", "score": 35}, "geometry": {"type": "Point", "coordinates": [8.3540102, 47.1123357]}}, {"type": "Feature", "properties": {"name": "SQN-FzIaq3CUyq_RYcYmkw", "score": 36}, "geometry": {"type": "Point", "coordinates": [8.3541417, 47.112469]}}, {"type": "Feature", "properties": {"name": "S-9_2kZ3f2rifT8iV_yaHg", "score": 14}, "geometry": {"type": "Point", "coordinates": [8.3542494, 47.1125759]}}, {"type": "Feature", "properties": {"name": "WWzkh83pxqfCciqnryIgtQ", "score": 31}, "geometry": {"type": "Point", "coordinates": [8.3543714, 47.1126948]}}, {"type": "Feature", "properties": {"name": "EDCg27L1hl-v9gefj00D3g", "score": 35}, "geometry": {"type": "Point", "coordinates": [8.3544942, 47.1128142]}}, {"type": "Feature", "properties": {"name": "eRJAsnDJ3e8tkbxIAfK8Kw", "score": 35}, "geometry": {"type": "Point", "coordinates": [8.3546165, 47.1129343]}}, {"type": "Feature", "properties": {"name": "5a8ThYiDKRWozivbMRs0pA", "score": 35}, "geometry": {"type": "Point", "coordinates": [8.3547537, 47.1130658]}}, {"type": "Feature", "properties": {"name": "GrRBWuHs5_xEyoLQxz5MXg", "score": 35}, "geometry": {"type": "Point", "coordinates": [8.3548644, 47.1131707]}}, {"type": "Feature", "properties": {"name": "NEnM3e81U9qzxO-1OrBmZg", "score": 35}, "geometry": {"type": "Point", "coordinates": [8.3550053, 47.1133011]}}, {"type": "Feature", "properties": {"name": "Vg8jVLdLrdduqRr9w_f7DQ", "score": 44}, "geometry": {"type": "Point", "coordinates": [8.3551254, 47.1134231]}}, {"type": "Feature", "properties": {"name": "I43ff7OlTuQUMufdeY3Brg", "score": 43}, "geometry": {"type": "Point", "coordinates": [8.3552527, 47.1135414]}}, {"type": "Feature", "properties": {"name": "EmRangFTVYJ0uADZA5YSKg", "score": 35}, "geometry": {"type": "Point", "coordinates": [8.3553827, 47.1136595]}}, {"type": "Feature", "properties": {"name": "d19-sBAa_d_jwA6dMzdoSA", "score": 29}, "geometry": {"type": "Point", "coordinates": [8.3555093, 47.1137768]}}, {"type": "Feature", "properties": {"name": "ewbzWOL-RKTbyOxULNBpwg", "score": 14}, "geometry": {"type": "Point", "coordinates": [8.3556369, 47.1138935]}}, {"type": "Feature", "properties": {"name": "nnCBx8zugd2hcmK3j2o5Sw", "score": 32}, "geometry": {"type": "Point", "coordinates": [8.3557816, 47.1140216]}}, {"type": "Feature", "properties": {"name": "NM8v_t8m9r-qxmyOiFcj7w", "score": 38}, "geometry": {"type": "Point", "coordinates": [8.3558955, 47.1141243]}}, {"type": "Feature", "properties": {"name": "ixLxq2TpLvccktpBjHEygA", "score": 25}, "geometry": {"type": "Point", "coordinates": [8.3560258, 47.1142386]}}, {"type": "Feature", "properties": {"name": "KiWl9SUI8joXruG1li8l9Q", "score": 14}, "geometry": {"type": "Point", "coordinates": [8.3561695, 47.1143674]}}, {"type": "Feature", "properties": {"name": "TNh3TJnf8vAbPulqsd0NvQ", "score": 34}, "geometry": {"type": "Point", "coordinates": [8.3563007, 47.1144825]}}, {"type": "Feature", "properties": {"name": "_yiUNKda8pRVA1_0JtUMqQ", "score": 11}, "geometry": {"type": "Point", "coordinates": [8.3564191, 47.1145834]}}, {"type": "Feature", "properties": {"name": "i1YuNgMdI1To30a2ScbUaA", "score": 19}, "geometry": {"type": "Point", "coordinates": [8.3565718, 47.1147114]}}, {"type": "Feature", "properties": {"name": "Y4rDnpz7B3FfPa2mJCmSkw", "score": 36}, "geometry": {"type": "Point", "coordinates": [8.3567137, 47.1148261]}}, {"type": "Feature", "properties": {"name": "I9oAyvPEQniegWiwSnx0FA", "score": 35}, "geometry": {"type": "Point", "coordinates": [8.3568505, 47.1149403]}}, {"type": "Feature", "properties": {"name": "ZRoQV4yPRodqOh8pLElFnA", "score": 14}, "geometry": {"type": "Point", "coordinates": [8.3569885, 47.1150524]}}, {"type": "Feature", "properties": {"name": "a5OzDmcymFDVGray_PlntQ", "score": 35}, "geometry": {"type": "Point", "coordinates": [8.3571331, 47.1151599]}}, {"type": "Feature", "properties": {"name": "ZSki-lVedyJErnHp6y5-5A", "score": 35}, "geometry": {"type": "Point", "coordinates": [8.3572855, 47.1152848]}}, {"type": "Feature", "properties": {"name": "9ihtarCoVWzqMPfRhRHWnQ", "score": 38}, "geometry": {"type": "Point", "coordinates": [8.3574114, 47.1153826]}}, {"type": "Feature", "properties": {"name": "przhF3VjAonRrxHWwN6aZw", "score": 32}, "geometry": {"type": "Point", "coordinates": [8.3575504, 47.1154953]}}, {"type": "Feature", "properties": {"name": "LfRqxU3LYPudd1HE8kKWfg", "score": 41}, "geometry": {"type": "Point", "coordinates": [8.3577014, 47.1156201]}}, {"type": "Feature", "properties": {"name": "IykQiDMNZmaexIcl5LqStA", "score": 13}, "geometry": {"type": "Point", "coordinates": [8.3578257, 47.1157203]}}, {"type": "Feature", "properties": {"name": "yKvVDfg6AlCclISj2oLcYQ", "score": 17}, "geometry": {"type": "Point", "coordinates": [8.3579856, 47.1158437]}}, {"type": "Feature", "properties": {"name": "5u9l4rxtB6kB_u9gbxjtVA", "score": 35}, "geometry": {"type": "Point", "coordinates": [8.3581123, 47.115939]}}, {"type": "Feature", "properties": {"name": "JVrBoGw8BalioLDN7Xr9Lw", "score": 35}, "geometry": {"type": "Point", "coordinates": [8.358284, 47.1160532]}}, {"type": "Feature", "properties": {"name": "NtTXC1MGLUS8LFMPjWx4EA", "score": 20}, "geometry": {"type": "Point", "coordinates": [8.3584376, 47.1161561]}}, {"type": "Feature", "properties": {"name": "Jm8AZR6G3UvEc7Q6izH9xw", "score": 14}, "geometry": {"type": "Point", "coordinates": [8.3586006, 47.116275]}}, {"type": "Feature", "properties": {"name": "aK_ITmEKYbSi7n4wNOQ3fA", "score": 14}, "geometry": {"type": "Point", "coordinates": [8.3587521, 47.1163789]}}, {"type": "Feature", "properties": {"name": "4WVr-BsNlhMt-EdaRlThcg", "score": 14}, "geometry": {"type": "Point", "coordinates": [8.358883, 47.1164732]}}, {"type": "Feature", "properties": {"name": "fAPWPYmzJ8ip0hmc1AiSjA", "score": 6}, "geometry": {"type": "Point", "coordinates": [8.3590309, 47.1165795]}}, {"type": "Feature", "properties": {"name": "XTTWnScFyFatVF7uwQ-byA", "score": 30}, "geometry": {"type": "Point", "coordinates": [8.3591952, 47.1166966]}}, {"type": "Feature", "properties": {"name": "XPzQ8IaAFMzze_6YsIWhOA", "score": 38}, "geometry": {"type": "Point", "coordinates": [8.3593376, 47.116783]}}, {"type": "Feature", "properties": {"name": "DgomMfpaXnbGnzZbHrJKMA", "score": 21}, "geometry": {"type": "Point", "coordinates": [8.3594994, 47.1169]}}, {"type": "Feature", "properties": {"name": "FUTHr57FUhmCHsWzEa8hrg", "score": 35}, "geometry": {"type": "Point", "coordinates": [8.3596464, 47.1169839]}}, {"type": "Feature", "properties": {"name": "016f26HblYF6MfAoKXjm4w", "score": 14}, "geometry": {"type": "Point", "coordinates": [8.3598429, 47.11708]}}, {"type": "Feature", "properties": {"name": "6H7o2UdIz80zMn3Ilf_4bw", "score": 13}, "geometry": {"type": "Point", "coordinates": [8.3600204, 47.1171657]}}, {"type": "Feature", "properties": {"name": "HBZ-mhsz_OZU3FiaGQWthw", "score": 23}, "geometry": {"type": "Point", "coordinates": [8.3601822, 47.1172611]}}, {"type": "Feature", "properties": {"name": "4ZiwjeNS7Yv2JWOdbStLXQ", "score": 19}, "geometry": {"type": "Point", "coordinates": [8.3217307, 47.0846075]}}, {"type": "Feature", "properties": {"name": "XJE-6Uy1sfdEZPjSJZJ3IQ", "score": 20}, "geometry": {"type": "Point", "coordinates": [8.3218362, 47.084705]}}, {"type": "Feature", "properties": {"name": "sxcFMJtpB2MU6Dfb1Z60Iw", "score": 24}, "geometry": {"type": "Point", "coordinates": [8.3219551, 47.08481]}}, {"type": "Feature", "properties": {"name": "oPiowhsDR2O4rymGqHhpiA", "score": 38}, "geometry": {"type": "Point", "coordinates": [8.3220481, 47.0848946]}}, {"type": "Feature", "properties": {"name": "yNu8q80eJ1RHgFVeEB77Yg", "score": 30}, "geometry": {"type": "Point", "coordinates": [8.3221463, 47.0849923]}}, {"type": "Feature", "properties": {"name": "QcoOI1OSo08qiGRW6u2YrQ", "score": 28}, "geometry": {"type": "Point", "coordinates": [8.3222591, 47.0851002]}}, {"type": "Feature", "properties": {"name": "eWP61SJBFmO217IOMQ_H1w", "score": 18}, "geometry": {"type": "Point", "coordinates": [8.3223515, 47.0851855]}}, {"type": "Feature", "properties": {"name": "TRZpXjSl1VRSej2BH10WnA", "score": 1}, "geometry": {"type": "Point", "coordinates": [8.322462, 47.0852933]}}, {"type": "Feature", "properties": {"name": "RZ-7-ZMVOiUXbfuK7jCnAg", "score": 11}, "geometry": {"type": "Point", "coordinates": [8.3225645, 47.0853905]}}, {"type": "Feature", "properties": {"name": "lrUJqvM5hFzKCdfRUQKtaA", "score": 26}, "geometry": {"type": "Point", "coordinates": [8.3226637, 47.0854887]}}, {"type": "Feature", "properties": {"name": "NL8r9dbiExqCPvUq6NXltA", "score": 13}, "geometry": {"type": "Point", "coordinates": [8.3227636, 47.0855845]}}, {"type": "Feature", "properties": {"name": "PA6qBZMbHrNArD-jdv5UQw", "score": 8}, "geometry": {"type": "Point", "coordinates": [8.3228624, 47.08568]}}, {"type": "Feature", "properties": {"name": "NCBXG0XrFQRYj1Jajah4Wg", "score": 35}, "geometry": {"type": "Point", "coordinates": [8.3229779, 47.0857834]}}, {"type": "Feature", "properties": {"name": "zyfeIX899nwG4dr6dlZt2g", "score": 11}, "geometry": {"type": "Point", "coordinates": [8.3230692, 47.0858665]}}, {"type": "Feature", "properties": {"name": "FkGd1wp7JUNn29e3nQ5ajQ", "score": 9}, "geometry": {"type": "Point", "coordinates": [8.3231693, 47.085962]}}, {"type": "Feature", "properties": {"name": "UJLjJTPG17Hxfk08qpUBgQ", "score": 14}, "geometry": {"type": "Point", "coordinates": [8.3232718, 47.0860576]}}, {"type": "Feature", "properties": {"name": "C-OYZ71q0n9PBbi1wcsgWw", "score": 14}, "geometry": {"type": "Point", "coordinates": [8.3233856, 47.0861637]}}, {"type": "Feature", "properties": {"name": "KIpiyA86tKApnTn_iFm7Uw", "score": 11}, "geometry": {"type": "Point", "coordinates": [8.3234919, 47.0862576]}}, {"type": "Feature", "properties": {"name": "ekxc53ybjG4RdvpC3A1aXQ", "score": 11}, "geometry": {"type": "Point", "coordinates": [8.3235825, 47.0863396]}}, {"type": "Feature", "properties": {"name": "BbUYfH60NtZhQMSRbcCI7A", "score": 11}, "geometry": {"type": "Point", "coordinates": [8.3236916, 47.0864469]}}, {"type": "Feature", "properties": {"name": "Nudhuw2H_bvB60l7sfcPDw", "score": 27}, "geometry": {"type": "Point", "coordinates": [8.3237978, 47.0865386]}}, {"type": "Feature", "properties": {"name": "AhuTekNOXQNCPGU2Ag61hQ", "score": 35}, "geometry": {"type": "Point", "coordinates": [8.3238961, 47.0866342]}}, {"type": "Feature", "properties": {"name": "nil0mZ7sXbiQGtmri_LTYw", "score": 14}, "geometry": {"type": "Point", "coordinates": [8.3239995, 47.0867266]}}, {"type": "Feature", "properties": {"name": "M50KZmMd4j3cGAgKt3nSKA", "score": 11}, "geometry": {"type": "Point", "coordinates": [8.3240986, 47.0868194]}}, {"type": "Feature", "properties": {"name": "cCfAlp2T6dqAWjblhhsZ9A", "score": 35}, "geometry": {"type": "Point", "coordinates": [8.3241948, 47.0869141]}}, {"type": "Feature", "properties": {"name": "6C910OPg0iwEZrYXeVE07g", "score": 14}, "geometry": {"type": "Point", "coordinates": [8.3242989, 47.0870058]}}, {"type": "Feature", "properties": {"name": "MvBOfUd4WwLKiZoiRNeBxA", "score": 35}, "geometry": {"type": "Point", "coordinates": [8.3243988, 47.0870995]}}, {"type": "Feature", "properties": {"name": "N-KaOqlulWIwoiEywYgjnw", "score": 14}, "geometry": {"type": "Point", "coordinates": [8.3245127, 47.087205]}}, {"type": "Feature", "properties": {"name": "PeyZWunukndzZmihznZgmQ", "score": 21}, "geometry": {"type": "Point", "coordinates": [8.3247162, 47.0873935]}}, {"type": "Feature", "properties": {"name": "5EzzQd6ds8CKc0LG-bnXkw", "score": 34}, "geometry": {"type": "Point", "coordinates": [8.3248228, 47.0874873]}}, {"type": "Feature", "properties": {"name": "UGgAf69IOF9DwMKdk5qE_g", "score": 13}, "geometry": {"type": "Point", "coordinates": [8.3249287, 47.0875802]}}, {"type": "Feature", "properties": {"name": "O9Nu8ZWt2hQTDjV14PjlSA", "score": 30}, "geometry": {"type": "Point", "coordinates": [8.3250355, 47.0876731]}}, {"type": "Feature", "properties": {"name": "XVO_J9MCqYf9f9h_tRWqZQ", "score": 27}, "geometry": {"type": "Point", "coordinates": [8.3251435, 47.087765]}}, {"type": "Feature", "properties": {"name": "5mXJMR1yvxh5ICoxM_1U3A", "score": 11}, "geometry": {"type": "Point", "coordinates": [8.3252634, 47.0878646]}}, {"type": "Feature", "properties": {"name": "gVnZ2BzWSrnpD9MwgYTzoQ", "score": 14}, "geometry": {"type": "Point", "coordinates": [8.3254839, 47.0880465]}}, {"type": "Feature", "properties": {"name": "iyuZily09NWSrQgFGBP7QQ", "score": 21}, "geometry": {"type": "Point", "coordinates": [8.3255843, 47.0881263]}}, {"type": "Feature", "properties": {"name": "WN2ui4-ZEg1KC6ctQXJwKw", "score": 20}, "geometry": {"type": "Point", "coordinates": [8.3257098, 47.0882259]}}, {"type": "Feature", "properties": {"name": "r6Co30uJqss9FJeY0nGsaQ", "score": 14}, "geometry": {"type": "Point", "coordinates": [8.3258244, 47.0883159]}}, {"type": "Feature", "properties": {"name": "FGQ_4i8EPlneMvAP6M_I3w", "score": 11}, "geometry": {"type": "Point", "coordinates": [8.3259429, 47.088406]}}, {"type": "Feature", "properties": {"name": "AkL5NGb0QTB48IZ1ITJaXg", "score": 38}, "geometry": {"type": "Point", "coordinates": [8.3260585, 47.0884968]}}, {"type": "Feature", "properties": {"name": "Gw9UxRBunBcCYC_jp_T8TQ", "score": 21}, "geometry": {"type": "Point", "coordinates": [8.3266584, 47.0889414]}}, {"type": "Feature", "properties": {"name": "OFMtQdrjS5L_ol_jU6r6XA", "score": 35}, "geometry": {"type": "Point", "coordinates": [8.3267774, 47.0890301]}}, {"type": "Feature", "properties": {"name": "9Z43JGgZ0SH-04FNnAEg3w", "score": 20}, "geometry": {"type": "Point", "coordinates": [8.3268972, 47.089118]}}, {"type": "Feature", "properties": {"name": "o0HrMSG2Qi5Dmtlk3YH7Kw", "score": 28}, "geometry": {"type": "Point", "coordinates": [8.3270173, 47.0892059]}}, {"type": "Feature", "properties": {"name": "T3QFLXu6QzT81X8ggxXCdA", "score": 35}, "geometry": {"type": "Point", "coordinates": [8.3271256, 47.0892842]}}, {"type": "Feature", "properties": {"name": "1O9a2cOtCd3FymGoQJytuw", "score": 19}, "geometry": {"type": "Point", "coordinates": [8.327264, 47.0893797]}}, {"type": "Feature", "properties": {"name": "iuDN1J_ysW_S0SiN0loWfA", "score": 17}, "geometry": {"type": "Point", "coordinates": [8.3273898, 47.0894644]}}, {"type": "Feature", "properties": {"name": "4-PlbbHXfv3Xf8x5wLMxZw", "score": 21}, "geometry": {"type": "Point", "coordinates": [8.3275177, 47.0895485]}}, {"type": "Feature", "properties": {"name": "xpBke8dSEnPfHmfRNEEIHQ", "score": 19}, "geometry": {"type": "Point", "coordinates": [8.3276588, 47.0896421]}}, {"type": "Feature", "properties": {"name": "eMmERrB9OAp8lOHL68yV4A", "score": 29}, "geometry": {"type": "Point", "coordinates": [8.32777, 47.0897154]}}, {"type": "Feature", "properties": {"name": "4PlL-uTs55pO7VItpLjiZQ", "score": 35}, "geometry": {"type": "Point", "coordinates": [8.3281731, 47.0899587]}}, {"type": "Feature", "properties": {"name": "I6feNDsaDcTWmgGjCmn_WQ", "score": 13}, "geometry": {"type": "Point", "coordinates": [8.3284547, 47.0901084]}}, {"type": "Feature", "properties": {"name": "zHDg0Vs3FY2Vk1l6iP1IAw", "score": 14}, "geometry": {"type": "Point", "coordinates": [8.3286148, 47.0901879]}}, {"type": "Feature", "properties": {"name": "ifOLdmuEh9HoJdZ5a1pxAQ", "score": 17}, "geometry": {"type": "Point", "coordinates": [8.3287582, 47.0902584]}}, {"type": "Feature", "properties": {"name": "QiDKyjMser6XK0f9h8ioEw", "score": 14}, "geometry": {"type": "Point", "coordinates": [8.328897, 47.0903346]}}, {"type": "Feature", "properties": {"name": "J6v3X1I1goyfPiQWbY3IwQ", "score": 11}, "geometry": {"type": "Point", "coordinates": [8.3290426, 47.0904032]}}, {"type": "Feature", "properties": {"name": "DShi_65uX06jzYgkb3Wm1A", "score": 35}, "geometry": {"type": "Point", "coordinates": [8.3291718, 47.0904819]}}, {"type": "Feature", "properties": {"name": "ImvZ5OTqMOGj-o_Mn3ru2w", "score": 26}, "geometry": {"type": "Point", "coordinates": [8.3293187, 47.0905501]}}, {"type": "Feature", "properties": {"name": "Rb5M71dbK7y19HuyUmyiAA", "score": 14}, "geometry": {"type": "Point", "coordinates": [8.3294643, 47.0906238]}}, {"type": "Feature", "properties": {"name": "NWrW9H-x_DizV8MS_1HnQQ", "score": 17}, "geometry": {"type": "Point", "coordinates": [8.3296066, 47.0906996]}}, {"type": "Feature", "properties": {"name": "NjN5JA6SHl_uAJu5DZf5kA", "score": 21}, "geometry": {"type": "Point", "coordinates": [8.3297649, 47.0907812]}}, {"type": "Feature", "properties": {"name": "OLEz5qnnmj8gEstbsL62HQ", "score": 17}, "geometry": {"type": "Point", "coordinates": [8.3298926, 47.090847]}}, {"type": "Feature", "properties": {"name": "l7ADGk15vyaxZ1-oftraWw", "score": 10}, "geometry": {"type": "Point", "coordinates": [8.330048, 47.0909301]}}, {"type": "Feature", "properties": {"name": "5aCiplHM84ikLllsvufACA", "score": 20}, "geometry": {"type": "Point", "coordinates": [8.3301881, 47.0910049]}}, {"type": "Feature", "properties": {"name": "pePjJ5VTB8hqdjBdj4Jk-Q", "score": 14}, "geometry": {"type": "Point", "coordinates": [8.3303311, 47.0910769]}}, {"type": "Feature", "properties": {"name": "zm5QAOcGg5Wrm40UxAQRSQ", "score": 28}, "geometry": {"type": "Point", "coordinates": [8.3304746, 47.0911465]}}, {"type": "Feature", "properties": {"name": "0hSgg738WBFr4ki21zqxxg", "score": 14}, "geometry": {"type": "Point", "coordinates": [8.3306192, 47.0912167]}}, {"type": "Feature", "properties": {"name": "mHxM-ok0D_lzDcfCySrLJg", "score": 21}, "geometry": {"type": "Point", "coordinates": [8.3307669, 47.0912893]}}, {"type": "Feature", "properties": {"name": "dUUZK8-RZLZjx_A68XUsrw", "score": 35}, "geometry": {"type": "Point", "coordinates": [8.3309146, 47.0913599]}}, {"type": "Feature", "properties": {"name": "2h_g1ZWF-Ihr0AEpDKnTsw", "score": 28}, "geometry": {"type": "Point", "coordinates": [8.3310589, 47.0914305]}}, {"type": "Feature", "properties": {"name": "0hMqxVavmDzNkTAqbd_0dg", "score": 35}, "geometry": {"type": "Point", "coordinates": [8.3312177, 47.0915104]}}, {"type": "Feature", "properties": {"name": "xzIGS_9gt5zcY2OduhXL5Q", "score": 32}, "geometry": {"type": "Point", "coordinates": [8.3313448, 47.0915727]}}, {"type": "Feature", "properties": {"name": "rCH0880ByE-fVyHEHdijjA", "score": 28}, "geometry": {"type": "Point", "coordinates": [8.3314873, 47.0916431]}}, {"type": "Feature", "properties": {"name": "Bl4YTrmEh-ohJNDpFymz_g", "score": 20}, "geometry": {"type": "Point", "coordinates": [8.3316431, 47.0917221]}}, {"type": "Feature", "properties": {"name": "xyt681Kz52Vr_uk_R57dGg", "score": 21}, "geometry": {"type": "Point", "coordinates": [8.3317691, 47.0917851]}}, {"type": "Feature", "properties": {"name": "D4rTxUG11AawAZMl0vwPtQ", "score": 35}, "geometry": {"type": "Point", "coordinates": [8.3319306, 47.0918633]}}, {"type": "Feature", "properties": {"name": "YZAb7_jAAHMqXPEuzT_gTA", "score": 14}, "geometry": {"type": "Point", "coordinates": [8.332077, 47.0919307]}}, {"type": "Feature", "properties": {"name": "fkV4t-0NGy6PYR9oGGig1Q", "score": 13}, "geometry": {"type": "Point", "coordinates": [8.3322205, 47.0919994]}}, {"type": "Feature", "properties": {"name": "xYG9D2yvjEH5nRjIpgPU4w", "score": 36}, "geometry": {"type": "Point", "coordinates": [8.3323617, 47.0920682]}}, {"type": "Feature", "properties": {"name": "vBrufsAM6I-NthRQMkkggw", "score": 14}, "geometry": {"type": "Point", "coordinates": [8.3325003, 47.0921382]}}, {"type": "Feature", "properties": {"name": "STKRfsCF-Ws3bfgqOGMhKw", "score": 21}, "geometry": {"type": "Point", "coordinates": [8.3326408, 47.092208]}}, {"type": "Feature", "properties": {"name": "smj3TsYaXFTaSrxymN88Dg", "score": 14}, "geometry": {"type": "Point", "coordinates": [8.3327791, 47.0922789]}}, {"type": "Feature", "properties": {"name": "YvhUnrPdyV7jAa7mNGJ0aQ", "score": 14}, "geometry": {"type": "Point", "coordinates": [8.3329344, 47.0923549]}}, {"type": "Feature", "properties": {"name": "JOS8lDSHEkC-aizgmZWmsA", "score": 35}, "geometry": {"type": "Point", "coordinates": [8.3330601, 47.0924154]}}, {"type": "Feature", "properties": {"name": "Vl2H-OtSAgVscldCLjvoQQ", "score": 43}, "geometry": {"type": "Point", "coordinates": [8.3332167, 47.0924913]}}, {"type": "Feature", "properties": {"name": "h921ESfYvmq8ZTVMrkTiOg", "score": 38}, "geometry": {"type": "Point", "coordinates": [8.3333424, 47.0925521]}}, {"type": "Feature", "properties": {"name": "5nQkZgaLlfmS-OhInahPtw", "score": 10}, "geometry": {"type": "Point", "coordinates": [8.3334981, 47.0926305]}}, {"type": "Feature", "properties": {"name": "n6nETSNsMuGy32QuJh8gTg", "score": 38}, "geometry": {"type": "Point", "coordinates": [8.3336236, 47.0926913]}}, {"type": "Feature", "properties": {"name": "BaGEN241xmm09gwymE4RoQ", "score": 14}, "geometry": {"type": "Point", "coordinates": [8.3337791, 47.0927679]}}, {"type": "Feature", "properties": {"name": "5EnQ95T1Pr_WTo5tBIR-Wg", "score": 11}, "geometry": {"type": "Point", "coordinates": [8.3339201, 47.0928361]}}, {"type": "Feature", "properties": {"name": "RpfKoEVF692jK8NPYqEncw", "score": 11}, "geometry": {"type": "Point", "coordinates": [8.3340599, 47.0929035]}}, {"type": "Feature", "properties": {"name": "dGv6b0EuxttHBeh9RBN_BA", "score": 28}, "geometry": {"type": "Point", "coordinates": [8.3341984, 47.092973]}}, {"type": "Feature", "properties": {"name": "fpZlqcU2xjhdFLI-yOC-ZQ", "score": 40}, "geometry": {"type": "Point", "coordinates": [8.3343536, 47.0930499]}}, {"type": "Feature", "properties": {"name": "b3Ua9VNobefZVPnjPq7wuw", "score": 8}, "geometry": {"type": "Point", "coordinates": [8.3344782, 47.0931118]}}, {"type": "Feature", "properties": {"name": "aoFxbYVGfzI5V9qLb2gxOQ", "score": 13}, "geometry": {"type": "Point", "coordinates": [8.3346346, 47.0931898]}}, {"type": "Feature", "properties": {"name": "EP-zTCiWTpK18A32w4O4Rw", "score": 14}, "geometry": {"type": "Point", "coordinates": [8.3347759, 47.0932609]}}, {"type": "Feature", "properties": {"name": "E3-PZ5343GB41gxKBU2xGA", "score": 35}, "geometry": {"type": "Point", "coordinates": [8.3348996, 47.093325]}}, {"type": "Feature", "properties": {"name": "KXzofgJMi0GbpossBeai4Q", "score": 19}, "geometry": {"type": "Point", "coordinates": [8.335053, 47.093406]}}, {"type": "Feature", "properties": {"name": "J3s8sTpYaYdfIPkobOV6BA", "score": 7}, "geometry": {"type": "Point", "coordinates": [8.3351918, 47.0934798]}}, {"type": "Feature", "properties": {"name": "L4P9zJRytFvpPmweqN-gqg", "score": 16}, "geometry": {"type": "Point", "coordinates": [8.3353252, 47.0935564]}}, {"type": "Feature", "properties": {"name": "SpeWCVcyXCbEx_sBf-T-cQ", "score": 35}, "geometry": {"type": "Point", "coordinates": [8.3354637, 47.0936317]}}, {"type": "Feature", "properties": {"name": "vquQXICUsji0Xhi2FqSc9w", "score": 21}, "geometry": {"type": "Point", "coordinates": [8.3355989, 47.0937108]}}, {"type": "Feature", "properties": {"name": "VpxD1nCKLrfKz2IawbeXaQ", "score": 13}, "geometry": {"type": "Point", "coordinates": [8.3357342, 47.0937912]}}, {"type": "Feature", "properties": {"name": "CK4BH2M_Y6ccx6rw-KMvgA", "score": 21}, "geometry": {"type": "Point", "coordinates": [8.335882, 47.0938822]}}, {"type": "Feature", "properties": {"name": "ZtL30UtFQFE_x0GtUOG8bw", "score": 24}, "geometry": {"type": "Point", "coordinates": [8.3359979, 47.0939552]}}, {"type": "Feature", "properties": {"name": "nIL8MxddhG89nrtlI8-FIQ", "score": 11}, "geometry": {"type": "Point", "coordinates": [8.3361268, 47.0940381]}}, {"type": "Feature", "properties": {"name": "Dm9bNZms2dJbiSPKFuDQVg", "score": 28}, "geometry": {"type": "Point", "coordinates": [8.3362672, 47.0941316]}}, {"type": "Feature", "properties": {"name": "KqzDChyPl4tAq7JfImewOQ", "score": 11}, "geometry": {"type": "Point", "coordinates": [8.3363774, 47.0942081]}}, {"type": "Feature", "properties": {"name": "QE_fPJNZZx3BiOXqLU0AFQ", "score": 28}, "geometry": {"type": "Point", "coordinates": [8.3365142, 47.0943047]}}, {"type": "Feature", "properties": {"name": "EipIOjf0qt8LDLn497uLng", "score": 5}, "geometry": {"type": "Point", "coordinates": [8.3366343, 47.0943938]}}, {"type": "Feature", "properties": {"name": "_Xqq4v_KcoHaoKhAjFWFAQ", "score": 21}, "geometry": {"type": "Point", "coordinates": [8.3367527, 47.0944847]}}, {"type": "Feature", "properties": {"name": "L9CwmEOXYwO8chFB6T4rbQ", "score": 14}, "geometry": {"type": "Point", "coordinates": [8.3368704, 47.0945764]}}, {"type": "Feature", "properties": {"name": "QJhIYD3wDbfyu9yB9_S2Ow", "score": 14}, "geometry": {"type": "Point", "coordinates": [8.3369873, 47.0946694]}}, {"type": "Feature", "properties": {"name": "GRJ1Ti0U0c6lVoWIJ_1RZQ", "score": 35}, "geometry": {"type": "Point", "coordinates": [8.337103, 47.0947632]}}, {"type": "Feature", "properties": {"name": "8kZD4LkhGtaCIZk0EKPwRQ", "score": 11}, "geometry": {"type": "Point", "coordinates": [8.3372174, 47.0948578]}}, {"type": "Feature", "properties": {"name": "I0A8YX4q4DAZsMqV8khg2g", "score": 4}, "geometry": {"type": "Point", "coordinates": [8.3373419, 47.0949636]}}, {"type": "Feature", "properties": {"name": "c2xNwjHct2Hcy8EU5ds1uw", "score": 38}, "geometry": {"type": "Point", "coordinates": [8.3374398, 47.0950493]}}, {"type": "Feature", "properties": {"name": "HxSwfed3OZAIdTxVl_E89A", "score": 14}, "geometry": {"type": "Point", "coordinates": [8.3375607, 47.0951569]}}, {"type": "Feature", "properties": {"name": "sFC4XaWL7rhCZ48eYQtrlg", "score": 44}, "geometry": {"type": "Point", "coordinates": [8.3376677, 47.0952549]}}, {"type": "Feature", "properties": {"name": "I-dEB4SHwdK4mAqpmRAatQ", "score": 32}, "geometry": {"type": "Point", "coordinates": [8.3377731, 47.0953531]}}, {"type": "Feature", "properties": {"name": "BS185o6T5Qgs-wr3x999TA", "score": 39}, "geometry": {"type": "Point", "coordinates": [8.3378763, 47.0954522]}}, {"type": "Feature", "properties": {"name": "bTLNR7ymzEqToMOAEpyo7Q", "score": 28}, "geometry": {"type": "Point", "coordinates": [8.3379772, 47.0955521]}}, {"type": "Feature", "properties": {"name": "YsE6dIgTsY2IwwujEl0LEg", "score": 11}, "geometry": {"type": "Point", "coordinates": [8.3380751, 47.0956523]}}, {"type": "Feature", "properties": {"name": "kvQf5fJuElnGl-QnPx-bOA", "score": 35}, "geometry": {"type": "Point", "coordinates": [8.3381704, 47.0957525]}}, {"type": "Feature", "properties": {"name": "V2M3GFU15hajuT4kx8pRNw", "score": 35}, "geometry": {"type": "Point", "coordinates": [8.3382646, 47.0958528]}}, {"type": "Feature", "properties": {"name": "68GTY2N3BA1DQaf5Qnp3Cw", "score": 14}, "geometry": {"type": "Point", "coordinates": [8.3383562, 47.0959539]}}, {"type": "Feature", "properties": {"name": "yt8cft2fFzL5x6a-N1nqNw", "score": 35}, "geometry": {"type": "Point", "coordinates": [8.3384465, 47.0960555]}}, {"type": "Feature", "properties": {"name": "Q5gO9ZdwFqevU6kvetWKCg", "score": 35}, "geometry": {"type": "Point", "coordinates": [8.3385357, 47.0961576]}}, {"type": "Feature", "properties": {"name": "rVszR0IuHAql_AJ2VfcgUQ", "score": 11}, "geometry": {"type": "Point", "coordinates": [8.3386332, 47.0962706]}}, {"type": "Feature", "properties": {"name": "l3QkQB-GlDUIqZJGp7vPHA", "score": 21}, "geometry": {"type": "Point", "coordinates": [8.3387203, 47.0963733]}}, {"type": "Feature", "properties": {"name": "bp3zwR1PGF1UCHaMwg6HNQ", "score": 11}, "geometry": {"type": "Point", "coordinates": [8.3388071, 47.096476]}}, {"type": "Feature", "properties": {"name": "V2HiKBx1KnlbU8R8hJ2xxQ", "score": 29}, "geometry": {"type": "Point", "coordinates": [8.338892, 47.0965793]}}, {"type": "Feature", "properties": {"name": "Z4Gs9ovPKUox7_a0sZ6YFA", "score": 14}, "geometry": {"type": "Point", "coordinates": [8.338976, 47.0966824]}}, {"type": "Feature", "properties": {"name": "C8o5A8HhM4menfMCojXwSw", "score": 32}, "geometry": {"type": "Point", "coordinates": [8.3390694, 47.096796]}}, {"type": "Feature", "properties": {"name": "6Im-98ngNv2N9X6_YFl_-Q", "score": 6}, "geometry": {"type": "Point", "coordinates": [8.339144, 47.0968869]}}, {"type": "Feature", "properties": {"name": "YJYS2r2vW_85c9Dpia7Jcw", "score": 35}, "geometry": {"type": "Point", "coordinates": [8.339227, 47.0969886]}}, {"type": "Feature", "properties": {"name": "_I5UlU3Gsw9Y32Zjd2oqJQ", "score": 18}, "geometry": {"type": "Point", "coordinates": [8.3393187, 47.097102]}}, {"type": "Feature", "properties": {"name": "Pa_efBmc92hiWIjFToDtlg", "score": 11}, "geometry": {"type": "Point", "coordinates": [8.3393907, 47.0971928]}}, {"type": "Feature", "properties": {"name": "bnltFaItJfBFAAGIZCXK7A", "score": 14}, "geometry": {"type": "Point", "coordinates": [8.3394715, 47.0972953]}}, {"type": "Feature", "properties": {"name": "qpY6qDD2OmY_2_gt8HiKdw", "score": 11}, "geometry": {"type": "Point", "coordinates": [8.3395615, 47.097409]}}, {"type": "Feature", "properties": {"name": "gbmY9ig6fzhr7kilNuuLOg", "score": 2}, "geometry": {"type": "Point", "coordinates": [8.339633, 47.0974997]}}, {"type": "Feature", "properties": {"name": "ebJZfuxv1sZvp4jaP4ZaPA", "score": 14}, "geometry": {"type": "Point", "coordinates": [8.3397212, 47.0976147]}}, {"type": "Feature", "properties": {"name": "TB91okVS2TgGP2piKAmGNQ", "score": 21}, "geometry": {"type": "Point", "coordinates": [8.3398001, 47.097718]}}, {"type": "Feature", "properties": {"name": "fRDVEJ_kGdU0U4sPvkxn6g", "score": 14}, "geometry": {"type": "Point", "coordinates": [8.3398804, 47.0978207]}}, {"type": "Feature", "properties": {"name": "hqtzWunzlIZUOT9OR0YFuQ", "score": 11}, "geometry": {"type": "Point", "coordinates": [8.3399601, 47.0979234]}}, {"type": "Feature", "properties": {"name": "fCQPiId1mSzgWxvYvN4uHA", "score": 8}, "geometry": {"type": "Point", "coordinates": [8.3400397, 47.0980274]}}, {"type": "Feature", "properties": {"name": "pfIzOY_svbzUcIrY-wQfZQ", "score": 14}, "geometry": {"type": "Point", "coordinates": [8.340128, 47.0981431]}}, {"type": "Feature", "properties": {"name": "8HZWgPPKT13xuDCdsJUq0Q", "score": 10}, "geometry": {"type": "Point", "coordinates": [8.3402002, 47.0982339]}}, {"type": "Feature", "properties": {"name": "M_OCXmyv5wJ5aWqV75ecIg", "score": 35}, "geometry": {"type": "Point", "coordinates": [8.3402802, 47.0983363]}}, {"type": "Feature", "properties": {"name": "WW2f4QJWqvTwDtJjgYWjtA", "score": 11}, "geometry": {"type": "Point", "coordinates": [8.3403697, 47.0984501]}}, {"type": "Feature", "properties": {"name": "jZWXLmSx202KEKEIukxB2w", "score": 11}, "geometry": {"type": "Point", "coordinates": [8.3404413, 47.0985421]}}, {"type": "Feature", "properties": {"name": "sv4nMVgG-WmlTn6_NniA3Q", "score": 6}, "geometry": {"type": "Point", "coordinates": [8.3405311, 47.0986547]}}, {"type": "Feature", "properties": {"name": "C0Q-YhUV42EbFe4OGoBHIQ", "score": 13}, "geometry": {"type": "Point", "coordinates": [8.340612, 47.0987554]}}, {"type": "Feature", "properties": {"name": "0X7M8kCSFo7P2Pxvd-ilMw", "score": 7}, "geometry": {"type": "Point", "coordinates": [8.3406919, 47.0988571]}}, {"type": "Feature", "properties": {"name": "0fMOJ_BQ1sQEWcnB7QPtHw", "score": 14}, "geometry": {"type": "Point", "coordinates": [8.3407716, 47.098958]}}, {"type": "Feature", "properties": {"name": "xOaZKqTO9c-IMQ5cEgjHiA", "score": 10}, "geometry": {"type": "Point", "coordinates": [8.3408506, 47.0990595]}}, {"type": "Feature", "properties": {"name": "r9SpfeKIGx1iK-5JYaCgZg", "score": 35}, "geometry": {"type": "Point", "coordinates": [8.3409288, 47.0991626]}}, {"type": "Feature", "properties": {"name": "VPx3uYzZjWZ63ZwqbJcXTA", "score": 14}, "geometry": {"type": "Point", "coordinates": [8.3410077, 47.0992637]}}, {"type": "Feature", "properties": {"name": "2cMtkFJhip2hnOKAs9f82w", "score": 28}, "geometry": {"type": "Point", "coordinates": [8.3410851, 47.0993668]}}, {"type": "Feature", "properties": {"name": "rljF0QRXreefW3BeGQwTmA", "score": 14}, "geometry": {"type": "Point", "coordinates": [8.3411713, 47.0994809]}}, {"type": "Feature", "properties": {"name": "W_2sEniiUev8X-8-CPV70Q", "score": 26}, "geometry": {"type": "Point", "coordinates": [8.3412399, 47.0995729]}}, {"type": "Feature", "properties": {"name": "q5WhHdZPpAvOHAOI4vk6Gg", "score": 14}, "geometry": {"type": "Point", "coordinates": [8.3413181, 47.099675]}}, {"type": "Feature", "properties": {"name": "jiG2Dh3XkMX1PbtPlfS-7w", "score": 14}, "geometry": {"type": "Point", "coordinates": [8.3414058, 47.0997892]}}, {"type": "Feature", "properties": {"name": "HGNCV7KyJcj10fJWUYO5zQ", "score": 9}, "geometry": {"type": "Point", "coordinates": [8.341485, 47.0998922]}}, {"type": "Feature", "properties": {"name": "NedQBGxCg5jbfWjEZNmqBQ", "score": 10}, "geometry": {"type": "Point", "coordinates": [8.3415663, 47.0999959]}}, {"type": "Feature", "properties": {"name": "tDdEB_nuKPmmyErGI9sS2Q", "score": 35}, "geometry": {"type": "Point", "coordinates": [8.3416478, 47.1000989]}}, {"type": "Feature", "properties": {"name": "dmW_fBsQfXx3UizNiRZ23A", "score": 10}, "geometry": {"type": "Point", "coordinates": [8.3417346, 47.1002]}}, {"type": "Feature", "properties": {"name": "4hluHCKVFivASIp8poZCHQ", "score": 19}, "geometry": {"type": "Point", "coordinates": [8.3418221, 47.1003009]}}, {"type": "Feature", "properties": {"name": "jJgN2JzLK68sYR0Ba6ls4A", "score": 13}, "geometry": {"type": "Point", "coordinates": [8.3419111, 47.1004017]}}, {"type": "Feature", "properties": {"name": "9sYzy3cBfzQ4P7AF1z3odg", "score": 21}, "geometry": {"type": "Point", "coordinates": [8.3420016, 47.1005033]}}, {"type": "Feature", "properties": {"name": "mOl1FodNchyGvh3W4VMpeQ", "score": 20}, "geometry": {"type": "Point", "coordinates": [8.3420927, 47.1006041]}}, {"type": "Feature", "properties": {"name": "YFDYEn5nsYKjfc2RIT0W7w", "score": 6}, "geometry": {"type": "Point", "coordinates": [8.342185, 47.1007057]}}, {"type": "Feature", "properties": {"name": "q46NK_uO_bGYZe2WdQ_frg", "score": 35}, "geometry": {"type": "Point", "coordinates": [8.3422785, 47.100807]}}, {"type": "Feature", "properties": {"name": "SPpc1WGIpS_r6-GhPRnUBg", "score": 35}, "geometry": {"type": "Point", "coordinates": [8.3423875, 47.100918]}}, {"type": "Feature", "properties": {"name": "kwP36MU_VrmwZztgBTEYZQ", "score": 11}, "geometry": {"type": "Point", "coordinates": [8.3424882, 47.1010171]}}, {"type": "Feature", "properties": {"name": "YHKQ8M0wlTsoUKCIfYZ76Q", "score": 20}, "geometry": {"type": "Point", "coordinates": [8.3425788, 47.1011058]}}, {"type": "Feature", "properties": {"name": "GYHU_St0PfYKQHBw0WYOVA", "score": 6}, "geometry": {"type": "Point", "coordinates": [8.3426938, 47.1012157]}}, {"type": "Feature", "properties": {"name": "JGkvlJF_RHuRWC11dP3pcA", "score": 14}, "geometry": {"type": "Point", "coordinates": [8.3428002, 47.1013143]}}, {"type": "Feature", "properties": {"name": "2wl5_Fn0i27sxslkjMA4dw", "score": 21}, "geometry": {"type": "Point", "coordinates": [8.3429089, 47.1014116]}}, {"type": "Feature", "properties": {"name": "1NhMMiEDwAwCvRn4PjOm4w", "score": 14}, "geometry": {"type": "Point", "coordinates": [8.3430194, 47.1015077]}}, {"type": "Feature", "properties": {"name": "HEEzGiwab69TWbtPzMAsPA", "score": 28}, "geometry": {"type": "Point", "coordinates": [8.3431323, 47.1016023]}}, {"type": "Feature", "properties": {"name": "6cpAaAXfgWrHLBtXonJnjQ", "score": 3}, "geometry": {"type": "Point", "coordinates": [8.3432457, 47.1016975]}}, {"type": "Feature", "properties": {"name": "A4eHENytg_PcVU89MMFUvw", "score": 38}, "geometry": {"type": "Point", "coordinates": [8.3433606, 47.1017908]}}, {"type": "Feature", "properties": {"name": "pkD_Hq45kVM4GE1BIpnJew", "score": 15}, "geometry": {"type": "Point", "coordinates": [8.3434877, 47.1018936]}}, {"type": "Feature", "properties": {"name": "97RC9Hy5FTuMI7GsvnVvsQ", "score": 35}, "geometry": {"type": "Point", "coordinates": [8.3435902, 47.1019752]}}, {"type": "Feature", "properties": {"name": "dT0sAnVvAq6ydd3g60evmQ", "score": 28}, "geometry": {"type": "Point", "coordinates": [8.3437187, 47.1020767]}}, {"type": "Feature", "properties": {"name": "yYsV0305yfb5C3QERVo-9Q", "score": 14}, "geometry": {"type": "Point", "coordinates": [8.3438361, 47.1021659]}}, {"type": "Feature", "properties": {"name": "mXCWw48d44qqn-MgksWMDw", "score": 28}, "geometry": {"type": "Point", "coordinates": [8.3439549, 47.1022538]}}, {"type": "Feature", "properties": {"name": "ELmYL_HMlPGQTKa_pRlV3g", "score": 5}, "geometry": {"type": "Point", "coordinates": [8.3440738, 47.1023411]}}, {"type": "Feature", "properties": {"name": "oVsLC1h0PAM5tY9IW_F87g", "score": 11}, "geometry": {"type": "Point", "coordinates": [8.3441921, 47.1024286]}}, {"type": "Feature", "properties": {"name": "5yMn_5jk204SYusOWGoMbg", "score": 17}, "geometry": {"type": "Point", "coordinates": [8.3443115, 47.1025155]}}, {"type": "Feature", "properties": {"name": "dxcdoWaAElzTNhCgzAkMDg", "score": 5}, "geometry": {"type": "Point", "coordinates": [8.3444452, 47.1026117]}}, {"type": "Feature", "properties": {"name": "tpwJGGR36RjALkTU886c_w", "score": 35}, "geometry": {"type": "Point", "coordinates": [8.3445528, 47.102688]}}, {"type": "Feature", "properties": {"name": "srqv78tWw5f6qF2M7_f-oQ", "score": 13}, "geometry": {"type": "Point", "coordinates": [8.3446862, 47.1027841]}}, {"type": "Feature", "properties": {"name": "L-4gQfjKBHIUyZhFfbwEpA", "score": 14}, "geometry": {"type": "Point", "coordinates": [8.3448057, 47.1028699]}}, {"type": "Feature", "properties": {"name": "XkjsvdMMkJFQkHhwb3qc2w", "score": 43}, "geometry": {"type": "Point", "coordinates": [8.3449106, 47.1029468]}}, {"type": "Feature", "properties": {"name": "Jm_wmqTdotW5W-QSdmhj-w", "score": 14}, "geometry": {"type": "Point", "coordinates": [8.3450421, 47.1030423]}}, {"type": "Feature", "properties": {"name": "z2225QycxTd9AFj9m3-DxA", "score": 13}, "geometry": {"type": "Point", "coordinates": [8.3451609, 47.1031283]}}, {"type": "Feature", "properties": {"name": "TcDkQT2h1R2mmi-UGjMFhg", "score": 14}, "geometry": {"type": "Point", "coordinates": [8.3452667, 47.1032045]}}, {"type": "Feature", "properties": {"name": "BHJfYBZvytlHKCpez0j4dg", "score": 11}, "geometry": {"type": "Point", "coordinates": [8.3453983, 47.1033001]}}, {"type": "Feature", "properties": {"name": "QEAaCkMqvNMOaIaqLrGuWQ", "score": 11}, "geometry": {"type": "Point", "coordinates": [8.3455175, 47.1033858]}}, {"type": "Feature", "properties": {"name": "-Jp-8Muam_v2jcENFNQiyA", "score": 14}, "geometry": {"type": "Point", "coordinates": [8.3456497, 47.1034808]}}, {"type": "Feature", "properties": {"name": "OJxE44hnDYXA-cM6ti99NA", "score": 14}, "geometry": {"type": "Point", "coordinates": [8.3457544, 47.1035569]}}, {"type": "Feature", "properties": {"name": "KHsHmJfOUmiz4Nb5CUBZyg", "score": 14}, "geometry": {"type": "Point", "coordinates": [8.3458715, 47.103643]}}, {"type": "Feature", "properties": {"name": "2kxnrtj76uedlsTmO9fpQA", "score": 14}, "geometry": {"type": "Point", "coordinates": [8.3459886, 47.1037293]}}, {"type": "Feature", "properties": {"name": "iySxK6X3gFDBed6UCwfPcQ", "score": 14}, "geometry": {"type": "Point", "coordinates": [8.3461032, 47.103817]}}, {"type": "Feature", "properties": {"name": "AvbLMnvw_bGpSrd_biI0sg", "score": 21}, "geometry": {"type": "Point", "coordinates": [8.346217, 47.1039048]}}, {"type": "Feature", "properties": {"name": "Snwjx7VmhkvIDLFublCiNQ", "score": 14}, "geometry": {"type": "Point", "coordinates": [8.3463428, 47.1040029]}}, {"type": "Feature", "properties": {"name": "jLS3WvnxmQS8CMpGozp-gg", "score": 18}, "geometry": {"type": "Point", "coordinates": [8.3464531, 47.1040906]}}, {"type": "Feature", "properties": {"name": "9Xovwsd9R516Evvocfad8w", "score": 19}, "geometry": {"type": "Point", "coordinates": [8.3465642, 47.1041835]}}, {"type": "Feature", "properties": {"name": "-mgHsrFl55PCh6LSIzBQrA", "score": 14}, "geometry": {"type": "Point", "coordinates": [8.3466748, 47.1042744]}}, {"type": "Feature", "properties": {"name": "NY8mvYmkxRlDfPSe8Ior4A", "score": 35}, "geometry": {"type": "Point", "coordinates": [8.3467846, 47.1043658]}}, {"type": "Feature", "properties": {"name": "Ee1VJvFilEOlmwfIxPTtYw", "score": 14}, "geometry": {"type": "Point", "coordinates": [8.3468939, 47.1044569]}}, {"type": "Feature", "properties": {"name": "Z-arEBz1FmyBrg1D826gZg", "score": 14}, "geometry": {"type": "Point", "coordinates": [8.3470023, 47.104549]}}, {"type": "Feature", "properties": {"name": "ikNSkfu6bK-tzCGkdAxftw", "score": 26}, "geometry": {"type": "Point", "coordinates": [8.3471092, 47.1046431]}}, {"type": "Feature", "properties": {"name": "6b5qGl2kzazLOiz-3IwZNw", "score": 10}, "geometry": {"type": "Point", "coordinates": [8.3472284, 47.1047483]}}, {"type": "Feature", "properties": {"name": "Glv5Fg3mX_2JA_7r1fs1Mg", "score": 27}, "geometry": {"type": "Point", "coordinates": [8.3473238, 47.1048331]}}, {"type": "Feature", "properties": {"name": "QRO5xgVTjWHw6I7Y0kOCoA", "score": 14}, "geometry": {"type": "Point", "coordinates": [8.3474436, 47.1049385]}}, {"type": "Feature", "properties": {"name": "b0xWkxE3Qm1H27YZjHRp_A", "score": 14}, "geometry": {"type": "Point", "coordinates": [8.3475509, 47.1050355]}}, {"type": "Feature", "properties": {"name": "paxebebscxq8AaT__XbTXw", "score": 14}, "geometry": {"type": "Point", "coordinates": [8.347646, 47.1051222]}}, {"type": "Feature", "properties": {"name": "4_bczXoQ4w0HFqnxnR_O8A", "score": 11}, "geometry": {"type": "Point", "coordinates": [8.3477638, 47.1052313]}}, {"type": "Feature", "properties": {"name": "bC5WB44Ng42S_EGRjcmKhg", "score": 11}, "geometry": {"type": "Point", "coordinates": [8.3478691, 47.1053297]}}, {"type": "Feature", "properties": {"name": "GmUKYkdUtFiI5hAxxjxyfQ", "score": 21}, "geometry": {"type": "Point", "coordinates": [8.3479736, 47.1054292]}}, {"type": "Feature", "properties": {"name": "khArDBgYq0kEbG4F3mJBPw", "score": 21}, "geometry": {"type": "Point", "coordinates": [8.3480879, 47.1055426]}}, {"type": "Feature", "properties": {"name": "9dS1yA2I3iqKEX63DkiSiQ", "score": 28}, "geometry": {"type": "Point", "coordinates": [8.3481798, 47.105635]}}, {"type": "Feature", "properties": {"name": "uKzjMnuTuSPy-ljUCdv6ew", "score": 14}, "geometry": {"type": "Point", "coordinates": [8.3482821, 47.1057418]}}, {"type": "Feature", "properties": {"name": "8LX1pnikVKABnx7IM_N-kA", "score": 14}, "geometry": {"type": "Point", "coordinates": [8.3483923, 47.1058634]}}, {"type": "Feature", "properties": {"name": "_XpHZTjyAJ_Ocuw2dyuvtg", "score": 24}, "geometry": {"type": "Point", "coordinates": [8.3484801, 47.1059624]}}, {"type": "Feature", "properties": {"name": "LYwZ3K81p4DAf3sMxi6aAQ", "score": 19}, "geometry": {"type": "Point", "coordinates": [8.3485891, 47.1060885]}}, {"type": "Feature", "properties": {"name": "V_jcbRIey-6gcjUYjDbaAg", "score": 15}, "geometry": {"type": "Point", "coordinates": [8.3486759, 47.1061903]}}, {"type": "Feature", "properties": {"name": "nEVgI0iAvdpMnaoDytR5Pw", "score": 22}, "geometry": {"type": "Point", "coordinates": [8.3487849, 47.1063168]}}, {"type": "Feature", "properties": {"name": "Y7XgCQ7uumikthPfdfX-aQ", "score": 14}, "geometry": {"type": "Point", "coordinates": [8.3488808, 47.1064314]}}, {"type": "Feature", "properties": {"name": "WDRazlqFl8L5M_4n0QBHPQ", "score": 14}, "geometry": {"type": "Point", "coordinates": [8.3489778, 47.106546]}}, {"type": "Feature", "properties": {"name": "g4NWYXVxJZ5E3Bf-WPKGcA", "score": 23}, "geometry": {"type": "Point", "coordinates": [8.349075, 47.1066613]}}, {"type": "Feature", "properties": {"name": "3z8KVsFYqFkalrZbcYrdew", "score": 21}, "geometry": {"type": "Point", "coordinates": [8.3491704, 47.1067774]}}, {"type": "Feature", "properties": {"name": "l-tQHZ6IKciIF9ZvY5vAjw", "score": 17}, "geometry": {"type": "Point", "coordinates": [8.3492773, 47.1069073]}}, {"type": "Feature", "properties": {"name": "TP_2ln-f3XgRXqIJeo0MKw", "score": 19}, "geometry": {"type": "Point", "coordinates": [8.3493627, 47.107012]}}, {"type": "Feature", "properties": {"name": "ALNllkgt_nOKA-83d1YJ7A", "score": 11}, "geometry": {"type": "Point", "coordinates": [8.3494703, 47.1071454]}}, {"type": "Feature", "properties": {"name": "LBcg6-dwe4wHIRXZcow1ow", "score": 11}, "geometry": {"type": "Point", "coordinates": [8.3495669, 47.1072669]}}, {"type": "Feature", "properties": {"name": "JKGb5xkUI5JCoPlACPLJwQ", "score": 14}, "geometry": {"type": "Point", "coordinates": [8.3496639, 47.1073889]}}, {"type": "Feature", "properties": {"name": "-VA2j4yVm69QraNvn6SNEg", "score": 10}, "geometry": {"type": "Point", "coordinates": [8.3497537, 47.1074982]}}, {"type": "Feature", "properties": {"name": "afVWOqDclRcgrwgksdvOzg", "score": 14}, "geometry": {"type": "Point", "coordinates": [8.3498629, 47.1076375]}}, {"type": "Feature", "properties": {"name": "NRUJWIH72sNtyy6Q8SIdRg", "score": 28}, "geometry": {"type": "Point", "coordinates": [8.3499629, 47.1077634]}}, {"type": "Feature", "properties": {"name": "ylpeK3zg2t3m_xWjl7bwEg", "score": 23}, "geometry": {"type": "Point", "coordinates": [8.3500636, 47.1078906]}}, {"type": "Feature", "properties": {"name": "mTOrsDKfFD2ENDh_A-BiRg", "score": 14}, "geometry": {"type": "Point", "coordinates": [8.3501646, 47.1080166]}}, {"type": "Feature", "properties": {"name": "JHjbo1bfjseMGAa2T3vDiA", "score": 38}, "geometry": {"type": "Point", "coordinates": [8.3502779, 47.1081562]}}, {"type": "Feature", "properties": {"name": "7-s7VVwZvFWqsu_Pn9l92Q", "score": 11}, "geometry": {"type": "Point", "coordinates": [8.3503689, 47.108269]}}, {"type": "Feature", "properties": {"name": "2akjrjzYv6xST1XOSYoWqw", "score": 11}, "geometry": {"type": "Point", "coordinates": [8.3504717, 47.1083962]}}, {"type": "Feature", "properties": {"name": "bBQb66hiKo1kZUAmFgJPAQ", "score": 17}, "geometry": {"type": "Point", "coordinates": [8.350574, 47.1085235]}}, {"type": "Feature", "properties": {"name": "euL3PROzbvr0yqHkpQPHhA", "score": 14}, "geometry": {"type": "Point", "coordinates": [8.3506758, 47.1086502]}}, {"type": "Feature", "properties": {"name": "GhtWZZ4qJjaqfayCTnYm7Q", "score": 16}, "geometry": {"type": "Point", "coordinates": [8.3507891, 47.1087899]}}, {"type": "Feature", "properties": {"name": "8iEWML3ktDKPqn5PglSAig", "score": 23}, "geometry": {"type": "Point", "coordinates": [8.3508788, 47.1089013]}}, {"type": "Feature", "properties": {"name": "nCYT5PHXmkVQi6g9XnlpyA", "score": 35}, "geometry": {"type": "Point", "coordinates": [8.3509908, 47.1090394]}}, {"type": "Feature", "properties": {"name": "s8eAjirXcowP_Ei4XXMq-A", "score": 13}, "geometry": {"type": "Point", "coordinates": [8.3510914, 47.1091627]}}, {"type": "Feature", "properties": {"name": "dwENVzo5LER1OTsgl9aavg", "score": 28}, "geometry": {"type": "Point", "coordinates": [8.3511909, 47.1092858]}}, {"type": "Feature", "properties": {"name": "9sBn1YWO1nWB1Lesi7rFyQ", "score": 14}, "geometry": {"type": "Point", "coordinates": [8.3512903, 47.1094088]}}, {"type": "Feature", "properties": {"name": "y-CwfxOJh6W1gVwY2XLDuQ", "score": 21}, "geometry": {"type": "Point", "coordinates": [8.3514006, 47.1095454]}}, {"type": "Feature", "properties": {"name": "3pOZGOIb6J-kK58SmP8tdw", "score": 24}, "geometry": {"type": "Point", "coordinates": [8.3514879, 47.1096552]}}, {"type": "Feature", "properties": {"name": "0q6OJfIZqTZzanz_t4PxRQ", "score": 28}, "geometry": {"type": "Point", "coordinates": [8.3515865, 47.1097767]}}, {"type": "Feature", "properties": {"name": "-yxe8aIkurTyHWywFaUgdg", "score": 33}, "geometry": {"type": "Point", "coordinates": [8.3516855, 47.1098985]}}, {"type": "Feature", "properties": {"name": "67m7qjQjZhkSTpwxgS599Q", "score": 38}, "geometry": {"type": "Point", "coordinates": [8.351795, 47.1100333]}}, {"type": "Feature", "properties": {"name": "PaH1ezv5fvE5_WVDrZoQbg", "score": 13}, "geometry": {"type": "Point", "coordinates": [8.351882, 47.1101419]}}, {"type": "Feature", "properties": {"name": "wpFlq5_h2R59WVqthHTcoQ", "score": 34}, "geometry": {"type": "Point", "coordinates": [8.3519927, 47.1102761]}}, {"type": "Feature", "properties": {"name": "VYNhWBMumtIfyFawAYpuTQ", "score": 14}, "geometry": {"type": "Point", "coordinates": [8.3520929, 47.1103975]}}, {"type": "Feature", "properties": {"name": "lKsKeN7rD9sbhNMs1Qm7Sw", "score": 29}, "geometry": {"type": "Point", "coordinates": [8.3521933, 47.1105193]}}, {"type": "Feature", "properties": {"name": "hWUxX-e-oZ5j-K4itM_pHA", "score": 21}, "geometry": {"type": "Point", "coordinates": [8.3522953, 47.1106409]}}, {"type": "Feature", "properties": {"name": "jAPab8DwDMiDf5hENy8I8Q", "score": 14}, "geometry": {"type": "Point", "coordinates": [8.3523979, 47.1107624]}}, {"type": "Feature", "properties": {"name": "ipa7iNA60mzF1F78CnN-1g", "score": 15}, "geometry": {"type": "Point", "coordinates": [8.3525014, 47.1108839]}}, {"type": "Feature", "properties": {"name": "psc-bGIYvsCw7wabokc6iA", "score": 30}, "geometry": {"type": "Point", "coordinates": [8.3526072, 47.1110045]}}, {"type": "Feature", "properties": {"name": "MZX8n3lqMw8-I5zHjFOW5Q", "score": 24}, "geometry": {"type": "Point", "coordinates": [8.3527145, 47.1111246]}}, {"type": "Feature", "properties": {"name": "WB889CiVEOzoDG8zTzKnzA", "score": 4}, "geometry": {"type": "Point", "coordinates": [8.352835, 47.1112589]}}, {"type": "Feature", "properties": {"name": "QaT5fKs9xb-gcwp1hhRZmA", "score": 28}, "geometry": {"type": "Point", "coordinates": [8.352932, 47.1113664]}}, {"type": "Feature", "properties": {"name": "LnRmx9eojPc1eqSwjmobmw", "score": 14}, "geometry": {"type": "Point", "coordinates": [8.3530549, 47.1115007]}}, {"type": "Feature", "properties": {"name": "7qZcgEmEWCQ6yVv2YtMImQ", "score": 14}, "geometry": {"type": "Point", "coordinates": [8.3531667, 47.1116212]}}, {"type": "Feature", "properties": {"name": "gnnulYl23o_0hI8oB3vBTQ", "score": 20}, "geometry": {"type": "Point", "coordinates": [8.353279, 47.1117417]}}, {"type": "Feature", "properties": {"name": "0DikE06Ze-MSXlj956XfDA", "score": 27}, "geometry": {"type": "Point", "coordinates": [8.3533926, 47.1118614]}}, {"type": "Feature", "properties": {"name": "WFp9M_V1w_fsi7jMjzfjGw", "score": 35}, "geometry": {"type": "Point", "coordinates": [8.3535071, 47.1119813]}}, {"type": "Feature", "properties": {"name": "J1UXknHl6hxp-2Y-APbDew", "score": 11}, "geometry": {"type": "Point", "coordinates": [8.3536224, 47.1121007]}}, {"type": "Feature", "properties": {"name": "bUVcoss09V6eVToH53DTJg", "score": 21}, "geometry": {"type": "Point", "coordinates": [8.3537396, 47.1122207]}}, {"type": "Feature", "properties": {"name": "UTQ8NXco_h0egwshg0xmAA", "score": 14}, "geometry": {"type": "Point", "coordinates": [8.3538579, 47.1123398]}}, {"type": "Feature", "properties": {"name": "MRZkGd9Mj-4el8hYnTGLWQ", "score": 35}, "geometry": {"type": "Point", "coordinates": [8.353978, 47.1124587]}}, {"type": "Feature", "properties": {"name": "GhcoKIy9GhEDsQFBur0AGA", "score": 28}, "geometry": {"type": "Point", "coordinates": [8.3540992, 47.112578]}}, {"type": "Feature", "properties": {"name": "lLe8AZREHaxO572j0atpDA", "score": 35}, "geometry": {"type": "Point", "coordinates": [8.3542356, 47.1127085]}}, {"type": "Feature", "properties": {"name": "qkT4VFlwe-WqH1tW5ayNEw", "score": 14}, "geometry": {"type": "Point", "coordinates": [8.3543465, 47.112812]}}, {"type": "Feature", "properties": {"name": "F_i18q-XZs6xyXekv7eksg", "score": 19}, "geometry": {"type": "Point", "coordinates": [8.3544861, 47.1129411]}}, {"type": "Feature", "properties": {"name": "WCnXgHnUA5mFRs7ZCwsJmA", "score": 24}, "geometry": {"type": "Point", "coordinates": [8.3546135, 47.1130554]}}, {"type": "Feature", "properties": {"name": "79WFIbqOkCUkfm6LOjuOXA", "score": 38}, "geometry": {"type": "Point", "coordinates": [8.3547401, 47.1131702]}}, {"type": "Feature", "properties": {"name": "khDBACjgmvu44xPgEKqppQ", "score": 35}, "geometry": {"type": "Point", "coordinates": [8.3548674, 47.1132843]}}, {"type": "Feature", "properties": {"name": "jEfXbFvfvX-oHcfx-uTOGg", "score": 14}, "geometry": {"type": "Point", "coordinates": [8.3550093, 47.1134102]}}, {"type": "Feature", "properties": {"name": "DkbTcK9pViwkGg6WQDsHXQ", "score": 6}, "geometry": {"type": "Point", "coordinates": [8.3551225, 47.1135105]}}, {"type": "Feature", "properties": {"name": "g4Xc9-h5fhrAfaEbGxTCRg", "score": 43}, "geometry": {"type": "Point", "coordinates": [8.3552492, 47.1136228]}}, {"type": "Feature", "properties": {"name": "mGnOQy1qfnBwS3-HC6gysg", "score": 23}, "geometry": {"type": "Point", "coordinates": [8.3553895, 47.1137462]}}, {"type": "Feature", "properties": {"name": "URxdB2XJOxB2rjHK8MtPqQ", "score": 38}, "geometry": {"type": "Point", "coordinates": [8.3555025, 47.1138442]}}, {"type": "Feature", "properties": {"name": "nwLVPUbcLoURET-eTFp-jw", "score": 21}, "geometry": {"type": "Point", "coordinates": [8.3556433, 47.1139656]}}, {"type": "Feature", "properties": {"name": "pXZEpTIyWIzp6jw1rFegbQ", "score": 19}, "geometry": {"type": "Point", "coordinates": [8.3557697, 47.1140736]}}, {"type": "Feature", "properties": {"name": "6BWMZ7GFIBK-npUDDnRZzQ", "score": 29}, "geometry": {"type": "Point", "coordinates": [8.3558952, 47.1141818]}}, {"type": "Feature", "properties": {"name": "TgJ1YoI2_HIL8aluzOYaJA", "score": 14}, "geometry": {"type": "Point", "coordinates": [8.3560219, 47.1142897]}}, {"type": "Feature", "properties": {"name": "kfy_mP7AIsPTVo5O0GhS2w", "score": 14}, "geometry": {"type": "Point", "coordinates": [8.3561484, 47.1143967]}}, {"type": "Feature", "properties": {"name": "RRHDE5wayWZjm95vAqDiWg", "score": 11}, "geometry": {"type": "Point", "coordinates": [8.3562766, 47.114503]}}, {"type": "Feature", "properties": {"name": "3dUlEqQs9FJyfmeElxOQRg", "score": 17}, "geometry": {"type": "Point", "coordinates": [8.3564049, 47.11461]}}, {"type": "Feature", "properties": {"name": "Hk7f7Tx1hZAtckAOkEzKeA", "score": 14}, "geometry": {"type": "Point", "coordinates": [8.3565333, 47.1147163]}}, {"type": "Feature", "properties": {"name": "gslwo0nrj6QJPGzoRa9Umg", "score": 14}, "geometry": {"type": "Point", "coordinates": [8.3566763, 47.1148347]}}, {"type": "Feature", "properties": {"name": "hQwz67eos4smkKBdmI3lUQ", "score": 14}, "geometry": {"type": "Point", "coordinates": [8.3567921, 47.1149288]}}, {"type": "Feature", "properties": {"name": "5-lgwcHi9z2326_Axz32xQ", "score": 21}, "geometry": {"type": "Point", "coordinates": [8.3569212, 47.1150354]}}, {"type": "Feature", "properties": {"name": "lbxo53bibyUEYCXPxF1ggg", "score": 10}, "geometry": {"type": "Point", "coordinates": [8.3570646, 47.1151532]}}, {"type": "Feature", "properties": {"name": "a2F3JMV_pHKYSlfp9Ukqgg", "score": 9}, "geometry": {"type": "Point", "coordinates": [8.3571803, 47.1152467]}}, {"type": "Feature", "properties": {"name": "zQbunOcVNBEIT1LflX0qNQ", "score": 11}, "geometry": {"type": "Point", "coordinates": [8.3573247, 47.1153636]}}, {"type": "Feature", "properties": {"name": "yU03oGAjNudgJwUtEzs0Bg", "score": 11}, "geometry": {"type": "Point", "coordinates": [8.3574553, 47.1154682]}}, {"type": "Feature", "properties": {"name": "COBIl6YrD2H9Uy7vt-pwmA", "score": 21}, "geometry": {"type": "Point", "coordinates": [8.3575861, 47.1155716]}}, {"type": "Feature", "properties": {"name": "AT8WLJ-ozfwtHAHsIbhF6w", "score": 14}, "geometry": {"type": "Point", "coordinates": [8.3577157, 47.1156749]}}, {"type": "Feature", "properties": {"name": "cZnpp0QxGKSw6grXHUbDtg", "score": 14}, "geometry": {"type": "Point", "coordinates": [8.3578462, 47.1157774]}}, {"type": "Feature", "properties": {"name": "BtYRy8J2R7jXiI-MWzYzKw", "score": 11}, "geometry": {"type": "Point", "coordinates": [8.3579802, 47.1158774]}}, {"type": "Feature", "properties": {"name": "Vz23MkL5SE_Mb2xJ9mV6Ww", "score": 14}, "geometry": {"type": "Point", "coordinates": [8.3581149, 47.1159755]}}, {"type": "Feature", "properties": {"name": "WSJM7yhZaCQzUtWC-n1tLA", "score": 35}, "geometry": {"type": "Point", "coordinates": [8.3582518, 47.1160724]}}, {"type": "Feature", "properties": {"name": "wDVVjtiSa5Zj-f0L5hTy7A", "score": 13}, "geometry": {"type": "Point", "coordinates": [8.3584046, 47.1161792]}}, {"type": "Feature", "properties": {"name": "lGj9Kj6f5iNxSKajfbuNOA", "score": 41}, "geometry": {"type": "Point", "coordinates": [8.3585302, 47.1162619]}}, {"type": "Feature", "properties": {"name": "HMAN72XENkPcrQ6UT7ZBCw", "score": 14}, "geometry": {"type": "Point", "coordinates": [8.3586886, 47.1163641]}}, {"type": "Feature", "properties": {"name": "rOenDMmMkQ1NfNftkaePpQ", "score": 14}, "geometry": {"type": "Point", "coordinates": [8.3588335, 47.1164541]}}, {"type": "Feature", "properties": {"name": "zfPTYwIACeEhtTf97rpncg", "score": 14}, "geometry": {"type": "Point", "coordinates": [8.358978, 47.1165441]}}, {"type": "Feature", "properties": {"name": "H9YUWnisBSjJCb8AajaGTQ", "score": 29}, "geometry": {"type": "Point", "coordinates": [8.359127, 47.1166315]}}, {"type": "Feature", "properties": {"name": "p7s78js4ThEXxFDJO--dsg", "score": 21}, "geometry": {"type": "Point", "coordinates": [8.3592765, 47.1167173]}}, {"type": "Feature", "properties": {"name": "GHoH6_Hrad7CGHOeAxdRcA", "score": 21}, "geometry": {"type": "Point", "coordinates": [8.3594278, 47.1168023]}}, {"type": "Feature", "properties": {"name": "RnPdMlvF8fWtaaPXhXLQ_A", "score": 21}, "geometry": {"type": "Point", "coordinates": [8.3595798, 47.1168847]}}, {"type": "Feature", "properties": {"name": "MGDuL7GOzQMW9fiK0nYJ4A", "score": 35}, "geometry": {"type": "Point", "coordinates": [8.3597499, 47.116975]}}, {"type": "Feature", "properties": {"name": "SdyyNvNYWh90EjAM_nEgBQ", "score": 22}, "geometry": {"type": "Point", "coordinates": [8.3599043, 47.1170549]}}, {"type": "Feature", "properties": {"name": "7mTPQfTllt7ASctT6I0Yog", "score": 11}, "geometry": {"type": "Point", "coordinates": [8.3600602, 47.1171334]}}, {"type": "Feature", "properties": {"name": "MLEihJKXuATIkuC7dGvxvQ", "score": 35}, "geometry": {"type": "Point", "coordinates": [8.3602056, 47.1172023]}}, {"type": "Feature", "properties": {"name": "Zar-RaEkLcpY39ef9Zgjcw", "score": 14}, "geometry": {"type": "Point", "coordinates": [8.3603874, 47.1172874]}}, {"type": "Feature", "properties": {"name": "KEz61c8Ky4f1aidlvEX_NA", "score": 14}, "geometry": {"type": "Point", "coordinates": [8.3605376, 47.1173537]}}, {"type": "Feature", "properties": {"name": "whvzgrB8WLwPt05WVtpeCw", "score": 25}, "geometry": {"type": "Point", "coordinates": [8.3607179, 47.1174344]}}, {"type": "Feature", "properties": {"name": "3SYTQMME3vuAHcUTZCTz9g", "score": 35}, "geometry": {"type": "Point", "coordinates": [8.3608841, 47.1175058]}}, {"type": "Feature", "properties": {"name": "T3P2J_osTk4P2VL-8BH8SA", "score": 25}, "geometry": {"type": "Point", "coordinates": [8.3610516, 47.1175758]}}, {"type": "Feature", "properties": {"name": "sGQPe6UzByPuUrS0iM9q9A", "score": 30}, "geometry": {"type": "Point", "coordinates": [8.361219, 47.1176437]}}, {"type": "Feature", "properties": {"name": "j0sh-rICWoj2Fcpy_DRWoQ", "score": 30}, "geometry": {"type": "Point", "coordinates": [8.3613901, 47.1177107]}}, {"type": "Feature", "properties": {"name": "DDHtKjHbpLC-KOeLr6as-w", "score": 14}, "geometry": {"type": "Point", "coordinates": [8.3615609, 47.1177759]}}, {"type": "Feature", "properties": {"name": "JCl080Df7SKczL8STtknNg", "score": 14}, "geometry": {"type": "Point", "coordinates": [8.3617368, 47.1178415]}}, {"type": "Feature", "properties": {"name": "ESxvV2PmnBhhvhIYN9sFXQ", "score": 35}, "geometry": {"type": "Point", "coordinates": [8.3619131, 47.1179035]}}, {"type": "Feature", "properties": {"name": "9ssTV49_Y8WIMP9pF6fG0w", "score": 35}, "geometry": {"type": "Point", "coordinates": [8.3621117, 47.1179705]}}, {"type": "Feature", "properties": {"name": "qn85613Spu6kpYdC9tUMFg", "score": 20}, "geometry": {"type": "Point", "coordinates": [8.362266, 47.1180244]}}, {"type": "Feature", "properties": {"name": "DoAWM2DXoDF9Tc_lt2Kr4g", "score": 43}, "geometry": {"type": "Point", "coordinates": [8.3624433, 47.118082]}}, {"type": "Feature", "properties": {"name": "a8w4GZ4v_a_fGBNbXn1YoA", "score": 25}, "geometry": {"type": "Point", "coordinates": [8.3626403, 47.1181419]}}, {"type": "Feature", "properties": {"name": "l-U-jbhYMH8NuiGPMTySmw", "score": 13}, "geometry": {"type": "Point", "coordinates": [8.3628207, 47.1181946]}}, {"type": "Feature", "properties": {"name": "Yj3i8H6D9o0zdQnfiH8uQQ", "score": 21}, "geometry": {"type": "Point", "coordinates": [8.3630013, 47.1182456]}}, {"type": "Feature", "properties": {"name": "iTU5zkvqRWJDAaHEIdL74Q", "score": 14}, "geometry": {"type": "Point", "coordinates": [8.3631808, 47.1182945]}}, {"type": "Feature", "properties": {"name": "yWb54kb0r9NN-ghhqX5uYA", "score": 16}, "geometry": {"type": "Point", "coordinates": [8.3633803, 47.1183461]}}, {"type": "Feature", "properties": {"name": "lL-ygrnOHtkWDAs7y0cuhQ", "score": 20}, "geometry": {"type": "Point", "coordinates": [8.3635376, 47.1183862]}}, {"type": "Feature", "properties": {"name": "dQ5eNV8vrCCMBNQyCpqQvQ", "score": 28}, "geometry": {"type": "Point", "coordinates": [8.3637142, 47.1184302]}}, {"type": "Feature", "properties": {"name": "oHLBXGCqe9IQBf5L_AZajw", "score": 35}, "geometry": {"type": "Point", "coordinates": [8.3638934, 47.1184722]}}, {"type": "Feature", "properties": {"name": "imGz_16Z6yNMrYjoxwYTeA", "score": 14}, "geometry": {"type": "Point", "coordinates": [8.3640918, 47.1185167]}}, {"type": "Feature", "properties": {"name": "dqn-XXn4_ew-ttU5XYIMRA", "score": 14}, "geometry": {"type": "Point", "coordinates": [8.3642534, 47.1185513]}}, {"type": "Feature", "properties": {"name": "GbtMRK6A6kZDZYpW4amWzA", "score": 38}, "geometry": {"type": "Point", "coordinates": [8.3644595, 47.1185931]}}, {"type": "Feature", "properties": {"name": "mAU4_Y2rcIk7q4QxK8rlyQ", "score": 38}, "geometry": {"type": "Point", "coordinates": [8.3646452, 47.1186288]}}, {"type": "Feature", "properties": {"name": "90UebofpJ103Vu4Mv5i97g", "score": 20}, "geometry": {"type": "Point", "coordinates": [8.364827, 47.1186639]}}, {"type": "Feature", "properties": {"name": "LB1yDlwbSyF3943TzceMYg", "score": 35}, "geometry": {"type": "Point", "coordinates": [8.365012, 47.1186949]}}, {"type": "Feature", "properties": {"name": "U4P1ZV__-mWlT4BMVo6aLA", "score": 9}, "geometry": {"type": "Point", "coordinates": [8.3651976, 47.1187249]}}, {"type": "Feature", "properties": {"name": "c8t-pMRWsuWOohqq8FPOdA", "score": 19}, "geometry": {"type": "Point", "coordinates": [8.3654042, 47.1187566]}}, {"type": "Feature", "properties": {"name": "KhDQrZp3wZ6wzUZ_uhkAQg", "score": 19}, "geometry": {"type": "Point", "coordinates": [8.3655676, 47.1187798]}}, {"type": "Feature", "properties": {"name": "060YtkXImPDLHgCl9NOOJA", "score": 21}, "geometry": {"type": "Point", "coordinates": [8.3657542, 47.1188037]}}, {"type": "Feature", "properties": {"name": "AbuPBq1xOOcFv0r5TyRdyg", "score": 14}, "geometry": {"type": "Point", "coordinates": [8.3659404, 47.1188268]}}, {"type": "Feature", "properties": {"name": "txRT6hinMnBHhrrI1U82OA", "score": 40}, "geometry": {"type": "Point", "coordinates": [8.3661499, 47.1188502]}}, {"type": "Feature", "properties": {"name": "_xlyMr8H5b50Ym3bSNt2mQ", "score": 28}, "geometry": {"type": "Point", "coordinates": [8.3663169, 47.1188676]}}, {"type": "Feature", "properties": {"name": "Z3SKWbDzXAALKRKk7gf7bw", "score": 20}, "geometry": {"type": "Point", "coordinates": [8.3665274, 47.1188869]}}, {"type": "Feature", "properties": {"name": "CldSjcQ4WIe-XsZ33NSVVg", "score": 21}, "geometry": {"type": "Point", "coordinates": [8.3667143, 47.1189017]}}, {"type": "Feature", "properties": {"name": "MnMipQrtfX7bcBGlsa5ngQ", "score": 21}, "geometry": {"type": "Point", "coordinates": [8.3669013, 47.1189157]}}, {"type": "Feature", "properties": {"name": "f5Z5p4A3AeAyBWvg-21lIQ", "score": 21}, "geometry": {"type": "Point", "coordinates": [8.3670888, 47.1189267]}}, {"type": "Feature", "properties": {"name": "fOkggMpMAviuYGAPsDEtJw", "score": 14}, "geometry": {"type": "Point", "coordinates": [8.3672767, 47.1189359]}}, {"type": "Feature", "properties": {"name": "OPFW-ysGW1P7TZquDhfZvA", "score": 14}, "geometry": {"type": "Point", "coordinates": [8.3674641, 47.1189435]}}, {"type": "Feature", "properties": {"name": "ZINBkre6ow8tC4eVEZF8VQ", "score": 21}, "geometry": {"type": "Point", "coordinates": [8.3676476, 47.1189498]}}, {"type": "Feature", "properties": {"name": "cdQID1Ga4jrDduCu_FLjtg", "score": 4}, "geometry": {"type": "Point", "coordinates": [8.3678347, 47.118957]}}, {"type": "Feature", "properties": {"name": "Ao07qEBHN12-To57GdoEqQ", "score": 21}, "geometry": {"type": "Point", "coordinates": [8.3680454, 47.1189622]}}, {"type": "Feature", "properties": {"name": "BCgkkuuIpEgeviExprKLkw", "score": 14}, "geometry": {"type": "Point", "coordinates": [8.3682305, 47.1189682]}}, {"type": "Feature", "properties": {"name": "qmLrdfxVpTyn9xIOFJbKOQ", "score": 35}, "geometry": {"type": "Point", "coordinates": [8.3683967, 47.1189725]}}, {"type": "Feature", "properties": {"name": "oqBZEC8bkCXKDxqzTWbdKw", "score": 35}, "geometry": {"type": "Point", "coordinates": [8.3686064, 47.1189765]}}, {"type": "Feature", "properties": {"name": "1lXIbDmkwsJanOOzz5Dikw", "score": 19}, "geometry": {"type": "Point", "coordinates": [8.3687941, 47.1189798]}}, {"type": "Feature", "properties": {"name": "P0mZd_FWLD_4WUiwmt7hiQ", "score": 14}, "geometry": {"type": "Point", "coordinates": [8.368981, 47.1189814]}}, {"type": "Feature", "properties": {"name": "e7TAgjTCj75IhZu_EhNQ9g", "score": 14}, "geometry": {"type": "Point", "coordinates": [8.3691654, 47.1189825]}}, {"type": "Feature", "properties": {"name": "rpvnMLpBb-9IFjVMmhByHQ", "score": 35}, "geometry": {"type": "Point", "coordinates": [8.3693508, 47.1189833]}}, {"type": "Feature", "properties": {"name": "1OiI5FZpnyVYTIetB5Y6Qw", "score": 10}, "geometry": {"type": "Point", "coordinates": [8.3695493, 47.1189827]}}, {"type": "Feature", "properties": {"name": "qahhbNzTNqfvXfb-LBJyKw", "score": 36},