{"type": "FeatureCollection", "features": [{"type": "Feature", "properties": {"name": "qJQDcZZF_d0Dj-xyISRdBg", "score": 10}, "geometry": {"type": "Point", "coordinates": [9.081361, 47.3166049]}}, {"type": "Feature", "properties": {"name": "DfHYLb_dv18kUtZlyleRhw", "score": 12}, "geometry": {"type": "Point", "coordinates": [9.0813503, 47.316417]}}, {"type": "Feature", "properties": {"name": "UlZLkCEZ49-PE-40t-hRKg", "score": 12}, "geometry": {"type": "Point", "coordinates": [9.0813262, 47.3161987]}}, {"type": "Feature", "properties": {"name": "gFjS852z4d43eMBsvwd__g", "score": 11}, "geometry": {"type": "Point", "coordinates": [9.0812994, 47.3160125]}}, {"type": "Feature", "properties": {"name": "nU7gjFlVx3FyBDtG7IR1pw", "score": 12}, "geometry": {"type": "Point", "coordinates": [9.0812621, 47.3156485]}}, {"type": "Feature", "properties": {"name": "Q6lwBDvuBsbYdY27rM63qg", "score": 13}, "geometry": {"type": "Point", "coordinates": [9.0812291, 47.3154715]}}, {"type": "Feature", "properties": {"name": "ZWRzP-S3e24Wn3JQ1xOnQA", "score": 11}, "geometry": {"type": "Point", "coordinates": [9.0811489, 47.3152368]}}, {"type": "Feature", "properties": {"name": "YX2yS26X8gbN8JbJ2_HI_A", "score": 5}, "geometry": {"type": "Point", "coordinates": [9.0811339, 47.3150073]}}, {"type": "Feature", "properties": {"name": "VVn1sZCSfn8axPG8I78Dtg", "score": 10}, "geometry": {"type": "Point", "coordinates": [9.0810894, 47.3147934]}}, {"type": "Feature", "properties": {"name": "QVr-EGq6uufwCJ-RUY6IFA", "score": 10}, "geometry": {"type": "Point", "coordinates": [9.0810106, 47.3145819]}}, {"type": "Feature", "properties": {"name": "CkRII9A9apolz2-MVW9r8w", "score": 4}, "geometry": {"type": "Point", "coordinates": [9.080954, 47.3143795]}}, {"type": "Feature", "properties": {"name": "ErIJDNmZXD7VI0Vto87lkg", "score": 11}, "geometry": {"type": "Point", "coordinates": [9.0808687, 47.3141858]}}, {"type": "Feature", "properties": {"name": "5g8FfNFs_a3_DTrTIB1_yg", "score": 10}, "geometry": {"type": "Point", "coordinates": [9.0807681, 47.3139889]}}, {"type": "Feature", "properties": {"name": "Ilk9u-3ZHLw9ozoywop35A", "score": 4}, "geometry": {"type": "Point", "coordinates": [9.0806457, 47.3137632]}}, {"type": "Feature", "properties": {"name": "hHvcXjoIT6xygZkUMR2_aA", "score": 12}, "geometry": {"type": "Point", "coordinates": [9.0805128, 47.313565]}}, {"type": "Feature", "properties": {"name": "dDia81aBBaMVNQ8odVzWHg", "score": 10}, "geometry": {"type": "Point", "coordinates": [9.0803576, 47.3133907]}}, {"type": "Feature", "properties": {"name": "SQJ7o8PmyEsD5SwlxlNxjA", "score": 9}, "geometry": {"type": "Point", "coordinates": [9.0801962, 47.313186]}}, {"type": "Feature", "properties": {"name": "9cJ5BPxTa50ZQbN2K1gOKA", "score": 13}, "geometry": {"type": "Point", "coordinates": [9.0799061, 47.313032]}}, {"type": "Feature", "properties": {"name": "5yNGsA3bfOt8orXGZg6xcA", "score": 1}, "geometry": {"type": "Point", "coordinates": [9.0797472, 47.3129065]}}, {"type": "Feature", "properties": {"name": "rja2Yhn-5A6wCdflwOaEUw", "score": 13}, "geometry": {"type": "Point", "coordinates": [9.0794904, 47.3127284]}}, {"type": "Feature", "properties": {"name": "dVVnM036C8FY0AYKq336ZA", "score": 12}, "geometry": {"type": "Point", "coordinates": [9.0792489, 47.3125774]}}, {"type": "Feature", "properties": {"name": "xJlsFfjGSXPQWB6G0m9woQ", "score": 11}, "geometry": {"type": "Point", "coordinates": [9.0790314, 47.3124291]}}, {"type": "Feature", "properties": {"name": "0FrhNJdniDZ2ujbGslGoJQ", "score": 5}, "geometry": {"type": "Point", "coordinates": [9.0788092, 47.3122709]}}, {"type": "Feature", "properties": {"name": "ZbTFMewJFnjG4QcRJg6K1Q", "score": 13}, "geometry": {"type": "Point", "coordinates": [9.0785691, 47.3120758]}}, {"type": "Feature", "properties": {"name": "1OW5KjFjR0o_lN294gO-yw", "score": 0}, "geometry": {"type": "Point", "coordinates": [9.0784384, 47.3119307]}}, {"type": "Feature", "properties": {"name": "R5DkrHAkm9SSuLNe6q0SdA", "score": 13}, "geometry": {"type": "Point", "coordinates": [9.0782966, 47.3117397]}}, {"type": "Feature", "properties": {"name": "XGXboFItcxujN0eOCUogqQ", "score": 12}, "geometry": {"type": "Point", "coordinates": [9.0780871, 47.3115603]}}, {"type": "Feature", "properties": {"name": "Kvly-0B-TU8V4S9n6SgohA", "score": 5}, "geometry": {"type": "Point", "coordinates": [9.0779067, 47.3114102]}}, {"type": "Feature", "properties": {"name": "3sgQtLnuAVsb1H9q6p2MAQ", "score": 7}, "geometry": {"type": "Point", "coordinates": [9.0777811, 47.3111513]}}, {"type": "Feature", "properties": {"name": "3sWvbvKacEeZNgxXZHO-8Q", "score": 8}, "geometry": {"type": "Point", "coordinates": [9.0776736, 47.3109335]}}, {"type": "Feature", "properties": {"name": "qksLZ51fSek41MGVQ0C0JQ", "score": 12}, "geometry": {"type": "Point", "coordinates": [9.0776495, 47.3106866]}}, {"type": "Feature", "properties": {"name": "CAwIGyZTErBXr1sXKVV6wQ", "score": 10}, "geometry": {"type": "Point", "coordinates": [9.0776338, 47.3104691]}}, {"type": "Feature", "properties": {"name": "suU75jF_YU8K4LJ8LbCRsw", "score": 3}, "geometry": {"type": "Point", "coordinates": [9.0775854, 47.3102157]}}, {"type": "Feature", "properties": {"name": "fbBHb8dyGCYB4omQN1OW2Q", "score": 13}, "geometry": {"type": "Point", "coordinates": [9.0775718, 47.310033]}}, {"type": "Feature", "properties": {"name": "ZD2xF2Q1Kg9sDCMHEMKofQ", "score": 5}, "geometry": {"type": "Point", "coordinates": [9.0775885, 47.3098066]}}, {"type": "Feature", "properties": {"name": "OIlBExtFFy9JFBNC2-S1rw", "score": 8}, "geometry": {"type": "Point", "coordinates": [9.0776287, 47.3095685]}}, {"type": "Feature", "properties": {"name": "ACcjj57DSSYZh8veClDxxw", "score": 10}, "geometry": {"type": "Point", "coordinates": [9.0776558, 47.309337]}}, {"type": "Feature", "properties": {"name": "QvlskL7mxtXYopAGvUwq4g", "score": 5}, "geometry": {"type": "Point", "coordinates": [9.0777128, 47.3091377]}}, {"type": "Feature", "properties": {"name": "ouW203Z9y49v9QFmc8BqCw", "score": 12}, "geometry": {"type": "Point", "coordinates": [9.077814, 47.3088974]}}, {"type": "Feature", "properties": {"name": "WFZkueoRT2FGhMpm0fj9Gg", "score": 12}, "geometry": {"type": "Point", "coordinates": [9.0778614, 47.3086353]}}, {"type": "Feature", "properties": {"name": "PTZpeGCUWjkq_pc_0yBkYw", "score": 12}, "geometry": {"type": "Point", "coordinates": [9.0779279, 47.3084462]}}, {"type": "Feature", "properties": {"name": "-X78ERpJ31x6fahlJrgpnQ", "score": 13}, "geometry": {"type": "Point", "coordinates": [9.0779798, 47.3082139]}}, {"type": "Feature", "properties": {"name": "Q4L06u9E-FyP1claytNokQ", "score": 6}, "geometry": {"type": "Point", "coordinates": [9.0780701, 47.307998]}}, {"type": "Feature", "properties": {"name": "SlnkgU0WiRgD9X3BJSqXQw", "score": 13}, "geometry": {"type": "Point", "coordinates": [9.0781719, 47.3077716]}}, {"type": "Feature", "properties": {"name": "pCCHLLJb3vya8ioKkpmG2Q", "score": 5}, "geometry": {"type": "Point", "coordinates": [9.0782719, 47.3075359]}}, {"type": "Feature", "properties": {"name": "1vDkwKf25POoWeVfKjCQ0g", "score": 6}, "geometry": {"type": "Point", "coordinates": [9.0783602, 47.3073065]}}, {"type": "Feature", "properties": {"name": "e2X9iDWWNHDauWQEJ9Ta5g", "score": 20}, "geometry": {"type": "Point", "coordinates": [9.078445, 47.3070946]}}, {"type": "Feature", "properties": {"name": "xfnryYXVl0btcFMzvOklCQ", "score": 10}, "geometry": {"type": "Point", "coordinates": [9.0785353, 47.3068853]}}, {"type": "Feature", "properties": {"name": "-BvILx_HcCwyO9aOx1lCZw", "score": 13}, "geometry": {"type": "Point", "coordinates": [9.0786215, 47.306608]}}, {"type": "Feature", "properties": {"name": "T-EYBpUd9exi8ZPdTXDigA", "score": 8}, "geometry": {"type": "Point", "coordinates": [9.0787017, 47.3064284]}}, {"type": "Feature", "properties": {"name": "Ykzk5v3HpMCXY-reSKAanA", "score": 10}, "geometry": {"type": "Point", "coordinates": [9.0787832, 47.3062039]}}, {"type": "Feature", "properties": {"name": "bsB3IwA39Rn5noxATAytKg", "score": 6}, "geometry": {"type": "Point", "coordinates": [9.0788682, 47.3059774]}}, {"type": "Feature", "properties": {"name": "zqkIpMN5NCLNZ6eXsj0JeQ", "score": 7}, "geometry": {"type": "Point", "coordinates": [9.0789623, 47.3057446]}}, {"type": "Feature", "properties": {"name": "WQ0tZK_cH0ajbcUHP3jx3w", "score": 13}, "geometry": {"type": "Point", "coordinates": [9.0790622, 47.3054747]}}, {"type": "Feature", "properties": {"name": "4c2EFxrDNNPU8d2kAeC1ow", "score": 4}, "geometry": {"type": "Point", "coordinates": [9.0791292, 47.3052918]}}, {"type": "Feature", "properties": {"name": "MCyC_C2Ga2khGWOpcn9aUw", "score": 9}, "geometry": {"type": "Point", "coordinates": [9.0792312, 47.3050476]}}, {"type": "Feature", "properties": {"name": "cPbWsL3W2fwReZhPIAO5VA", "score": 10}, "geometry": {"type": "Point", "coordinates": [9.0793125, 47.3048227]}}, {"type": "Feature", "properties": {"name": "FYnCK40t2tWWFrglTCZ0sg", "score": 4}, "geometry": {"type": "Point", "coordinates": [9.0793943, 47.3045812]}}, {"type": "Feature", "properties": {"name": "CDFS7-OOq_O3TmoKN8uxDw", "score": 1}, "geometry": {"type": "Point", "coordinates": [9.079468, 47.3043549]}}, {"type": "Feature", "properties": {"name": "hVP370scaDFOMoFieVwO4g", "score": 2}, "geometry": {"type": "Point", "coordinates": [9.0795094, 47.3040922]}}, {"type": "Feature", "properties": {"name": "uYctyhRrDkQnYmSM-hfXAA", "score": 8}, "geometry": {"type": "Point", "coordinates": [9.0795409, 47.3039331]}}, {"type": "Feature", "properties": {"name": "ZwkdJsWS5cMl8i2jbOzBVg", "score": 9}, "geometry": {"type": "Point", "coordinates": [9.0795922, 47.3036807]}}, {"type": "Feature", "properties": {"name": "f8ksqx6_9OYTPQj5OrmJsg", "score": 10}, "geometry": {"type": "Point", "coordinates": [9.0796484, 47.3033826]}}, {"type": "Feature", "properties": {"name": "PyC8zZtDtMqkAMUBPlq0_A", "score": 11}, "geometry": {"type": "Point", "coordinates": [9.0797171, 47.3032132]}}, {"type": "Feature", "properties": {"name": "9_PgS_Qasljhrl5zzkTB_A", "score": 26}, "geometry": {"type": "Point", "coordinates": [9.047304, 47.2668419]}}, {"type": "Feature", "properties": {"name": "SUdQisfvzy84K3tSHE3oag", "score": 28}, "geometry": {"type": "Point", "coordinates": [9.0473534, 47.2670126]}}, {"type": "Feature", "properties": {"name": "ji2IHZ0J_0DWq67CCf1kHQ", "score": 37}, "geometry": {"type": "Point", "coordinates": [9.0473974, 47.2671532]}}, {"type": "Feature", "properties": {"name": "mkU1g5-hFK6CWqzNngemyw", "score": 36}, "geometry": {"type": "Point", "coordinates": [9.0474576, 47.2672818]}}, {"type": "Feature", "properties": {"name": "sBVPuXyiQC70ZTsajmYsfg", "score": 15}, "geometry": {"type": "Point", "coordinates": [9.0475567, 47.2674009]}}, {"type": "Feature", "properties": {"name": "wPz5k2IZrufiUhuZ3IS5Og", "score": 20}, "geometry": {"type": "Point", "coordinates": [9.0477031, 47.2675109]}}, {"type": "Feature", "properties": {"name": "ke1nNFXOohCbcLRC6FFKTw", "score": 27}, "geometry": {"type": "Point", "coordinates": [9.0478761, 47.267598]}}, {"type": "Feature", "properties": {"name": "BFunaJJ5EmaHqQ1G1QFNDA", "score": 30}, "geometry": {"type": "Point", "coordinates": [9.0480734, 47.2676545]}}, {"type": "Feature", "properties": {"name": "TWNV8zl2f4F6KSMdJqnCAQ", "score": 19}, "geometry": {"type": "Point", "coordinates": [9.0482886, 47.26767]}}, {"type": "Feature", "properties": {"name": "WL9cE48FC-sl2yKywJ8aSA", "score": 13}, "geometry": {"type": "Point", "coordinates": [9.0485058, 47.2676534]}}, {"type": "Feature", "properties": {"name": "aigL24UQAuxjOYdThXah_g", "score": 20}, "geometry": {"type": "Point", "coordinates": [9.0487215, 47.2676152]}}, {"type": "Feature", "properties": {"name": "zTHPFJw_-D2QY_t0isYn5g", "score": 15}, "geometry": {"type": "Point", "coordinates": [9.0489243, 47.2675796]}}, {"type": "Feature", "properties": {"name": "hiKsjb5Ff1qnlaOF8gPE0Q", "score": 18}, "geometry": {"type": "Point", "coordinates": [9.0491343, 47.2675525]}}, {"type": "Feature", "properties": {"name": "_gaBxWVZaKWEz3WOSIZPmw", "score": 26}, "geometry": {"type": "Point", "coordinates": [9.0493555, 47.2675418]}}, {"type": "Feature", "properties": {"name": "lajcG31LEmWJfCDCpodflw", "score": 13}, "geometry": {"type": "Point", "coordinates": [9.0495697, 47.2675535]}}, {"type": "Feature", "properties": {"name": "8WjftYUabBwnoJ3QHhEarQ", "score": 34}, "geometry": {"type": "Point", "coordinates": [9.0497855, 47.267585]}}, {"type": "Feature", "properties": {"name": "TynGHfZzy75uvfcpB1CMgQ", "score": 28}, "geometry": {"type": "Point", "coordinates": [9.0499887, 47.2676451]}}, {"type": "Feature", "properties": {"name": "Av_YXoCG2L4IOC9_24b6cA", "score": 30}, "geometry": {"type": "Point", "coordinates": [9.0501878, 47.2677177]}}, {"type": "Feature", "properties": {"name": "fxXnr1S55P-DwJl2KkBlcw", "score": 27}, "geometry": {"type": "Point", "coordinates": [9.0504061, 47.2677953]}}, {"type": "Feature", "properties": {"name": "iLwhvLwGaHmzuebNoRQ1HA", "score": 43}, "geometry": {"type": "Point", "coordinates": [9.050638, 47.2678777]}}, {"type": "Feature", "properties": {"name": "gvP2fQEMFkmTxFImJj-uFQ", "score": 18}, "geometry": {"type": "Point", "coordinates": [9.0508599, 47.2679728]}}, {"type": "Feature", "properties": {"name": "WNerZMUuQ_tzijuSA_bevg", "score": 41}, "geometry": {"type": "Point", "coordinates": [9.0510862, 47.2680715]}}, {"type": "Feature", "properties": {"name": "d7d1A34LsrRhkeme7UK2eg", "score": 29}, "geometry": {"type": "Point", "coordinates": [9.0513055, 47.2681698]}}, {"type": "Feature", "properties": {"name": "bivU0uug7mS1srQ0x2jYcg", "score": 39}, "geometry": {"type": "Point", "coordinates": [9.0515246, 47.2682683]}}, {"type": "Feature", "properties": {"name": "Is7MzV0YGY6h2y3OpJfLOg", "score": 39}, "geometry": {"type": "Point", "coordinates": [9.0517538, 47.2683732]}}, {"type": "Feature", "properties": {"name": "6bUXPZAR_SxbQr-s2g8rcA", "score": 37}, "geometry": {"type": "Point", "coordinates": [9.0519791, 47.2684781]}}, {"type": "Feature", "properties": {"name": "-BlSSRDg1cFQPzpcFK46kA", "score": 38}, "geometry": {"type": "Point", "coordinates": [9.0521908, 47.2685816]}}, {"type": "Feature", "properties": {"name": "ivGOAXhUfSnI5bQKaHxaig", "score": 43}, "geometry": {"type": "Point", "coordinates": [9.0523996, 47.2686917]}}, {"type": "Feature", "properties": {"name": "EU5yoIVHCh7yTFvVb7W2Kg", "score": 35}, "geometry": {"type": "Point", "coordinates": [9.0525963, 47.2688041]}}, {"type": "Feature", "properties": {"name": "YigsGtu3q0jgJgKT1H5IHw", "score": 36}, "geometry": {"type": "Point", "coordinates": [9.0527949, 47.2689171]}}, {"type": "Feature", "properties": {"name": "xy8ZmN_LcmJXJxkA7B0Xow", "score": 37}, "geometry": {"type": "Point", "coordinates": [9.0530107, 47.269042]}}, {"type": "Feature", "properties": {"name": "sCg-zFJfw9o10hyIiceIUA", "score": 35}, "geometry": {"type": "Point", "coordinates": [9.0532109, 47.2691583]}}, {"type": "Feature", "properties": {"name": "GOgg-ELyWdCNNHj3oOwGoQ", "score": 39}, "geometry": {"type": "Point", "coordinates": [9.0534098, 47.2692691]}}, {"type": "Feature", "properties": {"name": "r6vnUrKM3xSF3rLKYkEJ5A", "score": 36}, "geometry": {"type": "Point", "coordinates": [9.0536184, 47.2693839]}}, {"type": "Feature", "properties": {"name": "1Upg_A6yxH078apiwwEzuQ", "score": 27}, "geometry": {"type": "Point", "coordinates": [9.0538084, 47.2694885]}}, {"type": "Feature", "properties": {"name": "ucWwNCdiIqsTTkEz5MoMSg", "score": 34}, "geometry": {"type": "Point", "coordinates": [9.0539959, 47.2695895]}}, {"type": "Feature", "properties": {"name": "7r_KAndVshoFBSxh-ZV_lg", "score": 31}, "geometry": {"type": "Point", "coordinates": [9.0541929, 47.2696917]}}, {"type": "Feature", "properties": {"name": "6gyFMxoF4ZLxmzxtj8gLbA", "score": 25}, "geometry": {"type": "Point", "coordinates": [9.0543662, 47.2697847]}}, {"type": "Feature", "properties": {"name": "CQ-Bme1tmhXt96LKqyRbzw", "score": 27}, "geometry": {"type": "Point", "coordinates": [9.0545422, 47.2698861]}}, {"type": "Feature", "properties": {"name": "t48W1JiJQzkzjq5RhDbhfg", "score": 29}, "geometry": {"type": "Point", "coordinates": [9.0546942, 47.2699953]}}, {"type": "Feature", "properties": {"name": "HxZ-eqO_y-NH8WZ6pO5BMg", "score": 37}, "geometry": {"type": "Point", "coordinates": [9.0548073, 47.2701214]}}, {"type": "Feature", "properties": {"name": "fl_N8by3xTqSx5x-EedNvw", "score": 5}, "geometry": {"type": "Point", "coordinates": [9.0548771, 47.2702592]}}, {"type": "Feature", "properties": {"name": "S_bs6N3zioonVF5IImCXdg", "score": 27}, "geometry": {"type": "Point", "coordinates": [9.0549095, 47.2704026]}}, {"type": "Feature", "properties": {"name": "Lm8-R17u-bi_eJRQ3hoR6g", "score": 23}, "geometry": {"type": "Point", "coordinates": [9.0549015, 47.2705646]}}, {"type": "Feature", "properties": {"name": "wsWy2uvlhpDLnI6cWQrdzA", "score": 14}, "geometry": {"type": "Point", "coordinates": [9.054853, 47.2707177]}}, {"type": "Feature", "properties": {"name": "MfygdaqM8eUKt9ZfM2VaNg", "score": 13}, "geometry": {"type": "Point", "coordinates": [9.0547748, 47.2708728]}}, {"type": "Feature", "properties": {"name": "ZLs9PT_MacDirJ3B7GmffA", "score": 12}, "geometry": {"type": "Point", "coordinates": [9.0547109, 47.2710291]}}, {"type": "Feature", "properties": {"name": "NihSM5d2hUtgfy8Ol4cNxA", "score": 13}, "geometry": {"type": "Point", "coordinates": [9.0546827, 47.2711828]}}, {"type": "Feature", "properties": {"name": "KUFKdeMlMyw9BdrlZ7kkcQ", "score": 14}, "geometry": {"type": "Point", "coordinates": [9.0546895, 47.2713336]}}, {"type": "Feature", "properties": {"name": "8Ds_N-eD2syyVvA8y1YGLQ", "score": 26}, "geometry": {"type": "Point", "coordinates": [9.0547383, 47.2714838]}}, {"type": "Feature", "properties": {"name": "YLfgFcyhUDihVt6m60pXuQ", "score": 12}, "geometry": {"type": "Point", "coordinates": [9.0548282, 47.2716363]}}, {"type": "Feature", "properties": {"name": "Qpa-BSAobdTszapBQYcXjQ", "score": 36}, "geometry": {"type": "Point", "coordinates": [9.0549774, 47.2717712]}}, {"type": "Feature", "properties": {"name": "fJl8MOTfJHnmracdL9J0vA", "score": 22}, "geometry": {"type": "Point", "coordinates": [9.0551706, 47.2719031]}}, {"type": "Feature", "properties": {"name": "_esUuP6tn8g5EOVQHKpNeg", "score": 32}, "geometry": {"type": "Point", "coordinates": [9.0553817, 47.2720239]}}, {"type": "Feature", "properties": {"name": "ExRy-YiIYiADSm5eyrL3pQ", "score": 34}, "geometry": {"type": "Point", "coordinates": [9.0556122, 47.2721336]}}, {"type": "Feature", "properties": {"name": "SfNgsUv3zFOro40-o7HKSA", "score": 34}, "geometry": {"type": "Point", "coordinates": [9.0558376, 47.2722378]}}, {"type": "Feature", "properties": {"name": "G82a1pbBkdcQAb5BgDp8lg", "score": 34}, "geometry": {"type": "Point", "coordinates": [9.0560691, 47.2723525]}}, {"type": "Feature", "properties": {"name": "u-ol40bg8-wCn6PWe4yRiw", "score": 18}, "geometry": {"type": "Point", "coordinates": [9.0562946, 47.2724639]}}, {"type": "Feature", "properties": {"name": "LYXIv8WVpRpxEriuAKH3Eg", "score": 28}, "geometry": {"type": "Point", "coordinates": [9.0565275, 47.2725774]}}, {"type": "Feature", "properties": {"name": "a5HpaxbWX6PUTDh07BXQTw", "score": 47}, "geometry": {"type": "Point", "coordinates": [9.0567651, 47.2726898]}}, {"type": "Feature", "properties": {"name": "iJ6YTS4s21uB0RjKJ3C5lA", "score": 43}, "geometry": {"type": "Point", "coordinates": [9.057019, 47.2728121]}}, {"type": "Feature", "properties": {"name": "ENzuKuR50LCx90lW4b2W3w", "score": 36}, "geometry": {"type": "Point", "coordinates": [9.0573733, 47.2729848]}}, {"type": "Feature", "properties": {"name": "dvLdxfKKlmohXQNk6hL0FA", "score": 21}, "geometry": {"type": "Point", "coordinates": [9.0576334, 47.2731144]}}, {"type": "Feature", "properties": {"name": "6J16IgKZ0zlfg447Ho66Vg", "score": 35}, "geometry": {"type": "Point", "coordinates": [9.0578791, 47.2732379]}}, {"type": "Feature", "properties": {"name": "gUVnsbtnkJzFz6-UQr-uRA", "score": 30}, "geometry": {"type": "Point", "coordinates": [9.0581393, 47.2733665]}}, {"type": "Feature", "properties": {"name": "Xj4mxSCo2O3bZbMBqeYKgw", "score": 35}, "geometry": {"type": "Point", "coordinates": [9.0583993, 47.2734912]}}, {"type": "Feature", "properties": {"name": "EcuHwW0Zbv-HKnnBEpvfFQ", "score": 28}, "geometry": {"type": "Point", "coordinates": [9.0586677, 47.2736218]}}, {"type": "Feature", "properties": {"name": "mhIG51saTgfpQDJ6c6D-kw", "score": 42}, "geometry": {"type": "Point", "coordinates": [9.0589222, 47.273747]}}, {"type": "Feature", "properties": {"name": "u9wVMBaXtoY_ZT5U1CFCow", "score": 37}, "geometry": {"type": "Point", "coordinates": [9.0591795, 47.2738711]}}, {"type": "Feature", "properties": {"name": "4bdE7OqV3EMdPRdyCtSnTA", "score": 27}, "geometry": {"type": "Point", "coordinates": [9.0594311, 47.2739983]}}, {"type": "Feature", "properties": {"name": "QnH0Yz72zqdY0kHEd-4WNQ", "score": 42}, "geometry": {"type": "Point", "coordinates": [9.0596708, 47.2741186]}}, {"type": "Feature", "properties": {"name": "w7O5IWTJd3dSA0mo3fYvqA", "score": 38}, "geometry": {"type": "Point", "coordinates": [9.0599112, 47.2742367]}}, {"type": "Feature", "properties": {"name": "68ArbIEtg6klc1cJujqgCA", "score": 37}, "geometry": {"type": "Point", "coordinates": [9.0601487, 47.2743504]}}, {"type": "Feature", "properties": {"name": "GGEu0JVCO4A-w80zNWtkqQ", "score": 45}, "geometry": {"type": "Point", "coordinates": [9.0603727, 47.2744574]}}, {"type": "Feature", "properties": {"name": "_0xFvc1bzuNcruNzxpzK2w", "score": 19}, "geometry": {"type": "Point", "coordinates": [9.0605947, 47.2745652]}}, {"type": "Feature", "properties": {"name": "EP6hnpfa3f6HmRNjaZ4V2Q", "score": 40}, "geometry": {"type": "Point", "coordinates": [9.0608152, 47.2746752]}}, {"type": "Feature", "properties": {"name": "Ed3uOQp4CqLybv0e-iyXvg", "score": 21}, "geometry": {"type": "Point", "coordinates": [9.0610424, 47.2747913]}}, {"type": "Feature", "properties": {"name": "XtD7fPiDd2YzPn3aE0nzIg", "score": 13}, "geometry": {"type": "Point", "coordinates": [9.0612618, 47.2749048]}}, {"type": "Feature", "properties": {"name": "8bJ1PJsjAQrFQzQL9kenQQ", "score": 21}, "geometry": {"type": "Point", "coordinates": [9.0614729, 47.2750128]}}, {"type": "Feature", "properties": {"name": "XAHlXJiCuCIHU6wVtqGnDw", "score": 13}, "geometry": {"type": "Point", "coordinates": [9.0617787, 47.275166]}}, {"type": "Feature", "properties": {"name": "OjrdbkIgAndiN4G41GYJUQ", "score": 12}, "geometry": {"type": "Point", "coordinates": [9.0620027, 47.2752637]}}, {"type": "Feature", "properties": {"name": "DoxxWNlQcz4rDAbRa8E3Vw", "score": 18}, "geometry": {"type": "Point", "coordinates": [9.0622529, 47.2753481]}}, {"type": "Feature", "properties": {"name": "hk8-aodHU-AMPykvU7ER9g", "score": 28}, "geometry": {"type": "Point", "coordinates": [9.0625224, 47.2754133]}}, {"type": "Feature", "properties": {"name": "9ytP3UTK57tlcatWXnUc5w", "score": 29}, "geometry": {"type": "Point", "coordinates": [9.0628141, 47.2754562]}}, {"type": "Feature", "properties": {"name": "DvRoAmKs62XXHPiD5sAitQ", "score": 8}, "geometry": {"type": "Point", "coordinates": [9.0630921, 47.2754755]}}, {"type": "Feature", "properties": {"name": "8Aykju4qnvyDv9ms8TQOUA", "score": 27}, "geometry": {"type": "Point", "coordinates": [9.0633779, 47.2754961]}}, {"type": "Feature", "properties": {"name": "N1IHZGsT2ABGVkIsvvloeA", "score": 21}, "geometry": {"type": "Point", "coordinates": [9.0636603, 47.2755192]}}, {"type": "Feature", "properties": {"name": "tNtOn7Ir1GETT1P9fkC34g", "score": 30}, "geometry": {"type": "Point", "coordinates": [9.0639381, 47.2755602]}}, {"type": "Feature", "properties": {"name": "QeW1jH_ofpMWHRUoD0FMFA", "score": 28}, "geometry": {"type": "Point", "coordinates": [9.0642216, 47.2756218]}}, {"type": "Feature", "properties": {"name": "Ddkkz8PAl7o76eWxJt_IPQ", "score": 34}, "geometry": {"type": "Point", "coordinates": [9.0644835, 47.2756942]}}, {"type": "Feature", "properties": {"name": "pf2Q4oQuxdoS8Q0LoQZmjQ", "score": 30}, "geometry": {"type": "Point", "coordinates": [9.0647477, 47.2757732]}}, {"type": "Feature", "properties": {"name": "4BZEicrpZt7T96fdPbyPaQ", "score": 29}, "geometry": {"type": "Point", "coordinates": [9.0650158, 47.2758548]}}, {"type": "Feature", "properties": {"name": "ZZEXelEyvsl8t0OxOdAbqw", "score": 25}, "geometry": {"type": "Point", "coordinates": [9.0652724, 47.2759401]}}, {"type": "Feature", "properties": {"name": "ymULf2gupt9P3PQ84CBWDA", "score": 26}, "geometry": {"type": "Point", "coordinates": [9.0655295, 47.2760408]}}, {"type": "Feature", "properties": {"name": "gjZW_WZtqPjmFB8eOE4Enw", "score": 29}, "geometry": {"type": "Point", "coordinates": [9.0657658, 47.2761474]}}, {"type": "Feature", "properties": {"name": "lsOg0s39sKcQi4W7KsZPaA", "score": 28}, "geometry": {"type": "Point", "coordinates": [9.0659929, 47.2762591]}}, {"type": "Feature", "properties": {"name": "cq8tTabWLnBJg1XbNj2Fcg", "score": 22}, "geometry": {"type": "Point", "coordinates": [9.0662238, 47.2763838]}}, {"type": "Feature", "properties": {"name": "yldftTypICkw9dvsZK2peQ", "score": 36}, "geometry": {"type": "Point", "coordinates": [9.0665925, 47.2765993]}}, {"type": "Feature", "properties": {"name": "iNCHwnXpCV9UXVaXYivYwA", "score": 18}, "geometry": {"type": "Point", "coordinates": [9.0668052, 47.2767435]}}, {"type": "Feature", "properties": {"name": "u45WV7pBWUxQrNUv7xXFrA", "score": 37}, "geometry": {"type": "Point", "coordinates": [9.0670016, 47.2768858]}}, {"type": "Feature", "properties": {"name": "Ve0YAM9lKu5-PAEjSEF45w", "score": 14}, "geometry": {"type": "Point", "coordinates": [9.0671957, 47.2770329]}}, {"type": "Feature", "properties": {"name": "1Pc0_ITZ8KcL1pJ2tIUIzQ", "score": 13}, "geometry": {"type": "Point", "coordinates": [9.0673975, 47.2771929]}}, {"type": "Feature", "properties": {"name": "V8JGcpA2Y5fEKx-EPdRfHw", "score": 37}, "geometry": {"type": "Point", "coordinates": [9.0675858, 47.2773425]}}, {"type": "Feature", "properties": {"name": "ViSl5QhMxX64G4JxyIz1Hw", "score": 36}, "geometry": {"type": "Point", "coordinates": [9.0677868, 47.277507]}}, {"type": "Feature", "properties": {"name": "2nL0DrvyxZsaoi04FE9cew", "score": 37}, "geometry": {"type": "Point", "coordinates": [9.0679867, 47.2776689]}}, {"type": "Feature", "properties": {"name": "BPy4-on7psMNdSHb0tlcXg", "score": 34}, "geometry": {"type": "Point", "coordinates": [9.0681846, 47.2778286]}}, {"type": "Feature", "properties": {"name": "y0Yw3GjgiBPUMbYlb7mPSQ", "score": 12}, "geometry": {"type": "Point", "coordinates": [9.0683818, 47.2779867]}}, {"type": "Feature", "properties": {"name": "Okpo22y5aE3oiEJLqBGhXA", "score": 36}, "geometry": {"type": "Point", "coordinates": [9.0685784, 47.2781428]}}, {"type": "Feature", "properties": {"name": "b7-FUk-4idSzvkVHFVlQUw", "score": 12}, "geometry": {"type": "Point", "coordinates": [9.068774, 47.2783006]}}, {"type": "Feature", "properties": {"name": "01UxGVdmV0CQbLHFAv1YmA", "score": 6}, "geometry": {"type": "Point", "coordinates": [9.0689642, 47.2784476]}}, {"type": "Feature", "properties": {"name": "ORacxbKDQgEPTeQyFDKAew", "score": 29}, "geometry": {"type": "Point", "coordinates": [9.069172, 47.2785873]}}, {"type": "Feature", "properties": {"name": "tRyNLww1Z8sA6My_vE6fiw", "score": 28}, "geometry": {"type": "Point", "coordinates": [9.0693992, 47.2787163]}}, {"type": "Feature", "properties": {"name": "fC-OnVzJqZvQ3UERvXorQQ", "score": 7}, "geometry": {"type": "Point", "coordinates": [9.0696244, 47.2788297]}}, {"type": "Feature", "properties": {"name": "2hK0ZVB93KgX8dyFt_KjUA", "score": 31}, "geometry": {"type": "Point", "coordinates": [9.0698599, 47.2789458]}}, {"type": "Feature", "properties": {"name": "JVlEqM-bvzqr14H7MXtlOg", "score": 31}, "geometry": {"type": "Point", "coordinates": [9.0700869, 47.2790592]}}, {"type": "Feature", "properties": {"name": "Ql2oftqixhFz2lch0nTRsg", "score": 21}, "geometry": {"type": "Point", "coordinates": [9.0703239, 47.2791778]}}, {"type": "Feature", "properties": {"name": "qX9CeSvjH6_pFXZ5LsTkLg", "score": 20}, "geometry": {"type": "Point", "coordinates": [9.0705597, 47.2792992]}}, {"type": "Feature", "properties": {"name": "VYF7DM6OrElW4m26JUt--Q", "score": 48}, "geometry": {"type": "Point", "coordinates": [9.0707947, 47.2794185]}}, {"type": "Feature", "properties": {"name": "AUQChtA4ShI5mE9A73HiXw", "score": 28}, "geometry": {"type": "Point", "coordinates": [9.0710226, 47.279534]}}, {"type": "Feature", "properties": {"name": "m2NeZTAfgk4RwTPikmvZIQ", "score": 39}, "geometry": {"type": "Point", "coordinates": [9.0712585, 47.2796518]}}, {"type": "Feature", "properties": {"name": "myoYgCd1Rtgww4_HpdhqJg", "score": 41}, "geometry": {"type": "Point", "coordinates": [9.0715023, 47.2797614]}}, {"type": "Feature", "properties": {"name": "rIs7el2ltfRiJFxNPXRuyA", "score": 37}, "geometry": {"type": "Point", "coordinates": [9.0717471, 47.2798605]}}, {"type": "Feature", "properties": {"name": "Mf3obSfW3e7h_F19RTVGpA", "score": 28}, "geometry": {"type": "Point", "coordinates": [9.0719877, 47.2799585]}}, {"type": "Feature", "properties": {"name": "JesEvHbyVNQYHUGE6yZX0A", "score": 17}, "geometry": {"type": "Point", "coordinates": [9.0722323, 47.2800607]}}, {"type": "Feature", "properties": {"name": "UtP2mksFu2hZpAqT52cLxw", "score": 37}, "geometry": {"type": "Point", "coordinates": [9.0724736, 47.280167]}}, {"type": "Feature", "properties": {"name": "IDeaW6bhy9Hbg79WVV7n8A", "score": 16}, "geometry": {"type": "Point", "coordinates": [9.072704, 47.2802667]}}, {"type": "Feature", "properties": {"name": "KLxXC4uO5shCCV3z55HCKg", "score": 37}, "geometry": {"type": "Point", "coordinates": [9.0729463, 47.2803659]}}, {"type": "Feature", "properties": {"name": "Nc4XKY-_JghJIWHK6SLCEw", "score": 36}, "geometry": {"type": "Point", "coordinates": [9.0732001, 47.280465]}}, {"type": "Feature", "properties": {"name": "TwxpU0h1mepJUAUOXfsrgA", "score": 37}, "geometry": {"type": "Point", "coordinates": [9.0734357, 47.2805626]}}, {"type": "Feature", "properties": {"name": "oh2MjPhI1foiUtutxvPXpg", "score": 24}, "geometry": {"type": "Point", "coordinates": [9.0736825, 47.2806644]}}, {"type": "Feature", "properties": {"name": "rTXJHuoRUnprg4TAHlgC9Q", "score": 1}, "geometry": {"type": "Point", "coordinates": [9.0739393, 47.2807703]}}, {"type": "Feature", "properties": {"name": "wCg5i-hczmvW2b94Ko0EiQ", "score": 19}, "geometry": {"type": "Point", "coordinates": [9.0741895, 47.2808727]}}, {"type": "Feature", "properties": {"name": "E1NXRyLRXwyi7PM4QTlCdw", "score": 18}, "geometry": {"type": "Point", "coordinates": [9.0744243, 47.2809666]}}, {"type": "Feature", "properties": {"name": "marYUh3gyaHP54b4NU3D3g", "score": 34}, "geometry": {"type": "Point", "coordinates": [9.0746552, 47.2810584]}}, {"type": "Feature", "properties": {"name": "kMfEeL3vx2rcGz856dxt-Q", "score": 31}, "geometry": {"type": "Point", "coordinates": [9.0748701, 47.281144]}}, {"type": "Feature", "properties": {"name": "zcnkOSJud-28ffnGBOUgBQ", "score": 20}, "geometry": {"type": "Point", "coordinates": [9.0750734, 47.2812247]}}, {"type": "Feature", "properties": {"name": "LS-BMV_6CJhI6ta2JhBspA", "score": 30}, "geometry": {"type": "Point", "coordinates": [9.0752635, 47.2813023]}}, {"type": "Feature", "properties": {"name": "yK9sD0pKXv_Ikn8z3FBSBA", "score": 19}, "geometry": {"type": "Point", "coordinates": [9.0754387, 47.2813761]}}, {"type": "Feature", "properties": {"name": "kA0BlEvYxpG4xn9Op4WaQw", "score": 18}, "geometry": {"type": "Point", "coordinates": [9.0756101, 47.2814492]}}, {"type": "Feature", "properties": {"name": "GTpSQH39DmLXbo7-5Y8Tpw", "score": 31}, "geometry": {"type": "Point", "coordinates": [9.0757619, 47.2815123]}}, {"type": "Feature", "properties": {"name": "v40LGFHJ35EKyhFI2laCnw", "score": 28}, "geometry": {"type": "Point", "coordinates": [9.0759248, 47.2815795]}}, {"type": "Feature", "properties": {"name": "y9efoyYs8ylIZbaVWNGXqg", "score": 29}, "geometry": {"type": "Point", "coordinates": [9.0760894, 47.2816478]}}, {"type": "Feature", "properties": {"name": "ykudOtNn4-BhpissFqvcAw", "score": 28}, "geometry": {"type": "Point", "coordinates": [9.0762273, 47.2817052]}}, {"type": "Feature", "properties": {"name": "afXhWLkNBorRler5QchxUA", "score": 40}, "geometry": {"type": "Point", "coordinates": [9.0763505, 47.2817589]}}, {"type": "Feature", "properties": {"name": "RnQinjjj8jykSSshtUaQKg", "score": 39}, "geometry": {"type": "Point", "coordinates": [9.0764635, 47.2818085]}}, {"type": "Feature", "properties": {"name": "pqY-RscQS6SuGN15f1Giig", "score": 30}, "geometry": {"type": "Point", "coordinates": [9.0765777, 47.2818609]}}, {"type": "Feature", "properties": {"name": "E4RMcw-R4u_JcV1GhF9P2A", "score": 31}, "geometry": {"type": "Point", "coordinates": [9.0766821, 47.2819192]}}, {"type": "Feature", "properties": {"name": "ETixPqp6NCe6OnxcZE4RTg", "score": 21}, "geometry": {"type": "Point", "coordinates": [9.0767796, 47.2819866]}}, {"type": "Feature", "properties": {"name": "xGD17XLzBsb-Q8KWOrOnkw", "score": 41}, "geometry": {"type": "Point", "coordinates": [9.076863, 47.2820602]}}, {"type": "Feature", "properties": {"name": "vJZHHjqxYbWIcx8BYVl3pg", "score": 33}, "geometry": {"type": "Point", "coordinates": [9.0769482, 47.2821471]}}, {"type": "Feature", "properties": {"name": "PnqCo20R6944c1c_lRhRxQ", "score": 37}, "geometry": {"type": "Point", "coordinates": [9.0770344, 47.2822386]}}, {"type": "Feature", "properties": {"name": "5weWN4Sap5azqpjRfau9IQ", "score": 47}, "geometry": {"type": "Point", "coordinates": [9.0771178, 47.2823364]}}, {"type": "Feature", "properties": {"name": "QdFbPkroMnPLG2QfcAO3yA", "score": 39}, "geometry": {"type": "Point", "coordinates": [9.0771997, 47.2824383]}}, {"type": "Feature", "properties": {"name": "cF8uejmnXowJPNaMSl-WgQ", "score": 32}, "geometry": {"type": "Point", "coordinates": [9.0772916, 47.2825544]}}, {"type": "Feature", "properties": {"name": "Rma9vco7Abi7aIHcZkKjoQ", "score": 27}, "geometry": {"type": "Point", "coordinates": [9.0774084, 47.2826926]}}, {"type": "Feature", "properties": {"name": "OxfNwjc12rePLXVEAwZtyw", "score": 21}, "geometry": {"type": "Point", "coordinates": [9.077553, 47.2828537]}}, {"type": "Feature", "properties": {"name": "d0r5q0AGNgrqeEmAVokQ2A", "score": 28}, "geometry": {"type": "Point", "coordinates": [9.0777131, 47.2830134]}}, {"type": "Feature", "properties": {"name": "Oz932w26mfGlQReJeT_BvA", "score": 37}, "geometry": {"type": "Point", "coordinates": [9.0778798, 47.2831637]}}, {"type": "Feature", "properties": {"name": "TSLW10nvLHQostaYYtN-cg", "score": 29}, "geometry": {"type": "Point", "coordinates": [9.0780524, 47.283301]}}, {"type": "Feature", "properties": {"name": "zXxs5qj8FKwPy99dAZ0Dtw", "score": 36}, "geometry": {"type": "Point", "coordinates": [9.0782496, 47.2834371]}}, {"type": "Feature", "properties": {"name": "ZMsQbcS0WV0IMwBIAU8Oew", "score": 37}, "geometry": {"type": "Point", "coordinates": [9.0784691, 47.2835722]}}, {"type": "Feature", "properties": {"name": "LaFKTxmj3g80jExEbzNw_w", "score": 24}, "geometry": {"type": "Point", "coordinates": [9.0786986, 47.2836935]}}, {"type": "Feature", "properties": {"name": "pgTBMVdtesHSXmOy_-ZxcA", "score": 14}, "geometry": {"type": "Point", "coordinates": [9.0789265, 47.2838096]}}, {"type": "Feature", "properties": {"name": "y13kYPtwjjSptOCUL5fX4Q", "score": 34}, "geometry": {"type": "Point", "coordinates": [9.0791622, 47.2839253]}}, {"type": "Feature", "properties": {"name": "88Q8Vmha5tgwWvtQZwjrLg", "score": 46}, "geometry": {"type": "Point", "coordinates": [9.079382, 47.2840351]}}, {"type": "Feature", "properties": {"name": "rRKnwJkRyjCskrJEXS5dEA", "score": 35}, "geometry": {"type": "Point", "coordinates": [9.0796027, 47.2841459]}}, {"type": "Feature", "properties": {"name": "k8Ni9f4Xs1M04JoazA8_yg", "score": 32}, "geometry": {"type": "Point", "coordinates": [9.0798259, 47.2842605]}}, {"type": "Feature", "properties": {"name": "NEjp8saTZZ_tKFWZRF7aQw", "score": 41}, "geometry": {"type": "Point", "coordinates": [9.0800426, 47.2843755]}}, {"type": "Feature", "properties": {"name": "6MjNWuRpeHnuDdm5vMf18g", "score": 45}, "geometry": {"type": "Point", "coordinates": [9.0802534, 47.2844891]}}, {"type": "Feature", "properties": {"name": "suWoVIBbVywh7pWCr2bffw", "score": 38}, "geometry": {"type": "Point", "coordinates": [9.0804618, 47.2846068]}}, {"type": "Feature", "properties": {"name": "xf5sfsiR_TVTTTQoYmHGEQ", "score": 12}, "geometry": {"type": "Point", "coordinates": [9.0806437, 47.284717]}}, {"type": "Feature", "properties": {"name": "3qGygvRBOQpFLQk381RmmQ", "score": 13}, "geometry": {"type": "Point", "coordinates": [9.0808202, 47.2848224]}}, {"type": "Feature", "properties": {"name": "KZy75sUGyvhtsfwmlpMcFQ", "score": 37}, "geometry": {"type": "Point", "coordinates": [9.0810224, 47.2849228]}}, {"type": "Feature", "properties": {"name": "KbQGEq4cMb3pkzjkqqnPMQ", "score": 37}, "geometry": {"type": "Point", "coordinates": [9.0812444, 47.2850172]}}, {"type": "Feature", "properties": {"name": "m1VK0iHUx90pn6JnvRjWuw", "score": 31}, "geometry": {"type": "Point", "coordinates": [9.081468, 47.2850834]}}, {"type": "Feature", "properties": {"name": "H8YmdKxuOVdYjYF9ydNgcg", "score": 20}, "geometry": {"type": "Point", "coordinates": [9.0817113, 47.2851437]}}, {"type": "Feature", "properties": {"name": "JSnZ6iZh-0x2LXZRUDl0Mw", "score": 28}, "geometry": {"type": "Point", "coordinates": [9.0819424, 47.2852019]}}, {"type": "Feature", "properties": {"name": "YO3TetiWl0ZNgCkACFwN6w", "score": 29}, "geometry": {"type": "Point", "coordinates": [9.0821736, 47.2852606]}}, {"type": "Feature", "properties": {"name": "UzJ5_mTje6jEOkgVajEoMA", "score": 44}, "geometry": {"type": "Point", "coordinates": [9.0823953, 47.2853186]}}, {"type": "Feature", "properties": {"name": "E0audcc4TEAEfn_jy3QfcQ", "score": 36}, "geometry": {"type": "Point", "coordinates": [9.0826172, 47.2853824]}}, {"type": "Feature", "properties": {"name": "l5i-sAb4JylZMvo-QaQ3gg", "score": 21}, "geometry": {"type": "Point", "coordinates": [9.0828251, 47.285448]}}, {"type": "Feature", "properties": {"name": "oaUvb-qDCgEmc7sY0cttMw", "score": 9}, "geometry": {"type": "Point", "coordinates": [9.0829994, 47.2855148]}}, {"type": "Feature", "properties": {"name": "9TvhmkOMO9pcEsymdEpOQQ", "score": 12}, "geometry": {"type": "Point", "coordinates": [9.0831382, 47.2855974]}}, {"type": "Feature", "properties": {"name": "BbKs730Utop9JbbuPbq_lQ", "score": 32}, "geometry": {"type": "Point", "coordinates": [9.0832562, 47.2857097]}}, {"type": "Feature", "properties": {"name": "iu8gHXTEJhRKdvBmMjCl-Q", "score": 38}, "geometry": {"type": "Point", "coordinates": [9.083329, 47.2858464]}}, {"type": "Feature", "properties": {"name": "wS9R37rwghRqXa6vwS7iiQ", "score": 38}, "geometry": {"type": "Point", "coordinates": [9.0833619, 47.2860047]}}, {"type": "Feature", "properties": {"name": "1XTnzZ5cAoWAQa0EhY3uog", "score": 36}, "geometry": {"type": "Point", "coordinates": [9.0833731, 47.286178]}}, {"type": "Feature", "properties": {"name": "nayMyoAlu-lwmIl53o5hmw", "score": 14}, "geometry": {"type": "Point", "coordinates": [9.0833937, 47.2863561]}}, {"type": "Feature", "properties": {"name": "iLLic8wXYULoDAQIQegHHQ", "score": 30}, "geometry": {"type": "Point", "coordinates": [9.0834189, 47.2865306]}}, {"type": "Feature", "properties": {"name": "I7nVnbiHmYhHTM_Aam0y4Q", "score": 35}, "geometry": {"type": "Point", "coordinates": [9.0834441, 47.2867149]}}, {"type": "Feature", "properties": {"name": "uIfmZvlgGDadMq9G5gQo3w", "score": 38}, "geometry": {"type": "Point", "coordinates": [9.0834566, 47.2869007]}}, {"type": "Feature", "properties": {"name": "vy6FYMt2vFUw5pc1Ce-7bQ", "score": 9}, "geometry": {"type": "Point", "coordinates": [9.0834663, 47.2870859]}}, {"type": "Feature", "properties": {"name": "hO4PDAqfkLKYcKK2CFGBqg", "score": 27}, "geometry": {"type": "Point", "coordinates": [9.0834726, 47.2872633]}}, {"type": "Feature", "properties": {"name": "p3K0x6m8HGZsGIzbIQXQtw", "score": 13}, "geometry": {"type": "Point", "coordinates": [9.0834815, 47.2874489]}}, {"type": "Feature", "properties": {"name": "GqU0vHUD2nZ0grsNxRCb0g", "score": 41}, "geometry": {"type": "Point", "coordinates": [9.0835113, 47.287635]}}, {"type": "Feature", "properties": {"name": "wBUEZECANSiNxmsKLpMWsA", "score": 33}, "geometry": {"type": "Point", "coordinates": [9.0835808, 47.2878263]}}, {"type": "Feature", "properties": {"name": "3QEUlY4Rq5Ux0BdpXv-K9Q", "score": 35}, "geometry": {"type": "Point", "coordinates": [9.0836928, 47.2880087]}}, {"type": "Feature", "properties": {"name": "REhrw2lhJaLTS9TngfnU-g", "score": 28}, "geometry": {"type": "Point", "coordinates": [9.0838429, 47.2881906]}}, {"type": "Feature", "properties": {"name": "uqtbrajJwEidWXzkDDieaw", "score": 37}, "geometry": {"type": "Point", "coordinates": [9.0840046, 47.2883669]}}, {"type": "Feature", "properties": {"name": "iQ3e9zPxCKlerDpkW6l7lw", "score": 22}, "geometry": {"type": "Point", "coordinates": [9.0841652, 47.288536]}}, {"type": "Feature", "properties": {"name": "32Zj7I8NRL7XwflFvL6o8A", "score": 37}, "geometry": {"type": "Point", "coordinates": [9.0843236, 47.2887086]}}, {"type": "Feature", "properties": {"name": "Lgeg4GXySSDQfU6Twt2SnA", "score": 9}, "geometry": {"type": "Point", "coordinates": [9.0844737, 47.2888874]}}, {"type": "Feature", "properties": {"name": "Fu6tiYunus9ZxGI9fFZNPg", "score": 37}, "geometry": {"type": "Point", "coordinates": [9.0846078, 47.2890592]}}, {"type": "Feature", "properties": {"name": "_0tvFTRcVKMg0WKcPPmfEw", "score": 30}, "geometry": {"type": "Point", "coordinates": [9.0847356, 47.2892448]}}, {"type": "Feature", "properties": {"name": "l6d5xc7G1JsJyH86T3ZsNg", "score": 26}, "geometry": {"type": "Point", "coordinates": [9.084841, 47.2894231]}}, {"type": "Feature", "properties": {"name": "rl5rAkrVAzxxakXtA0LvIw", "score": 12}, "geometry": {"type": "Point", "coordinates": [9.0849325, 47.2896067]}}, {"type": "Feature", "properties": {"name": "Pk6YJVVSpbaMK6cnnEVnlA", "score": 8}, "geometry": {"type": "Point", "coordinates": [9.0850172, 47.2897994]}}, {"type": "Feature", "properties": {"name": "yuqMiJuWcKdM40i5f3yH6g", "score": 24}, "geometry": {"type": "Point", "coordinates": [9.0850895, 47.2899609]}}, {"type": "Feature", "properties": {"name": "DP80cpOV7U9cKvwtMn_bdQ", "score": 12}, "geometry": {"type": "Point", "coordinates": [9.0851647, 47.2901262]}}, {"type": "Feature", "properties": {"name": "ftSIF4TlhnbGfvXqhp4ldw", "score": 15}, "geometry": {"type": "Point", "coordinates": [9.0852163, 47.2902902]}}, {"type": "Feature", "properties": {"name": "VvF7Q_oHqmGE7DW_5VZz6w", "score": 13}, "geometry": {"type": "Point", "coordinates": [9.0852345, 47.2904603]}}, {"type": "Feature", "properties": {"name": "i5e4M6ivqtUaNx6WKmpZ_A", "score": 41}, "geometry": {"type": "Point", "coordinates": [9.0852382, 47.2906368]}}, {"type": "Feature", "properties": {"name": "w36hBMW6a2Y5dSzCCox0mw", "score": 9}, "geometry": {"type": "Point", "coordinates": [9.0852394, 47.290831]}}, {"type": "Feature", "properties": {"name": "BMg1ROOVbTbSGqKmZTsHdA", "score": 11}, "geometry": {"type": "Point", "coordinates": [9.0852419, 47.2910362]}}, {"type": "Feature", "properties": {"name": "Bug7ti3M2XA8TtIOqARY9A", "score": 9}, "geometry": {"type": "Point", "coordinates": [9.0852464, 47.291227]}}, {"type": "Feature", "properties": {"name": "BCStqOIlmhKdx-rym-eHYw", "score": 33}, "geometry": {"type": "Point", "coordinates": [9.0852569, 47.2914192]}}, {"type": "Feature", "properties": {"name": "izzfqsdphUuTWMOVQ0qXOQ", "score": 10}, "geometry": {"type": "Point", "coordinates": [9.0852849, 47.2916175]}}, {"type": "Feature", "properties": {"name": "P2Dh8--vTPj8CxIvNx4UYA", "score": 9}, "geometry": {"type": "Point", "coordinates": [9.0853224, 47.2918242]}}, {"type": "Feature", "properties": {"name": "gQdbMmiPQIa1BDG9nj-myQ", "score": 38}, "geometry": {"type": "Point", "coordinates": [9.0853583, 47.292004]}}, {"type": "Feature", "properties": {"name": "MVApWLVGDyOoqIWnRgrnRw", "score": 5}, "geometry": {"type": "Point", "coordinates": [9.0853916, 47.2921825]}}, {"type": "Feature", "properties": {"name": "IDLw_iSoPdBX8fcXIrl9xQ", "score": 12}, "geometry": {"type": "Point", "coordinates": [9.0854212, 47.292343]}}, {"type": "Feature", "properties": {"name": "UgfDHat_RVD2WgTUuoJ3pQ", "score": 26}, "geometry": {"type": "Point", "coordinates": [9.0854296, 47.2925018]}}, {"type": "Feature", "properties": {"name": "WK0QOvbowbkTDFYiHY0fNA", "score": 12}, "geometry": {"type": "Point", "coordinates": [9.0853973, 47.2926597]}}, {"type": "Feature", "properties": {"name": "609bFZsRrV4A25rDl4Q3ew", "score": 13}, "geometry": {"type": "Point", "coordinates": [9.085318, 47.2928181]}}, {"type": "Feature", "properties": {"name": "s5o6rK2zTOmu_WTgL74eoA", "score": 10}, "geometry": {"type": "Point", "coordinates": [9.0852038, 47.2929728]}}, {"type": "Feature", "properties": {"name": "qugtX4iPQPktj_-5s25Ghw", "score": 11}, "geometry": {"type": "Point", "coordinates": [9.0850791, 47.2931392]}}, {"type": "Feature", "properties": {"name": "_DWfogrp7CruUP-QzO0_lQ", "score": 10}, "geometry": {"type": "Point", "coordinates": [9.084979, 47.293299]}}, {"type": "Feature", "properties": {"name": "Y5fNVgnowjjObWhnckq2Gw", "score": 13}, "geometry": {"type": "Point", "coordinates": [9.0848909, 47.2934673]}}, {"type": "Feature", "properties": {"name": "V6Ivxzuyhnwgh-PDghJ5Dw", "score": 12}, "geometry": {"type": "Point", "coordinates": [9.0848109, 47.2936265]}}, {"type": "Feature", "properties": {"name": "f1m84BihhgLsHPwsyTc4NA", "score": 24}, "geometry": {"type": "Point", "coordinates": [9.0847295, 47.2937864]}}, {"type": "Feature", "properties": {"name": "QfFEEDgK54eSxbYxF2ilrw", "score": 12}, "geometry": {"type": "Point", "coordinates": [9.0846346, 47.2939282]}}, {"type": "Feature", "properties": {"name": "73fSDbSrfEr8saRqsuTtsQ", "score": 19}, "geometry": {"type": "Point", "coordinates": [9.084522, 47.2940558]}}, {"type": "Feature", "properties": {"name": "mJ9zwmnfrJvcvr5cPvHyBw", "score": 12}, "geometry": {"type": "Point", "coordinates": [9.0844003, 47.2941837]}}, {"type": "Feature", "properties": {"name": "8c5JamcmtAGYZfqF5ilqNg", "score": 3}, "geometry": {"type": "Point", "coordinates": [9.0842806, 47.2943087]}}, {"type": "Feature", "properties": {"name": "_wzZeZCIlibWj-RGUB_S2Q", "score": 26}, "geometry": {"type": "Point", "coordinates": [9.084164, 47.2944189]}}, {"type": "Feature", "properties": {"name": "h0Xh6YTbaytRPq32g1t8UA", "score": 11}, "geometry": {"type": "Point", "coordinates": [9.0840596, 47.2945274]}}, {"type": "Feature", "properties": {"name": "Jv9__xXhCZHoC0WrJDsZdg", "score": 6}, "geometry": {"type": "Point", "coordinates": [9.0839916, 47.2946282]}}, {"type": "Feature", "properties": {"name": "gI6tYQSemC-wTcYA_233yQ", "score": 31}, "geometry": {"type": "Point", "coordinates": [9.083975, 47.2947216]}}, {"type": "Feature", "properties": {"name": "Lg1fwQeU8j3L_Q268Mf1Rg", "score": 29}, "geometry": {"type": "Point", "coordinates": [9.0840106, 47.2948104]}}, {"type": "Feature", "properties": {"name": "pI0gwXTvYKIcBLkqudSN7w", "score": 20}, "geometry": {"type": "Point", "coordinates": [9.0840964, 47.2948933]}}, {"type": "Feature", "properties": {"name": "EBDpWZnZjNzwqnv97Mo7PQ", "score": 24}, "geometry": {"type": "Point", "coordinates": [9.0842323, 47.2949615]}}, {"type": "Feature", "properties": {"name": "uDOgDq1NOztIklO_kcTRCg", "score": 34}, "geometry": {"type": "Point", "coordinates": [9.0843984, 47.2950131]}}, {"type": "Feature", "properties": {"name": "IR0BbmKV26uhj1wysV61ZQ", "score": 39}, "geometry": {"type": "Point", "coordinates": [9.0845607, 47.295067]}}, {"type": "Feature", "properties": {"name": "DGievFYPZGamto1Bpdk8lQ", "score": 22}, "geometry": {"type": "Point", "coordinates": [9.0847331, 47.2951247]}}, {"type": "Feature", "properties": {"name": "r3j9JvU45odTcfN-ugnv3A", "score": 22}, "geometry": {"type": "Point", "coordinates": [9.0848905, 47.2951828]}}, {"type": "Feature", "properties": {"name": "4dsOHthle6dF8o7ZHwPGIg", "score": 19}, "geometry": {"type": "Point", "coordinates": [9.0850413, 47.2952427]}}, {"type": "Feature", "properties": {"name": "_inQlhEvK9mAwQQS0lLMVA", "score": 16}, "geometry": {"type": "Point", "coordinates": [9.0852001, 47.2953048]}}, {"type": "Feature", "properties": {"name": "f_PqS0Ha8KK1Bit9xgRRCA", "score": 23}, "geometry": {"type": "Point", "coordinates": [9.0853555, 47.2953643]}}, {"type": "Feature", "properties": {"name": "ysYnxJOa2pqe1eZpvoBaJw", "score": 21}, "geometry": {"type": "Point", "coordinates": [9.0855048, 47.2954234]}}, {"type": "Feature", "properties": {"name": "iwU0rFO631hxoZpYeRiLyQ", "score": 20}, "geometry": {"type": "Point", "coordinates": [9.0856369, 47.2954827]}}, {"type": "Feature", "properties": {"name": "SrgUEZy4976hRQJlfizgCA", "score": 28}, "geometry": {"type": "Point", "coordinates": [9.0857672, 47.2955563]}}, {"type": "Feature", "properties": {"name": "-FbOtc-mZaF4jlpbLe4luA", "score": 47}, "geometry": {"type": "Point", "coordinates": [9.085873, 47.2956277]}}, {"type": "Feature", "properties": {"name": "s88hszRxMOjkzTSrKUK5JQ", "score": 30}, "geometry": {"type": "Point", "coordinates": [9.0859712, 47.2957051]}}, {"type": "Feature", "properties": {"name": "0vQll48SKHLPCHVV5ewPew", "score": 25}, "geometry": {"type": "Point", "coordinates": [9.0860552, 47.2957856]}}, {"type": "Feature", "properties": {"name": "mrTR1OSO04gCQSputXUkAg", "score": 5}, "geometry": {"type": "Point", "coordinates": [9.0861335, 47.2958729]}}, {"type": "Feature", "properties": {"name": "rxJIX2et70GV0_CPwxO4qA", "score": 15}, "geometry": {"type": "Point", "coordinates": [9.086202, 47.2959642]}}, {"type": "Feature", "properties": {"name": "0ThdnL7_yhHnYjvgkhfg7g", "score": 16}, "geometry": {"type": "Point", "coordinates": [9.0862563, 47.2960593]}}, {"type": "Feature", "properties": {"name": "wGMlsyFDCTyhaGkgfBkSXw", "score": 20}, "geometry": {"type": "Point", "coordinates": [9.0862977, 47.2961529]}}, {"type": "Feature", "properties": {"name": "A7oyznDHzHQslPT-7YRQyQ", "score": 21}, "geometry": {"type": "Point", "coordinates": [9.0863298, 47.2962559]}}, {"type": "Feature", "properties": {"name": "rjKNferUgAkP_qhMNp8crQ", "score": 18}, "geometry": {"type": "Point", "coordinates": [9.0863581, 47.296371]}}, {"type": "Feature", "properties": {"name": "6rlaJKRSClHrPTbev8imIw", "score": 33}, "geometry": {"type": "Point", "coordinates": [9.0863804, 47.2964811]}}, {"type": "Feature", "properties": {"name": "r0Npu1gDwpsY4bqN7tSZBA", "score": 21}, "geometry": {"type": "Point", "coordinates": [9.0863967, 47.2965879]}}, {"type": "Feature", "properties": {"name": "8soTK2rXjx4-fnLlhsFKkg", "score": 21}, "geometry": {"type": "Point", "coordinates": [9.0864096, 47.2967043]}}, {"type": "Feature", "properties": {"name": "QxkRSFHE9HJ1YUq-ZaWUKw", "score": 19}, "geometry": {"type": "Point", "coordinates": [9.0864131, 47.2968245]}}, {"type": "Feature", "properties": {"name": "3IZAKpZrlQMpUKD2DG4png", "score": 1}, "geometry": {"type": "Point", "coordinates": [9.0864033, 47.296942]}}, {"type": "Feature", "properties": {"name": "IXvRUQOWsoE3cxi1tH-exQ", "score": 9}, "geometry": {"type": "Point", "coordinates": [9.0863882, 47.2970644]}}, {"type": "Feature", "properties": {"name": "5yL_ZctkSyJ49iAFMlPiTQ", "score": 27}, "geometry": {"type": "Point", "coordinates": [9.0863709, 47.2971818]}}, {"type": "Feature", "properties": {"name": "7UjxkINRYUgnb5nRbtXbpA", "score": 15}, "geometry": {"type": "Point", "coordinates": [9.0863508, 47.2972941]}}, {"type": "Feature", "properties": {"name": "D6WBaeOJbzYy4HR3YRRH4A", "score": 7}, "geometry": {"type": "Point", "coordinates": [9.086318, 47.2974188]}}, {"type": "Feature", "properties": {"name": "kbl6D35EMtqj8nGVkKLHFA", "score": 21}, "geometry": {"type": "Point", "coordinates": [9.0862798, 47.2975608]}}, {"type": "Feature", "properties": {"name": "F_INA4qgDu8vAkjGGcQIFw", "score": 7}, "geometry": {"type": "Point", "coordinates": [9.0862477, 47.2976949]}}, {"type": "Feature", "properties": {"name": "LIp3rILHK7JzX3BB5x_OYA", "score": 11}, "geometry": {"type": "Point", "coordinates": [9.0862126, 47.2978292]}}, {"type": "Feature", "properties": {"name": "LpZm40_pH_pHlVSKTDQkoQ", "score": 19}, "geometry": {"type": "Point", "coordinates": [9.0861787, 47.2979611]}}, {"type": "Feature", "properties": {"name": "uwQrUNi-DGZKlvyL5afrlQ", "score": 21}, "geometry": {"type": "Point", "coordinates": [9.0861491, 47.2980826]}}, {"type": "Feature", "properties": {"name": "8SIHdYfmYCUiW4etQoQqEg", "score": 27}, "geometry": {"type": "Point", "coordinates": [9.086123, 47.2981979]}}, {"type": "Feature", "properties": {"name": "Ps-bWsMA_Uk9nswcCRz7iA", "score": 34}, "geometry": {"type": "Point", "coordinates": [9.0860934, 47.2983148]}}, {"type": "Feature", "properties": {"name": "m3-rdOISVLuFnrLl1pl03w", "score": 23}, "geometry": {"type": "Point", "coordinates": [9.0860601, 47.2984227]}}, {"type": "Feature", "properties": {"name": "oFYqz4S4DJ4PZzKM2wKiMQ", "score": 15}, "geometry": {"type": "Point", "coordinates": [9.0860289, 47.2985379]}}, {"type": "Feature", "properties": {"name": "RH_KX3wLv_Mbm_DBuT9M-Q", "score": 21}, "geometry": {"type": "Point", "coordinates": [9.0860061, 47.2986533]}}, {"type": "Feature", "properties": {"name": "FcjPDV2WXAei7Cn22zPw-w", "score": 13}, "geometry": {"type": "Point", "coordinates": [9.0859842, 47.2987638]}}, {"type": "Feature", "properties": {"name": "MYExZyn0DDr0A6h5RU8gnw", "score": 20}, "geometry": {"type": "Point", "coordinates": [9.0859601, 47.2988875]}}, {"type": "Feature", "properties": {"name": "-TWJwEK0hKJ17QP20cn1lQ", "score": 17}, "geometry": {"type": "Point", "coordinates": [9.0859395, 47.2990072]}}, {"type": "Feature", "properties": {"name": "DSuMTApk67UEnpgm7GF03w", "score": 18}, "geometry": {"type": "Point", "coordinates": [9.0859195, 47.2991213]}}, {"type": "Feature", "properties": {"name": "iYrYxP5ibDYvM0tNMibskQ", "score": 11}, "geometry": {"type": "Point", "coordinates": [9.0858944, 47.299238]}}, {"type": "Feature", "properties": {"name": "-V1gqadjKJoJ4KEPQ9NqVw", "score": 17}, "geometry": {"type": "Point", "coordinates": [9.0858431, 47.2993477]}}, {"type": "Feature", "properties": {"name": "yrCKRFpamB-B5JSQSCC2yA", "score": 22}, "geometry": {"type": "Point", "coordinates": [9.0857742, 47.2994626]}}, {"type": "Feature", "properties": {"name": "mY29n3yU0KvpahaRWOcu8w", "score": 12}, "geometry": {"type": "Point", "coordinates": [9.0856814, 47.2995756]}}, {"type": "Feature", "properties": {"name": "konW5v5WWoyCjUe6i0UxJA", "score": 29}, "geometry": {"type": "Point", "coordinates": [9.0855743, 47.2996867]}}, {"type": "Feature", "properties": {"name": "swRZKkQa2knXpBfpnibSvQ", "score": 29}, "geometry": {"type": "Point", "coordinates": [9.0854551, 47.2998009]}}, {"type": "Feature", "properties": {"name": "HkUMCFUT8_wDjdfTuWgWkQ", "score": 15}, "geometry": {"type": "Point", "coordinates": [9.0853484, 47.2999081]}}, {"type": "Feature", "properties": {"name": "RuMCaAZ0c2dervQ6rzAqpw", "score": 24}, "geometry": {"type": "Point", "coordinates": [9.0852481, 47.3000136]}}, {"type": "Feature", "properties": {"name": "_qMr7j89pmzKjAMYOEtJSg", "score": 36}, "geometry": {"type": "Point", "coordinates": [9.0851569, 47.3001233]}}, {"type": "Feature", "properties": {"name": "1TIdScnDYXkDQn2E8lPw2A", "score": 15}, "geometry": {"type": "Point", "coordinates": [9.0850817, 47.3002314]}}, {"type": "Feature", "properties": {"name": "UvWiTjLMEjWSNu04e382FQ", "score": 12}, "geometry": {"type": "Point", "coordinates": [9.0850101, 47.3003428]}}, {"type": "Feature", "properties": {"name": "MVN6gSxCcG4urfqYwPAk8Q", "score": 11}, "geometry": {"type": "Point", "coordinates": [9.084932, 47.3004592]}}, {"type": "Feature", "properties": {"name": "1KLZpjI2yoE2_UNO1-FMQw", "score": 15}, "geometry": {"type": "Point", "coordinates": [9.0848353, 47.3005697]}}, {"type": "Feature", "properties": {"name": "nOozEI3hQA5u4aQehe0PcQ", "score": 11}, "geometry": {"type": "Point", "coordinates": [9.084729, 47.3006849]}}, {"type": "Feature", "properties": {"name": "UTFu9tGJHdNxGkhRcYHwKg", "score": 8}, "geometry": {"type": "Point", "coordinates": [9.0846125, 47.3007942]}}, {"type": "Feature", "properties": {"name": "CAhfiFnNA8NG6TqOexIqiw", "score": 24}, "geometry": {"type": "Point", "coordinates": [9.0844859, 47.3009056]}}, {"type": "Feature", "properties": {"name": "rulabQT9WjQtnTbgQeJ84Q", "score": 25}, "geometry": {"type": "Point", "coordinates": [9.0843573, 47.3010081]}}, {"type": "Feature", "properties": {"name": "Gl3NDajLjgS9Gle-7WeoIQ", "score": 34}, "geometry": {"type": "Point", "coordinates": [9.0842191, 47.3010999]}}, {"type": "Feature", "properties": {"name": "_CX7hxbQTWKwOfDWITw0fA", "score": 20}, "geometry": {"type": "Point", "coordinates": [9.0840811, 47.301179]}}, {"type": "Feature", "properties": {"name": "wRU_XvBeU-caxHbS2GkxpA", "score": 18}, "geometry": {"type": "Point", "coordinates": [9.0839446, 47.3012466]}}, {"type": "Feature", "properties": {"name": "deAFvRzre-xy58ffZs8xrQ", "score": 17}, "geometry": {"type": "Point", "coordinates": [9.0838174, 47.3013036]}}, {"type": "Feature", "properties": {"name": "HTGy88uCCoBMAMRhnyuZew", "score": 23}, "geometry": {"type": "Point", "coordinates": [9.0837022, 47.3013586]}}, {"type": "Feature", "properties": {"name": "fFqthrvxyL-PEvjVqgw_wA", "score": 13}, "geometry": {"type": "Point", "coordinates": [9.083603, 47.3014129]}}, {"type": "Feature", "properties": {"name": "DBUoIkmGYn6ZJGHrQNOswQ", "score": 26}, "geometry": {"type": "Point", "coordinates": [9.0835316, 47.301469]}}, {"type": "Feature", "properties": {"name": "D7gQplhr12EXD-i5mivECA", "score": 7}, "geometry": {"type": "Point", "coordinates": [9.0834905, 47.3015323]}}, {"type": "Feature", "properties": {"name": "uFJ9iXgBdYB6Ah9nS8JbFQ", "score": 9}, "geometry": {"type": "Point", "coordinates": [9.0834861, 47.3016125]}}, {"type": "Feature", "properties": {"name": "xyaX3Jpn2O1sh0gwFhtnOQ", "score": 16}, "geometry": {"type": "Point", "coordinates": [9.0835153, 47.3016945]}}, {"type": "Feature", "properties": {"name": "CyHqw2C1PzQ8IMKJjJrR6g", "score": 13}, "geometry": {"type": "Point", "coordinates": [9.0835877, 47.3017751]}}, {"type": "Feature", "properties": {"name": "zV_8lBRa5fDwj2Az7Kfojw", "score": 1}, "geometry": {"type": "Point", "coordinates": [9.0837052, 47.3018501]}}, {"type": "Feature", "properties": {"name": "6i2WMrlqQh5Rt6L834opsg", "score": 3}, "geometry": {"type": "Point", "coordinates": [9.0838548, 47.3019089]}}, {"type": "Feature", "properties": {"name": "-cvh9ZzdDraLYb6znUFcDw", "score": 13}, "geometry": {"type": "Point", "coordinates": [9.0840105, 47.3019409]}}, {"type": "Feature", "properties": {"name": "Pctc7EgoVcaYUjbyWucNEg", "score": 12}, "geometry": {"type": "Point", "coordinates": [9.0841652, 47.3019457]}}, {"type": "Feature", "properties": {"name": "iq6tN1QVxxs1zWrvX_RJtw", "score": 7}, "geometry": {"type": "Point", "coordinates": [9.0843079, 47.3019187]}}, {"type": "Feature", "properties": {"name": "dr5CTNEmAfFKhBG_h3-bIQ", "score": 3}, "geometry": {"type": "Point", "coordinates": [9.084438, 47.3018612]}}, {"type": "Feature", "properties": {"name": "0j-PmnJCAYKsptey8WGkrg", "score": 8}, "geometry": {"type": "Point", "coordinates": [9.0845525, 47.301775]}}, {"type": "Feature", "properties": {"name": "63oEP_UNOkrt4JiPEhFX7Q", "score": 2}, "geometry": {"type": "Point", "coordinates": [9.0846457, 47.3016722]}}, {"type": "Feature", "properties": {"name": "Zk15FQl_6p2c3smPVjQJPw", "score": 5}, "geometry": {"type": "Point", "coordinates": [9.0847402, 47.3015568]}}, {"type": "Feature", "properties": {"name": "1R5a6TcK6VPRkY8-8X-CCA", "score": 7}, "geometry": {"type": "Point", "coordinates": [9.0848439, 47.3014307]}}, {"type": "Feature", "properties": {"name": "w2U0J9aZo4m8T9RwS_g0mw", "score": 14}, "geometry": {"type": "Point", "coordinates": [9.0849452, 47.30131]}}, {"type": "Feature", "properties": {"name": "IYZATZVe6GIADWQeW7k6tg", "score": 23}, "geometry": {"type": "Point", "coordinates": [9.0850487, 47.3011853]}}, {"type": "Feature", "properties": {"name": "Xod6kXwHIq7EVGs8To9zBg", "score": 15}, "geometry": {"type": "Point", "coordinates": [9.0851436, 47.3010671]}}, {"type": "Feature", "properties": {"name": "ru-lpxUnykm-6fnRRkprdA", "score": 25}, "geometry": {"type": "Point", "coordinates": [9.0852466, 47.3009461]}}, {"type": "Feature", "properties": {"name": "Wct6aVkfu5Ohc0jmZ3FD4A", "score": 13}, "geometry": {"type": "Point", "coordinates": [9.0853507, 47.300835]}}, {"type": "Feature", "properties": {"name": "K2K6YDY9xEiitKNB6BvyBg", "score": 9}, "geometry": {"type": "Point", "coordinates": [9.0854634, 47.3007201]}}, {"type": "Feature", "properties": {"name": "uVPghf6aKrk5e5H-s4khfw", "score": 7}, "geometry": {"type": "Point", "coordinates": [9.0855674, 47.3006176]}}, {"type": "Feature", "properties": {"name": "garA6aFE2jPX8aJjoXdjRg", "score": 8}, "geometry": {"type": "Point", "coordinates": [9.085669, 47.3005182]}}, {"type": "Feature", "properties": {"name": "cdHXSkYQ92DlwWh7h16o4A", "score": 16}, "geometry": {"type": "Point", "coordinates": [9.0857697, 47.300423]}}, {"type": "Feature", "properties": {"name": "dQNWwAvde4FDyZY6yxLLng", "score": 26}, "geometry": {"type": "Point", "coordinates": [9.0858666, 47.3003338]}}, {"type": "Feature", "properties": {"name": "jvOwNoGspLJa2mSmKkzW-Q", "score": 15}, "geometry": {"type": "Point", "coordinates": [9.0859519, 47.3002563]}}, {"type": "Feature", "properties": {"name": "pJdwHx9Qi8k7ERTJ9Cdzzw", "score": 29}, "geometry": {"type": "Point", "coordinates": [9.0860371, 47.3001862]}}, {"type": "Feature", "properties": {"name": "DcRLfcPab5dk_zhEdsla2A", "score": 19}, "geometry": {"type": "Point", "coordinates": [9.0861229, 47.300133]}}, {"type": "Feature", "properties": {"name": "zidGKEmp0_Tm_lOw7AZ3Uw", "score": 25}, "geometry": {"type": "Point", "coordinates": [9.0862147, 47.3000973]}}, {"type": "Feature", "properties": {"name": "tK44fCAQ0b1JjVM8xFGGow", "score": 21}, "geometry": {"type": "Point", "coordinates": [9.0863078, 47.3000732]}}, {"type": "Feature", "properties": {"name": "qmCHvBBwgDlntPMm4xCfBA", "score": 5}, "geometry": {"type": "Point", "coordinates": [9.0863986, 47.3000485]}}, {"type": "Feature", "properties": {"name": "YThNg6tEcH2NdUE1LZIXPQ", "score": 17}, "geometry": {"type": "Point", "coordinates": [9.0864847, 47.3000203]}}, {"type": "Feature", "properties": {"name": "gcw5_s7KtBqLOCCCmQGy_A", "score": 24}, "geometry": {"type": "Point", "coordinates": [9.0865704, 47.299983]}}, {"type": "Feature", "properties": {"name": "j-O0P_4OUhZ6wYVpTvp80w", "score": 20}, "geometry": {"type": "Point", "coordinates": [9.0866575, 47.2999316]}}, {"type": "Feature", "properties": {"name": "pFLWta1CSvp872AJaw3_xg", "score": 12}, "geometry": {"type": "Point", "coordinates": [9.0867299, 47.2998712]}}, {"type": "Feature", "properties": {"name": "7Lea9KW5EFdvSu8lAOIS1g", "score": 22}, "geometry": {"type": "Point", "coordinates": [9.0867927, 47.2997939]}}, {"type": "Feature", "properties": {"name": "0LCF_nPf7Zj1pK8XrC0Q8g", "score": 19}, "geometry": {"type": "Point", "coordinates": [9.0868519, 47.2997066]}}, {"type": "Feature", "properties": {"name": "oPy_5lzhOkdKsjDy-OIKvQ", "score": 26}, "geometry": {"type": "Point", "coordinates": [9.0869144, 47.2996126]}}, {"type": "Feature", "properties": {"name": "Am7N7dEH9-SEUhIkK_GdIA", "score": 25}, "geometry": {"type": "Point", "coordinates": [9.0869801, 47.2995102]}}, {"type": "Feature", "properties": {"name": "3LID6o8xaXTUN6ESYt3dfg", "score": 12}, "geometry": {"type": "Point", "coordinates": [9.0870402, 47.2994168]}}, {"type": "Feature", "properties": {"name": "D3orH0pPQTtGGpdKBGB9Xg", "score": 20}, "geometry": {"type": "Point", "coordinates": [9.0870988, 47.2993244]}}, {"type": "Feature", "properties": {"name": "C8bnbEOpy_NI1-SdvcEONQ", "score": 7}, "geometry": {"type": "Point", "coordinates": [9.0871604, 47.2992241]}}, {"type": "Feature", "properties": {"name": "W7TNMVLfZsQhTlS1gkKAkQ", "score": 3}, "geometry": {"type": "Point", "coordinates": [9.0872216, 47.2991279]}}, {"type": "Feature", "properties": {"name": "MQ387INUmpTLublhvIudUA", "score": 7}, "geometry": {"type": "Point", "coordinates": [9.0872915, 47.2990218]}}, {"type": "Feature", "properties": {"name": "5IQOZwhjbF504URy5OWr2g", "score": 12}, "geometry": {"type": "Point", "coordinates": [9.0873588, 47.2989198]}}, {"type": "Feature", "properties": {"name": "ytRWub-IWG0aBrqvih_OTQ", "score": 13}, "geometry": {"type": "Point", "coordinates": [9.0874263, 47.2988206]}}, {"type": "Feature", "properties": {"name": "lod3Ebs7Zz2iK5t8e7fzUg", "score": 12}, "geometry": {"type": "Point", "coordinates": [9.0874982, 47.2987157]}}, {"type": "Feature", "properties": {"name": "qkupR2H92-xAiwcFTvIPig", "score": 7}, "geometry": {"type": "Point", "coordinates": [9.0875844, 47.2986085]}}, {"type": "Feature", "properties": {"name": "x7BaCgBzkqBjJoC8mrnTyQ", "score": 10}, "geometry": {"type": "Point", "coordinates": [9.0876671, 47.2985054]}}, {"type": "Feature", "properties": {"name": "_QLNA6XKll_ZD9ikWJAhzA", "score": 13}, "geometry": {"type": "Point", "coordinates": [9.0877471, 47.2984058]}}, {"type": "Feature", "properties": {"name": "3Mp8EIdwQoJXXXvwMbHSRQ", "score": 12}, "geometry": {"type": "Point", "coordinates": [9.0878293, 47.2983041]}}, {"type": "Feature", "properties": {"name": "CkALnc6fEXVxFld-hM9Z0w", "score": 9}, "geometry": {"type": "Point", "coordinates": [9.0879084, 47.2982057]}}, {"type": "Feature", "properties": {"name": "kQZX2ODkPr_G4n7Yn7LMwQ", "score": 19}, "geometry": {"type": "Point", "coordinates": [9.0879813, 47.2981146]}}, {"type": "Feature", "properties": {"name": "stGTtr1tv1gSyhaZxQV4Yw", "score": 20}, "geometry": {"type": "Point", "coordinates": [9.0880565, 47.2980204]}}, {"type": "Feature", "properties": {"name": "HN2G0S2LNEGmRFqrztj_SA", "score": 21}, "geometry": {"type": "Point", "coordinates": [9.0881256, 47.2979341]}}, {"type": "Feature", "properties": {"name": "QNe2MreTN-nLyd6JaJloZA", "score": 18}, "geometry": {"type": "Point", "coordinates": [9.088197, 47.2978441]}}, {"type": "Feature", "properties": {"name": "OEFZQhiC6ichhXInPP5XJQ", "score": 12}, "geometry": {"type": "Point", "coordinates": [9.0882684, 47.2977565]}}, {"type": "Feature", "properties": {"name": "cxX2BVzFJRKA67rqw8N_rw", "score": 9}, "geometry": {"type": "Point", "coordinates": [9.0883581, 47.2976684]}}, {"type": "Feature", "properties": {"name": "ovMgEgHaZBATk9tD7-_EeQ", "score": 10}, "geometry": {"type": "Point", "coordinates": [9.0884634, 47.2975989]}}, {"type": "Feature", "properties": {"name": "IWY5ziFWMlziPsC94tVfuQ", "score": 28}, "geometry": {"type": "Point", "coordinates": [9.0885971, 47.2975488]}}, {"type": "Feature", "properties": {"name": "w8Gn4ZjiwbIDrPK9-khudg", "score": 40}, "geometry": {"type": "Point", "coordinates": [9.0887499, 47.2975224]}}, {"type": "Feature", "properties": {"name": "EVOoYMuraeSo1YsdmiiOeg", "score": 36}, "geometry": {"type": "Point", "coordinates": [9.0889165, 47.2975163]}}, {"type": "Feature", "properties": {"name": "a3WZUcW8TP-0dcgPIUPK0g", "score": 7}, "geometry": {"type": "Point", "coordinates": [9.0890859, 47.2975147]}}, {"type": "Feature", "properties": {"name": "Wbo7HrG3qOURv5IL_Z_QtQ", "score": 23}, "geometry": {"type": "Point", "coordinates": [9.0892572, 47.2975149]}}, {"type": "Feature", "properties": {"name": "mZGIaiPzWrsv17Lgw9kYgg", "score": 18}, "geometry": {"type": "Point", "coordinates": [9.0894198, 47.2975157]}}, {"type": "Feature", "properties": {"name": "UwhBBIPcusBgwlsiDLY4jg", "score": 18}, "geometry": {"type": "Point", "coordinates": [9.0895765, 47.2975176]}}, {"type": "Feature", "properties": {"name": "gAfxq4UKml4wyacgYdquUQ", "score": 18}, "geometry": {"type": "Point", "coordinates": [9.0897428, 47.2975187]}}, {"type": "Feature", "properties": {"name": "NAPhNXl_U6cHKdHPitWwIQ", "score": 20}, "geometry": {"type": "Point", "coordinates": [9.0899454, 47.2975198]}}, {"type": "Feature", "properties": {"name": "tXv-PeIP9_7Vd9_0TrN-_w", "score": 19}, "geometry": {"type": "Point", "coordinates": [9.0901202, 47.2975304]}}, {"type": "Feature", "properties": {"name": "PCgIUqxb6Bm10k_I9rSyzw", "score": 32}, "geometry": {"type": "Point", "coordinates": [9.0902925, 47.2975522]}}, {"type": "Feature", "properties": {"name": "C7RULhC4J4e4CgCXptApPw", "score": 29}, "geometry": {"type": "Point", "coordinates": [9.0904492, 47.2975838]}}, {"type": "Feature", "properties": {"name": "IDxcexQIm75DxPhUXAnFaw", "score": 15}, "geometry": {"type": "Point", "coordinates": [9.0906075, 47.2976267]}}, {"type": "Feature", "properties": {"name": "SMZUZVOUX5kiuS524uq3pg", "score": 14}, "geometry": {"type": "Point", "coordinates": [9.0907549, 47.2976801]}}, {"type": "Feature", "properties": {"name": "VaxSFPRdxkS4kcxTRnV1cQ", "score": 22}, "geometry": {"type": "Point", "coordinates": [9.0908904, 47.2977394]}}, {"type": "Feature", "properties": {"name": "kbenUJ_Hm5K5FsvudzM5aw", "score": 11}, "geometry": {"type": "Point", "coordinates": [9.0910242, 47.2978026]}}, {"type": "Feature", "properties": {"name": "BKFdgS4QcHxM0J3jjqMTIw", "score": 16}, "geometry": {"type": "Point", "coordinates": [9.0911387, 47.2978588]}}, {"type": "Feature", "properties": {"name": "MjcmO44KYWmRS8uWJRG58g", "score": 6}, "geometry": {"type": "Point", "coordinates": [9.0912393, 47.2979092]}}, {"type": "Feature", "properties": {"name": "wQhiHm_QRB2yRx48Gz_6yg", "score": 20}, "geometry": {"type": "Point", "coordinates": [9.0913177, 47.2979472]}}, {"type": "Feature", "properties": {"name": "jCQQJIgzi_vkNSpuhXcP_Q", "score": 10}, "geometry": {"type": "Point", "coordinates": [9.0913941, 47.2979734]}}, {"type": "Feature", "properties": {"name": "Me804CSVNgK_vnfEwluxhg", "score": 26}, "geometry": {"type": "Point", "coordinates": [9.0914788, 47.2979787]}}, {"type": "Feature", "properties": {"name": "sXcZiwj2IU-7PrA49IVqTQ", "score": 40}, "geometry": {"type": "Point", "coordinates": [9.0915499, 47.2979665]}}, {"type": "Feature", "properties": {"name": "gTw5hvgRrrdHHgmdNwSF0g", "score": 22}, "geometry": {"type": "Point", "coordinates": [9.0916021, 47.2979419]}}, {"type": "Feature", "properties": {"name": "LNPU-3HTJ2oBizEt25-9WQ", "score": 28}, "geometry": {"type": "Point", "coordinates": [9.0916726, 47.2978853]}}, {"type": "Feature", "properties": {"name": "yxAhgC5luKaDKrdBXL1JxA", "score": 36}, "geometry": {"type": "Point", "coordinates": [9.0917451, 47.2978211]}}, {"type": "Feature", "properties": {"name": "QWLtx84C07kkdZtfkNdbXw", "score": 24}, "geometry": {"type": "Point", "coordinates": [9.091835, 47.2977393]}}, {"type": "Feature", "properties": {"name": "5OYlrNPfahar57uHmf1xHg", "score": 19}, "geometry": {"type": "Point", "coordinates": [9.0919242, 47.2976541]}}, {"type": "Feature", "properties": {"name": "y-npmZRrNaknNL5Ug25kkw", "score": 10}, "geometry": {"type": "Point", "coordinates": [9.0920104, 47.2975717]}}, {"type": "Feature", "properties": {"name": "B-G70i-YZMXcNvtxQamBMw", "score": 11}, "geometry": {"type": "Point", "coordinates": [9.0920983, 47.2974883]}}, {"type": "Feature", "properties": {"name": "pFtzV2DL5l7OY8KFUoyEvg", "score": 19}, "geometry": {"type": "Point", "coordinates": [9.0921962, 47.2973987]}}, {"type": "Feature", "properties": {"name": "PEfjkbjGrqVDV06LwBxcUQ", "score": 21}, "geometry": {"type": "Point", "coordinates": [9.092301, 47.2973016]}}, {"type": "Feature", "properties": {"name": "pY8Tds4JLLnHmUS8R92y-Q", "score": 25}, "geometry": {"type": "Point", "coordinates": [9.0923945, 47.2972109]}}, {"type": "Feature", "properties": {"name": "1bMQewEdR8NHObgSOr23sg", "score": 15}, "geometry": {"type": "Point", "coordinates": [9.0924956, 47.2971138]}}, {"type": "Feature", "properties": {"name": "cnjQMUowbtZDjqGUUOi5OA", "score": 18}, "geometry": {"type": "Point", "coordinates": [9.0925965, 47.2970162]}}, {"type": "Feature", "properties": {"name": "Fyz5_fxJAxoGWUmmCiAsZw", "score": 12}, "geometry": {"type": "Point", "coordinates": [9.0926984, 47.2969163]}}, {"type": "Feature", "properties": {"name": "dsZ1cJMcfZKwoOKDJDs4bQ", "score": 14}, "geometry": {"type": "Point", "coordinates": [9.0927972, 47.2968189]}}, {"type": "Feature", "properties": {"name": "zaL6wrVNxbc99nD2DLUDLg", "score": 20}, "geometry": {"type": "Point", "coordinates": [9.0928955, 47.2967208]}}, {"type": "Feature", "properties": {"name": "umd6xZjVZ9oBUDD6jc6I1A", "score": 19}, "geometry": {"type": "Point", "coordinates": [9.0929918, 47.2966254]}}, {"type": "Feature", "properties": {"name": "J929NDTiPVGZnsOqCriwbw", "score": 20}, "geometry": {"type": "Point", "coordinates": [9.0930907, 47.2965263]}}, {"type": "Feature", "properties": {"name": "88dHHatdciQnIghoYaQhsQ", "score": 22}, "geometry": {"type": "Point", "coordinates": [9.0931884, 47.2964296]}}, {"type": "Feature", "properties": {"name": "JlJqbKGdqr11ylXDTcYmmA", "score": 10}, "geometry": {"type": "Point", "coordinates": [9.0932888, 47.2963316]}}, {"type": "Feature", "properties": {"name": "rVxMHab-tl6YvlpXtUbGrw", "score": 12}, "geometry": {"type": "Point", "coordinates": [9.0933934, 47.2962303]}}, {"type": "Feature", "properties": {"name": "WqG8kiEXXl07nlmEHjr1wg", "score": 11}, "geometry": {"type": "Point", "coordinates": [9.0934936, 47.2961323]}}, {"type": "Feature", "properties": {"name": "bKLTzxpDCpeJwLmJbIGVXg", "score": 9}, "geometry": {"type": "Point", "coordinates": [9.0936, 47.2960288]}}, {"type": "Feature", "properties": {"name": "lc57LimPsNX0LT-JBcAPfg", "score": 0}, "geometry": {"type": "Point", "coordinates": [9.0937079, 47.2959281]}}, {"type": "Feature", "properties": {"name": "LU1Bt2J-9-VNqTz8eZTfUw", "score": 12}, "geometry": {"type": "Point", "coordinates": [9.0938231, 47.2958347]}}, {"type": "Feature", "properties": {"name": "RoYHkx401cNVMgZvwroBKA", "score": 6}, "geometry": {"type": "Point", "coordinates": [9.0939348, 47.2957457]}}, {"type": "Feature", "properties": {"name": "EuhY-hs816XBdoyztYOdug", "score": 20}, "geometry": {"type": "Point", "coordinates": [9.0940582, 47.2956471]}}, {"type": "Feature", "properties": {"name": "XcljtE91kDkwLJBnVN-Tpw", "score": 2}, "geometry": {"type": "Point", "coordinates": [9.0941709, 47.295556]}}, {"type": "Feature", "properties": {"name": "HtGCbSabM14_44QDEGPAJg", "score": 12}, "geometry": {"type": "Point", "coordinates": [9.0942875, 47.2954607]}}, {"type": "Feature", "properties": {"name": "0bwtECuOgsv1msVqyO4hHQ", "score": 8}, "geometry": {"type": "Point", "coordinates": [9.0944034, 47.2953654]}}, {"type": "Feature", "properties": {"name": "aq7uLpLJ650ezLGdRGt3yw", "score": 11}, "geometry": {"type": "Point", "coordinates": [9.0945271, 47.2952716]}}, {"type": "Feature", "properties": {"name": "neKspYxTswTl50Wfd9JFvA", "score": 14}, "geometry": {"type": "Point", "coordinates": [9.0946573, 47.2951838]}}, {"type": "Feature", "properties": {"name": "9hhSXtiN8HvCwNWeY2P6-w", "score": 12}, "geometry": {"type": "Point", "coordinates": [9.0948018, 47.2950922]}}, {"type": "Feature", "properties": {"name": "W6RIY6X3SGdUuZhnVpbSMQ", "score": 35}, "geometry": {"type": "Point", "coordinates": [9.0949424, 47.2950038]}}, {"type": "Feature", "properties": {"name": "_g8XbjEfBbNWqf31KqZ2Ag", "score": 12}, "geometry": {"type": "Point", "coordinates": [9.0950954, 47.2949143]}}, {"type": "Feature", "properties": {"name": "SJ1Ld1pibux-9hO2a75NeA", "score": 6}, "geometry": {"type": "Point", "coordinates": [9.0952456, 47.2948192]}}, {"type": "Feature", "properties": {"name": "gDJBhl_LTq6-iSltxlY2xg", "score": 12}, "geometry": {"type": "Point", "coordinates": [9.0953873, 47.2947222]}}, {"type": "Feature", "properties": {"name": "CSnHCGq20ahu-Ffqfj_Cwg", "score": 9}, "geometry": {"type": "Point", "coordinates": [9.0955341, 47.2946214]}}, {"type": "Feature", "properties": {"name": "4e--NrQNpBws7q6I1kGjWw", "score": 12}, "geometry": {"type": "Point", "coordinates": [9.0956691, 47.2945258]}}, {"type": "Feature", "properties": {"name": "5jiD0XZoXPCIq52xh9J0PA", "score": 13}, "geometry": {"type": "Point", "coordinates": [9.0958011, 47.2944299]}}, {"type": "Feature", "properties": {"name": "uPgodOV7BAIB7vzIGiWYUQ", "score": 9}, "geometry": {"type": "Point", "coordinates": [9.0959317, 47.294337]}}, {"type": "Feature", "properties": {"name": "qY2veLMqtDN6I_FQcsOw3Q", "score": 13}, "geometry": {"type": "Point", "coordinates": [9.0960629, 47.2942396]}}, {"type": "Feature", "properties": {"name": "qBLQAY48LtRhETb3hXuedg", "score": 8}, "geometry": {"type": "Point", "coordinates": [9.0961957, 47.2941358]}}, {"type": "Feature", "properties": {"name": "vyWcdk_8VrJcNRccbOWiww", "score": 11}, "geometry": {"type": "Point", "coordinates": [9.0963155, 47.2940306]}}, {"type": "Feature", "properties": {"name": "FDByIjgS1wCfMonJlLnXnw", "score": 20}, "geometry": {"type": "Point", "coordinates": [9.0964181, 47.2939226]}}, {"type": "Feature", "properties": {"name": "wAOePHxeNLRUx_rSNRjYXg", "score": 23}, "geometry": {"type": "Point", "coordinates": [9.0965091, 47.2938181]}}, {"type": "Feature", "properties": {"name": "QLMCT-21-Iz1VJ4ASEAM7g", "score": 12}, "geometry": {"type": "Point", "coordinates": [9.096593, 47.2937015]}}, {"type": "Feature", "properties": {"name": "ra6ksWYrRCoiapilONPjGg", "score": 13}, "geometry": {"type": "Point", "coordinates": [9.0966567, 47.2935823]}}, {"type": "Feature", "properties": {"name": "rembMpVq8KtEYK_pGAlI8Q", "score": 35}, "geometry": {"type": "Point", "coordinates": [9.0967155, 47.2934577]}}, {"type": "Feature", "properties": {"name": "gJH3Np9ChtDfEDpZQWDW6A", "score": 28}, "geometry": {"type": "Point", "coordinates": [9.096772, 47.2933379]}}, {"type": "Feature", "properties": {"name": "HSC2MGT7r8ruoHzec7R8yg", "score": 4}, "geometry": {"type": "Point", "coordinates": [9.0968255, 47.2932193]}}, {"type": "Feature", "properties": {"name": "8k15bValEMmyQ6ZiGPZhCw", "score": 13}, "geometry": {"type": "Point", "coordinates": [9.0968765, 47.2931055]}}, {"type": "Feature", "properties": {"name": "Z02vFhYl9pSU0tILP37GQg", "score": 17}, "geometry": {"type": "Point", "coordinates": [9.0969305, 47.2929963]}}, {"type": "Feature", "properties": {"name": "4YfdAXH1oPU5VJxoKcfeIg", "score": 16}, "geometry": {"type": "Point", "coordinates": [9.0969852, 47.2928831]}}, {"type": "Feature", "properties": {"name": "sp__wgid5lalPBf6hUIn2g", "score": 12}, "geometry": {"type": "Point", "coordinates": [9.0970399, 47.2927705]}}, {"type": "Feature", "properties": {"name": "WyZGoMA690AnjH9dhshIxg", "score": 13}, "geometry": {"type": "Point", "coordinates": [9.0970964, 47.2926618]}}, {"type": "Feature", "properties": {"name": "kdJRKmmFQVIXC1OsXRlpzg", "score": 6}, "geometry": {"type": "Point", "coordinates": [9.0971538, 47.2925455]}}, {"type": "Feature", "properties": {"name": "DnW3QSwSQZ6lpCB71a6TJQ", "score": 14}, "geometry": {"type": "Point", "coordinates": [9.0972072, 47.2924218]}}, {"type": "Feature", "properties": {"name": "rJELl354CewhMIzohHbQBw", "score": 3}, "geometry": {"type": "Point", "coordinates": [9.0972575, 47.2923053]}}, {"type": "Feature", "properties": {"name": "wJbH2zAG3aOn3gXreVmvQA", "score": 9}, "geometry": {"type": "Point", "coordinates": [9.097309, 47.2921882]}}, {"type": "Feature", "properties": {"name": "rLV22OTRb3OENSnEY5NEJg", "score": 24}, "geometry": {"type": "Point", "coordinates": [9.0973602, 47.2920712]}}, {"type": "Feature", "properties": {"name": "Q45d_lSWag9t4ANo5o7GQA", "score": 25}, "geometry": {"type": "Point", "coordinates": [9.0974191, 47.2919551]}}, {"type": "Feature", "properties": {"name": "BcYKcqntLpf-R_0sv8xbEg", "score": 37}, "geometry": {"type": "Point", "coordinates": [9.0974945, 47.2918429]}}, {"type": "Feature", "properties": {"name": "_f3PF_rtm8IsfOev3l96mQ", "score": 31}, "geometry": {"type": "Point", "coordinates": [9.0975817, 47.2917316]}}, {"type": "Feature", "properties": {"name": "ivSA2GfuhBITcRiWb5RrLA", "score": 11}, "geometry": {"type": "Point", "coordinates": [9.0976854, 47.2916202]}}, {"type": "Feature", "properties": {"name": "ta240E9EwwgCskaCmERCSg", "score": 7}, "geometry": {"type": "Point", "coordinates": [9.097801, 47.2915211]}}, {"type": "Feature", "properties": {"name": "gsny73KKjzN6ge57kNbCVg", "score": 2}, "geometry": {"type": "Point", "coordinates": [9.0979423, 47.2914287]}}, {"type": "Feature", "properties": {"name": "EX9ZiN0OTChij8hYACaGFA", "score": 13}, "geometry": {"type": "Point", "coordinates": [9.0980813, 47.2913399]}}, {"type": "Feature", "properties": {"name": "3WpAseGyfIrl9sJtrhqgUw", "score": 11}, "geometry": {"type": "Point", "coordinates": [9.0982209, 47.291254]}}, {"type": "Feature", "properties": {"name": "73gUx6alKbEJMmTc4EHBOg", "score": 11}, "geometry": {"type": "Point", "coordinates": [9.0983614, 47.2911655]}}, {"type": "Feature", "properties": {"name": "tyKk8PipCXRqETPgzSMy0Q", "score": 20}, "geometry": {"type": "Point", "coordinates": [9.0985025, 47.2910768]}}, {"type": "Feature", "properties": {"name": "as0mHMUlDh2vlM7VNP0l8w", "score": 16}, "geometry": {"type": "Point", "coordinates": [9.0986379, 47.2909923]}}, {"type": "Feature", "properties": {"name": "TCGwfySLsu3pjaTgQk9lIA", "score": 37}, "geometry": {"type": "Point", "coordinates": [9.0987794, 47.2908988]}}, {"type": "Feature", "properties": {"name": "47q5HSlAWaIAr6y46z6u7w", "score": 29}, "geometry": {"type": "Point", "coordinates": [9.0989189, 47.2908023]}}, {"type": "Feature", "properties": {"name": "GG8whXl_KUyneXHf2QShwA", "score": 14}, "geometry": {"type": "Point", "coordinates": [9.0990513, 47.2907115]}}, {"type": "Feature", "properties": {"name": "5b_RdGgezrU1k5kYH2ETwA", "score": 12}, "geometry": {"type": "Point", "coordinates": [9.0991881, 47.2906223]}}, {"type": "Feature", "properties": {"name": "WF8JpjtHDog1vbj37LUy1Q", "score": 12}, "geometry": {"type": "Point", "coordinates": [9.0993304, 47.2905316]}}, {"type": "Feature", "properties": {"name": "s9doy9NTjVJtOsgfeMRlCw", "score": 22}, "geometry": {"type": "Point", "coordinates": [9.0994735, 47.2904385]}}, {"type": "Feature", "properties": {"name": "WaWUZNkEq6Ujcm0DkWgYaw", "score": 10}, "geometry": {"type": "Point", "coordinates": [9.0996107, 47.2903416]}}, {"type": "Feature", "properties": {"name": "EDfVe-nJLmLbf5DFK3S59w", "score": 41}, "geometry": {"type": "Point", "coordinates": [9.099737, 47.2902318]}}, {"type": "Feature", "properties": {"name": "Hg8zIxi9h81uYNqHVxcygA", "score": 42}, "geometry": {"type": "Point", "coordinates": [9.0998532, 47.290119]}}, {"type": "Feature", "properties": {"name": "uUWg-BLwsC7OjwKwI3KejQ", "score": 18}, "geometry": {"type": "Point", "coordinates": [9.0999632, 47.2900015]}}, {"type": "Feature", "properties": {"name": "KkSP8mp1A95vp6e462ZLCg", "score": 28}, "geometry": {"type": "Point", "coordinates": [9.1000716, 47.2898862]}}, {"type": "Feature", "properties": {"name": "mSzhrJR593DGyPAwl6H0Og", "score": 11}, "geometry": {"type": "Point", "coordinates": [9.100179, 47.2897768]}}, {"type": "Feature", "properties": {"name": "pLQ3bS32hwpRYw9CG8OuIQ", "score": 37}, "geometry": {"type": "Point", "coordinates": [9.1002867, 47.2896574]}}, {"type": "Feature", "properties": {"name": "LA6P6-R2cvU02QUchisWxQ", "score": 18}, "geometry": {"type": "Point", "coordinates": [9.100386, 47.2895347]}}, {"type": "Feature", "properties": {"name": "B-8fBl5-gE1NPdizrpDfvQ", "score": 21}, "geometry": {"type": "Point", "coordinates": [9.1004888, 47.2894195]}}, {"type": "Feature", "properties": {"name": "Or6IoprY_cF26MrZHDAK3g", "score": 10}, "geometry": {"type": "Point", "coordinates": [9.1005893, 47.289305]}}, {"type": "Feature", "properties": {"name": "DxMc0qc8JWS8-GNcqoCd3Q", "score": 12}, "geometry": {"type": "Point", "coordinates": [9.1006843, 47.2891921]}}, {"type": "Feature", "properties": {"name": "yZ7CHYE8o-anBAxvutZnGg", "score": 13}, "geometry": {"type": "Point", "coordinates": [9.1007751, 47.2890705]}}, {"type": "Feature", "properties": {"name": "P-fQKlExXtSXtIUdw72dew", "score": 30}, "geometry": {"type": "Point", "coordinates": [9.1008527, 47.2889493]}}, {"type": "Feature", "properties": {"name": "KYlx4LdhAbvylViFdhIuDA", "score": 23}, "geometry": {"type": "Point", "coordinates": [9.1009152, 47.2888267]}}, {"type": "Feature", "properties": {"name": "p8MdOK4O27vZmYe-NldeGA", "score": 26}, "geometry": {"type": "Point", "coordinates": [9.1009615, 47.2887022]}}, {"type": "Feature", "properties": {"name": "O27SmnUGtf5lJWH8rao8Vw", "score": 39}, "geometry": {"type": "Point", "coordinates": [9.1010095, 47.2885821]}}, {"type": "Feature", "properties": {"name": "NEiVZef75D8WHA_kUdsKog", "score": 8}, "geometry": {"type": "Point", "coordinates": [9.1010556, 47.2884601]}}, {"type": "Feature", "properties": {"name": "335nE6N_SQMWHtRdiFnccw", "score": 11}, "geometry": {"type": "Point", "coordinates": [9.1011012, 47.2883397]}}, {"type": "Feature", "properties": {"name": "Cw_8NeDjWme6Z2TMPhapyw", "score": 8}, "geometry": {"type": "Point", "coordinates": [9.101136, 47.2882135]}}, {"type": "Feature", "properties": {"name": "498MbecgNu57f1_QiZI3Ew", "score": 21}, "geometry": {"type": "Point", "coordinates": [9.1011591, 47.2880793]}}, {"type": "Feature", "properties": {"name": "8nELSrS1mEtt_q8I-AQK3A", "score": 9}, "geometry": {"type": "Point", "coordinates": [9.1011797, 47.2879453]}}, {"type": "Feature", "properties": {"name": "uVg_jXHdrdvcTvXScy_lJg", "score": 23}, "geometry": {"type": "Point", "coordinates": [9.1011966, 47.2878165]}}, {"type": "Feature", "properties": {"name": "Exni0FgYPg7P9i1YRMEMsQ", "score": 17}, "geometry": {"type": "Point", "coordinates": [9.1011951, 47.2876833]}}, {"type": "Feature", "properties": {"name": "uANqfeCg9k632we-KrgJJQ", "score": 20}, "geometry": {"type": "Point", "coordinates": [9.1011858, 47.2875592]}}, {"type": "Feature", "properties": {"name": "m8i3H_A4JqFWyXn-e0Rsmw", "score": 28}, "geometry": {"type": "Point", "coordinates": [9.1011713, 47.2874292]}}, {"type": "Feature", "properties": {"name": "jcQROng7xinzv8iAvRXEhw", "score": 25}, "geometry": {"type": "Point", "coordinates": [9.101151, 47.2872963]}}, {"type": "Feature", "properties": {"name": "qhKzIle4xOZ8L9iWmG6mJg", "score": 12}, "geometry": {"type": "Point", "coordinates": [9.1011297, 47.2871671]}}, {"type": "Feature", "properties": {"name": "vYkZJ1bDeSZvcvUvbJIVYA", "score": 21}, "geometry": {"type": "Point", "coordinates": [9.1011045, 47.2870283]}}, {"type": "Feature", "properties": {"name": "x_xUr9nJnNzNJK7Q3TnCsw", "score": 21}, "geometry": {"type": "Point", "coordinates": [9.1010797, 47.2868895]}}, {"type": "Feature", "properties": {"name": "_jUFnWzyHNGNPSBpToJT-A", "score": 20}, "geometry": {"type": "Point", "coordinates": [9.1010578, 47.2867601]}}, {"type": "Feature", "properties": {"name": "uy-j8gepRfZD__H4wvdmGA", "score": 14}, "geometry": {"type": "Point", "coordinates": [9.1010422, 47.2866255]}}, {"type": "Feature", "properties": {"name": "gR3vNkUWSlaSpM6OdBgvXA", "score": 19}, "geometry": {"type": "Point", "coordinates": [9.1010363, 47.2864869]}}, {"type": "Feature", "properties": {"name": "m7Ddxgtc6sEfYrlxVQ65UQ", "score": 10}, "geometry": {"type": "Point", "coordinates": [9.1010445, 47.2863488]}}, {"type": "Feature", "properties": {"name": "OYjoteAsyAwxXo2IPw7X1Q", "score": 13}, "geometry": {"type": "Point", "coordinates": [9.1010615, 47.2862113]}}, {"type": "Feature", "properties": {"name": "uuG8D5SZQr4L8f8Qmn61WQ", "score": 17}, "geometry": {"type": "Point", "coordinates": [9.1010889, 47.2860771]}}, {"type": "Feature", "properties": {"name": "xfXBdYjrZ5IULVJKFT8Crw", "score": 2}, "geometry": {"type": "Point", "coordinates": [9.1011299, 47.2859429]}}, {"type": "Feature", "properties": {"name": "nKUF9na4_rGls5AHmNVeIw", "score": 12}, "geometry": {"type": "Point", "coordinates": [9.101182, 47.2858047]}}, {"type": "Feature", "properties": {"name": "EY-EnjYEsrGgdneUVOkN2w", "score": 10}, "geometry": {"type": "Point", "coordinates": [9.1012389, 47.2856665]}}, {"type": "Feature", "properties": {"name": "-dGtrDS2r33Id0xQ83V7yQ", "score": 7}, "geometry": {"type": "Point", "coordinates": [9.1012929, 47.2855308]}}, {"type": "Feature", "properties": {"name": "uf40VjCsDtc3CAAzlHYSow", "score": 17}, "geometry": {"type": "Point", "coordinates": [9.1013471, 47.2853933]}}, {"type": "Feature", "properties": {"name": "iq91uYSnESzCi0sxN170Cw", "score": 32}, "geometry": {"type": "Point", "coordinates": [9.101408, 47.2852416]}}, {"type": "Feature", "properties": {"name": "jx2eWNURBS-2XdGjJsx79A", "score": 27}, "geometry": {"type": "Point", "coordinates": [9.1014633, 47.2851092]}}, {"type": "Feature", "properties": {"name": "I_1AHSlitBfulmLhOtu4Dw", "score": 8}, "geometry": {"type": "Point", "coordinates": [9.1015181, 47.2849729]}}, {"type": "Feature", "properties": {"name": "PjqX0PfVY7Y6nEFP6A1cMw", "score": 7}, "geometry": {"type": "Point", "coordinates": [9.1015691, 47.2848425]}}, {"type": "Feature", "properties": {"name": "V8D3HPs0U3op8Bc75UO2Bg", "score": 24}, "geometry": {"type": "Point", "coordinates": [9.1016175, 47.2847093]}}, {"type": "Feature", "properties": {"name": "7wvvOwiA71geMLnc-am1EA", "score": 41}, "geometry": {"type": "Point", "coordinates": [9.1016567, 47.2845777]}}, {"type": "Feature", "properties": {"name": "A-CKZ_T8N1XilCa7EW3DVg", "score": 6}, "geometry": {"type": "Point", "coordinates": [9.1016682, 47.2844477]}}, {"type": "Feature", "properties": {"name": "kplBLbx3iSBeBUbFSSQeQw", "score": 29}, "geometry": {"type": "Point", "coordinates": [9.1016678, 47.2843195]}}, {"type": "Feature", "properties": {"name": "sQYQ0sB0Zutl5nrevnWhXQ", "score": 15}, "geometry": {"type": "Point", "coordinates": [9.1016617, 47.2841844]}}, {"type": "Feature", "properties": {"name": "g0PxwLrvzb4aIUm9gr6COg", "score": 23}, "geometry": {"type": "Point", "coordinates": [9.1016462, 47.2840481]}}, {"type": "Feature", "properties": {"name": "01i4p_bVc5i4b61WCaPeZQ", "score": 18}, "geometry": {"type": "Point", "coordinates": [9.1016276, 47.2839129]}}, {"type": "Feature", "properties": {"name": "T6Ev5ovhglWXmFVg17s8Zg", "score": 14}, "geometry": {"type": "Point", "coordinates": [9.1016136, 47.2837886]}}, {"type": "Feature", "properties": {"name": "9bkEiEK3RI-xCNGrjCMTeQ", "score": 9}, "geometry": {"type": "Point", "coordinates": [9.1016026, 47.2836569]}}, {"type": "Feature", "properties": {"name": "g6OflZqRZ_fHRxRkxnM3ZQ", "score": 40}, "geometry": {"type": "Point", "coordinates": [9.1015984, 47.2835246]}}, {"type": "Feature", "properties": {"name": "d9K7FZqpTLnrvrX9pgnl_g", "score": 33}, "geometry": {"type": "Point", "coordinates": [9.1016058, 47.2833746]}}, {"type": "Feature", "properties": {"name": "Pq439FUGHrKzwNQpbPWQlQ", "score": 43}, "geometry": {"type": "Point", "coordinates": [9.1016295, 47.2832374]}}, {"type": "Feature", "properties": {"name": "LQiZy70gD9rU7aOdMuggUw", "score": 33}, "geometry": {"type": "Point", "coordinates": [9.1016685, 47.2831049]}}, {"type": "Feature", "properties": {"name": "VzvfKhLnflKEdelV-FwVnA", "score": 25}, "geometry": {"type": "Point", "coordinates": [9.1017263, 47.2829645]}}, {"type": "Feature", "properties": {"name": "12of2sLB8RYoohv5M3IXyQ", "score": 13}, "geometry": {"type": "Point", "coordinates": [9.1017872, 47.282828]}}, {"type": "Feature", "properties": {"name": "NcN2589qNXVLwNRbYr2R_g", "score": 25}, "geometry": {"type": "Point", "coordinates": [9.1018558, 47.2826834]}}, {"type": "Feature", "properties": {"name": "kXVS-4PE_48nBSR9owlBmw", "score": 24}, "geometry": {"type": "Point", "coordinates": [9.1019308, 47.2825401]}}, {"type": "Feature", "properties": {"name": "FqAcvpbjowiRxnd8APqbqg", "score": 15}, "geometry": {"type": "Point", "coordinates": [9.1020128, 47.2823872]}}, {"type": "Feature", "properties": {"name": "_IhkuS0u7h43C6qHlNYVww", "score": 27}, "geometry": {"type": "Point", "coordinates": [9.102087, 47.2822339]}}, {"type": "Feature", "properties": {"name": "izc-R9v1Ofp9OnMoM6VLaA", "score": 21}, "geometry": {"type": "Point", "coordinates": [9.1021672, 47.282069]}}, {"type": "Feature", "properties": {"name": "E-adUmhbGEpmJ62r8ClHqg", "score": 14}, "geometry": {"type": "Point", "coordinates": [9.1022533, 47.2818916]}}, {"type": "Feature", "properties": {"name": "82PM3ZFFFgHn6n7W5js9uQ", "score": 2}, "geometry": {"type": "Point", "coordinates": [9.1023498, 47.2817031]}}, {"type": "Feature", "properties": {"name": "EMufpryA-1uQTgwc-xQMAQ", "score": 10}, "geometry": {"type": "Point", "coordinates": [9.102452, 47.2815207]}}, {"type": "Feature", "properties": {"name": "MbrgDFsnFmeWy8ahamdq1Q", "score": 17}, "geometry": {"type": "Point", "coordinates": [9.1025841, 47.2813288]}}, {"type": "Feature", "properties": {"name": "GPf-Xzl7Lc9VTJlqzo-JLA", "score": 27}, "geometry": {"type": "Point", "coordinates": [9.1027501, 47.2811462]}}, {"type": "Feature", "properties": {"name": "raLhQXCgfNhBn-4adcKMnw", "score": 20}, "geometry": {"type": "Point", "coordinates": [9.1029291, 47.2809772]}}, {"type": "Feature", "properties": {"name": "NYCkOyEYk7FmMs4fur6VFQ", "score": 27}, "geometry": {"type": "Point", "coordinates": [9.1031143, 47.2808126]}}, {"type": "Feature", "properties": {"name": "Hku0qi6Ec5p3ZCI6aBMSQQ", "score": 20}, "geometry": {"type": "Point", "coordinates": [9.1033127, 47.2806382]}}, {"type": "Feature", "properties": {"name": "t30iWwnp4ld-9k8utHwIJQ", "score": 12}, "geometry": {"type": "Point", "coordinates": [9.1034968, 47.2804761]}}, {"type": "Feature", "properties": {"name": "XhJF9pWDaiZ8NhRMK99UUw", "score": 10}, "geometry": {"type": "Point", "coordinates": [9.103685, 47.2803091]}}, {"type": "Feature", "properties": {"name": "dNkWGrSP1rfEEbXQGPPvAQ", "score": 12}, "geometry": {"type": "Point", "coordinates": [9.1038682, 47.2801424]}}, {"type": "Feature", "properties": {"name": "A2qV2eC1dplR9d7J_72lnA", "score": 13}, "geometry": {"type": "Point", "coordinates": [9.1040553, 47.27997]}}, {"type": "Feature", "properties": {"name": "psOWMmXZNvkT23pmC0tnEA", "score": 12}, "geometry": {"type": "Point", "coordinates": [9.104243, 47.279799]}}, {"type": "Feature", "properties": {"name": "G_owZEVMhZV0u1WWBkmzeA", "score": 19}, "geometry": {"type": "Point", "coordinates": [9.1044287, 47.2796312]}}, {"type": "Feature", "properties": {"name": "QTdDpKj-UUN53_vfLJTAgw", "score": 13}, "geometry": {"type": "Point", "coordinates": [9.1046363, 47.2794427]}}, {"type": "Feature", "properties": {"name": "5UGZRtbbau3ciQM2zqweCQ", "score": 14}, "geometry": {"type": "Point", "coordinates": [9.1048257, 47.2792685]}}, {"type": "Feature", "properties": {"name": "VyuY2wYEe767xDlL2ha4iA", "score": 14}, "geometry": {"type": "Point", "coordinates": [9.1050159, 47.279093]}}, {"type": "Feature", "properties": {"name": "ty84-9VHo2_APwZxshy87w", "score": 13}, "geometry": {"type": "Point", "coordinates": [9.1051998, 47.2789199]}}, {"type": "Feature", "properties": {"name": "d4x4jTkTM7cRSTvluVWZJg", "score": 6}, "geometry": {"type": "Point", "coordinates": [9.1053819, 47.2787416]}}, {"type": "Feature", "properties": {"name": "QuuVvufrgSLn3mQnq94kfw", "score": 12}, "geometry": {"type": "Point", "coordinates": [9.1055429, 47.2785747]}}, {"type": "Feature", "properties": {"name": "vLEFWbgqZ5DuyPDdtoMNZQ", "score": 12}, "geometry": {"type": "Point", "coordinates": [9.1056972, 47.2784069]}}, {"type": "Feature", "properties": {"name": "EJ1ZhskhHGXAM4qpZT1K1Q", "score": 9}, "geometry": {"type": "Point", "coordinates": [9.1058461, 47.27824]}}, {"type": "Feature", "properties": {"name": "Rh4gdM27mPD8QpW6LGHR2Q", "score": 29}, "geometry": {"type": "Point", "coordinates": [9.1059774, 47.2780857]}}, {"type": "Feature", "properties": {"name": "_709PD3dH6ztPYGzuwVXOg", "score": 25}, "geometry": {"type": "Point", "coordinates": [9.106093, 47.2779436]}}, {"type": "Feature", "properties": {"name": "aSsQZPB6TDjcxNtG7IMtEQ", "score": 37}, "geometry": {"type": "Point", "coordinates": [9.1062035, 47.2778026]}}, {"type": "Feature", "properties": {"name": "DittArBR5OfziUURxzN0jw", "score": 25}, "geometry": {"type": "Point", "coordinates": [9.1063102, 47.2776665]}}, {"type": "Feature", "properties": {"name": "HEWwNSbcLJOkHBLGvE2C3A", "score": 39}, "geometry": {"type": "Point", "coordinates": [9.1064179, 47.2775306]}}, {"type": "Feature", "properties": {"name": "zJQYy3VuqDcyGPaIuleU3A", "score": 32}, "geometry": {"type": "Point", "coordinates": [9.1065247, 47.2773949]}}, {"type": "Feature", "properties": {"name": "yipGwB60lJqhvxHaIXYUGg", "score": 31}, "geometry": {"type": "Point", "coordinates": [9.1066373, 47.2772559]}}, {"type": "Feature", "properties": {"name": "kjvLAyqNM0yqJjijN0__aQ", "score": 10}, "geometry": {"type": "Point", "coordinates": [9.1067556, 47.2771087]}}, {"type": "Feature", "properties": {"name": "dBd03cURZ8zMdOCCINhgUA", "score": 20}, "geometry": {"type": "Point", "coordinates": [9.1068655, 47.2769688]}}, {"type": "Feature", "properties": {"name": "19fm8TambaOvlX0_7ckvdg", "score": 11}, "geometry": {"type": "Point", "coordinates": [9.1069764, 47.2768383]}}, {"type": "Feature", "properties": {"name": "kB4n64o8U3UiSQldtMhKJg", "score": 4}, "geometry": {"type": "Point", "coordinates": [9.1071167, 47.276704]}}, {"type": "Feature", "properties": {"name": "7XKgo04LXTHvFwDnAVuLDw", "score": 12}, "geometry": {"type": "Point", "coordinates": [9.107273, 47.276587]}}, {"type": "Feature", "properties": {"name": "1oNzQ2zxQzlEg9suXbkJNw", "score": 10}, "geometry": {"type": "Point", "coordinates": [9.1074652, 47.276494]}}, {"type": "Feature", "properties": {"name": "XMjZJGcfGQEClEHzxwtIqQ", "score": 13}, "geometry": {"type": "Point", "coordinates": [9.1076812, 47.2764268]}}, {"type": "Feature", "properties": {"name": "W15HRL5pTtgTJTPNeqAXCg", "score": 8}, "geometry": {"type": "Point", "coordinates": [9.1079315, 47.2763955]}}, {"type": "Feature", "properties": {"name": "AgZr5cbwEQIyPkcLpjFBTQ", "score": 24}, "geometry": {"type": "Point", "coordinates": [9.1081817, 47.2764011]}}, {"type": "Feature", "properties": {"name": "_zOxUOAOUv3bXl2OCgX5ew", "score": 13}, "geometry": {"type": "Point", "coordinates": [9.1084302, 47.2764362]}}, {"type": "Feature", "properties": {"name": "okzKF8c0-6g1WdbmyPwqCA", "score": 6}, "geometry": {"type": "Point", "coordinates": [9.1086793, 47.2764823]}}, {"type": "Feature", "properties": {"name": "N9_Perlo_oD90Dxc4gB3FA", "score": 9}, "geometry": {"type": "Point", "coordinates": [9.1089403, 47.2765113]}}, {"type": "Feature", "properties": {"name": "Ntz0b42KUB2uZILXVHJHOQ", "score": 11}, "geometry": {"type": "Point", "coordinates": [9.109206, 47.2765171]}}, {"type": "Feature", "properties": {"name": "R5GsBBKX9KaGLxI3x244qw", "score": 14}, "geometry": {"type": "Point", "coordinates": [9.1094924, 47.2765199]}}, {"type": "Feature", "properties": {"name": "5Pac_DoQDLIMaTDFS1tAqA", "score": 10}, "geometry": {"type": "Point", "coordinates": [9.1097684, 47.2765234]}}, {"type": "Feature", "properties": {"name": "RUmqv4rCvq6xFDbp4zBnPw", "score": 9}, "geometry": {"type": "Point", "coordinates": [9.1100661, 47.2765282]}}, {"type": "Feature", "properties": {"name": "NQTwVV5hGcykHlOpdnmhYQ", "score": 17}, "geometry": {"type": "Point", "coordinates": [9.1103508, 47.2765205]}}, {"type": "Feature", "properties": {"name": "erDahgtNqw-2eOLu8KyTfg", "score": 4}, "geometry": {"type": "Point", "coordinates": [9.1106213, 47.2764816]}}, {"type": "Feature", "properties": {"name": "s55rxRZFaVFWAHNI23Y5Nw", "score": 12}, "geometry": {"type": "Point", "coordinates": [9.1109004, 47.276418]}}, {"type": "Feature", "properties": {"name": "-Qmao5gxyBWhvxDmYEtf4Q", "score": 6}, "geometry": {"type": "Point", "coordinates": [9.1111487, 47.2763407]}}, {"type": "Feature", "properties": {"name": "O_mpcaQuWkr2lMhBU8M5bA", "score": 9}, "geometry": {"type": "Point", "coordinates": [9.1113947, 47.2762385]}}, {"type": "Feature", "properties": {"name": "lARaNWqltxDxFLMOL0bqKg", "score": 3}, "geometry": {"type": "Point", "coordinates": [9.1116254, 47.2761135]}}, {"type": "Feature", "properties": {"name": "heUbewTASbTEt6Y9XCrq4g", "score": 13}, "geometry": {"type": "Point", "coordinates": [9.111843, 47.2759782]}}, {"type": "Feature", "properties": {"name": "CKQFqA18h0Cyy95CSmYdnw", "score": 14}, "geometry": {"type": "Point", "coordinates": [9.1120676, 47.2758274]}}, {"type": "Feature", "properties": {"name": "i20Erwv11gxGcwQIn51lFA", "score": 14}, "geometry": {"type": "Point", "coordinates": [9.1122743, 47.2756667]}},